[{"name": "Super Foods of Greenville", "type": "restaurant", "image": null, "address": "175 Greenville Byp, Greenville, AL 36037-3724", "lat": 31.8501, "lng": -86.63594, "ref_id": 26936048, "rating": -1, "num_reviews": 0, "website": "https://www.superfoodsgreenville.com/shop/contact_us", "contact_phone": "+1 334-382-6031", "contact_email": null, "status": 1, "source_type": 1, "numberReviews": 0}, {"name": "Sonic Drive-In", "type": "restaurant", "image": null, "address": "712 Willow Ln, Greenville, AL 36037-8030", "lat": 31.850216, "lng": -86.64288, "ref_id": 15259554, "rating": -1, "num_reviews": 0, "website": "https://locations.sonicdrivein.com/al/greenville/712-willow-lane.html", "contact_phone": "+13343821254", "contact_email": null, "status": 1, "source_type": 1, "numberReviews": 0}, {"name": "Subway", "type": "restaurant", "image": null, "address": "501 Willow Ln, Greenville, AL 36037-8021", "lat": 31.849379, "lng": -86.647255, "ref_id": 20154987, "rating": -1, "num_reviews": 0, "website": "https://www.facebook.com/185455008143541", "contact_phone": "+13343716690", "contact_email": null, "status": 1, "source_type": 1, "numberReviews": 0}, {"name": "San Marcos Mexican Grill", "type": "restaurant", "image": null, "address": "1009 Rucker Blvd, Enterprise, AL 36330-3620", "lat": null, "lng": null, "ref_id": 26789552, "rating": 3, "num_reviews": 0, "website": "https://www.facebook.com/102228805364656", "contact_phone": "+1 334-453-5750", "contact_email": null, "status": 1, "source_type": 1, "numberReviews": 1}, {"name": "Krispy Krunchy Chicken", "type": "restaurant", "image": null, "address": "11940 Al Highway 169, Salem, AL 36874-2710", "lat": 32.496037, "lng": -85.22357, "ref_id": 27527974, "rating": -1, "num_reviews": 0, "website": "https://www.krispykrunchy.com/", "contact_phone": "+1 334-291-8291", "contact_email": null, "status": 1, "source_type": 1, "numberReviews": 0}, {"name": "Tally Ho", "type": "restaurant", "image": "https://dynamic-media-cdn.tripadvisor.com/media/photo-o/0a/74/1a/27/photo0jpg.jpg?w=1000&s=1", "address": "509 Mangum Ave, Selma, AL 36701-4717", "lat": 32.439873, "lng": -87.031456, "ref_id": 866015, "rating": 4.5, "num_reviews": 0, "website": "http://www.tallyhoselma.com/", "contact_phone": "+1 334-872-1390", "contact_email": "", "status": 1, "source_type": 1, "numberReviews": 119}, {"name": "Lannie's Bar-B-Q", "type": "restaurant", "image": "https://dynamic-media-cdn.tripadvisor.com/media/photo-o/13/05/22/6e/photo0jpg.jpg?w=1000&s=1", "address": "2115 Minter Ave, Selma, AL 36703-3062", "lat": 32.421597, "lng": -87.04827, "ref_id": 524157, "rating": 4, "num_reviews": 0, "website": "http://www.facebook.com/Lannies-Bar-B-Q-Spot-121063351240430/timeline", "contact_phone": "+1 334-872-8573", "contact_email": "", "status": 1, "source_type": 1, "numberReviews": 74}, {"name": "Hancock's Barbeque", "type": "restaurant", "image": "https://dynamic-media-cdn.tripadvisor.com/media/photo-o/17/b1/32/5a/photo0jpg.jpg?w=1000&s=1", "address": "72 County Road 46, Selma, AL 36701-0818", "lat": 32.38388, "lng": -87.08727, "ref_id": 2719545, "rating": 4, "num_reviews": 0, "website": "https://www.facebook.com/hancocks-country-bbq-159925010718168", "contact_phone": "+1 334-872-5541", "contact_email": null, "status": 1, "source_type": 1, "numberReviews": 50}, {"name": "The Sandbar", "type": "restaurant", "image": "https://dynamic-media-cdn.tripadvisor.com/media/photo-o/1b/37/be/7f/the-sandbar-at-night.jpg?w=1000&s=1", "address": "1 Marina Dr, Selma, AL 36701-6554", "lat": 32.397614, "lng": -87.04264, "ref_id": 4840225, "rating": 4, "num_reviews": 0, "website": "http://www.sandbarselma.com", "contact_phone": "+1 334-877-1444", "contact_email": "sandbar1@gmail.com", "status": 1, "source_type": 1, "numberReviews": 32}, {"name": "Lannie's Bar-b-q Spot", "type": "restaurant", "image": "https://dynamic-media-cdn.tripadvisor.com/media/photo-o/08/d4/81/db/outstanding-food-great.jpg?w=1000&s=1", "address": "2115 Minter Ave, Selma, AL 36703-3062", "lat": 32.419113, "lng": -87.01031, "ref_id": 5091073, "rating": 4.5, "num_reviews": 0, "website": "http://lanniesbarbqspot.amlnk.com", "contact_phone": "+1 334-874-4478", "contact_email": null, "status": 1, "source_type": 1, "numberReviews": 20}, {"name": "Mr Waffle", "type": "restaurant", "image": "https://dynamic-media-cdn.tripadvisor.com/media/photo-o/28/2a/a2/bc/caption.jpg?w=1000&s=1", "address": "1518 W Highland Ave, Selma, AL 36701-6607", "lat": 32.43219, "lng": -87.04457, "ref_id": 5572194, "rating": 4, "num_reviews": 0, "website": "https://www.facebook.com/134903693226541", "contact_phone": "+1 334-874-7600", "contact_email": "mr.waffle.selma@gmail.com", "status": 1, "source_type": 1, "numberReviews": 18}, {"name": "Downtowner", "type": "restaurant", "image": "https://dynamic-media-cdn.tripadvisor.com/media/photo-o/16/81/74/5e/photo0jpg.jpg?w=1000&s=1", "address": "1114 Selma Ave, Selma, AL 36703-4444", "lat": 32.40907, "lng": -87.01994, "ref_id": 10081229, "rating": 3.5, "num_reviews": 0, "website": "http://www.facebook.com/Downtowner-Restaurant-120425651307994", "contact_phone": null, "contact_email": null, "status": 1, "source_type": 1, "numberReviews": 21}, {"name": "Jack's", "type": "restaurant", "image": null, "address": "1806 W Dallas Ave, Selma, AL 36701-7025", "lat": 32.3987, "lng": -87.064316, "ref_id": 4711652, "rating": 4.5, "num_reviews": 0, "website": "https://locations.eatatjacks.com/al/selma/1806-w-dallas-ave/", "contact_phone": "+1 334-872-2488", "contact_email": null, "status": 1, "source_type": 1, "numberReviews": 8}, {"name": "Huddle House", "type": "restaurant", "image": null, "address": "1334 Highland Avenue, Selma, AL 36701", "lat": 32.430748, "lng": -87.014725, "ref_id": 20807320, "rating": 4, "num_reviews": 0, "website": "https://locations.huddlehouse.com/al/selma/1376-e-highland-avenue", "contact_phone": "+1 334-553-2400", "contact_email": "Digital@huddlehouse.com", "status": 1, "source_type": 1, "numberReviews": 6}, {"name": "Valle Grande Mexican Grill", "type": "restaurant", "image": null, "address": "5518 Al Highway 22 N, Selma, AL 36701-9142", "lat": 32.48159, "lng": -87.00238, "ref_id": 5014473, "rating": 4, "num_reviews": 0, "website": "https://www.facebook.com/ilovevgmg/", "contact_phone": "+1 334-877-1118", "contact_email": null, "status": 1, "source_type": 1, "numberReviews": 11}, {"name": "Hog Heaven BBQ", "type": "restaurant", "image": null, "address": "8938 Al-14 E, Selma, AL 36703-5618", "lat": 32.46876, "lng": -86.87792, "ref_id": 4716897, "rating": 5, "num_reviews": 0, "website": "https://www.facebook.com/105113922992204", "contact_phone": "+1 334-875-1175", "contact_email": null, "status": 1, "source_type": 1, "numberReviews": 2}, {"name": "Taco Bell", "type": "restaurant", "image": null, "address": "303 Highland Ave, Selma, AL 36701-6224", "lat": 32.431625, "lng": -87.035385, "ref_id": 4619360, "rating": 4.5, "num_reviews": 0, "website": "https://www.facebook.com/467388850272468", "contact_phone": "+1 334-872-6034", "contact_email": null, "status": 1, "source_type": 1, "numberReviews": 4}, {"name": "Mi Tenampa Mexican Restaurent", "type": "restaurant", "image": "https://dynamic-media-cdn.tripadvisor.com/media/photo-o/10/31/46/0b/the-food-almost-done.jpg?w=1000&s=1", "address": "1629 W Highland Ave, Selma, AL 36701-6610", "lat": 32.433327, "lng": -87.04732, "ref_id": 10020796, "rating": 3.5, "num_reviews": 0, "website": "https://www.facebook.com/Smitenampa2/", "contact_phone": "+1 334-418-0340", "contact_email": null, "status": 1, "source_type": 1, "numberReviews": 10}, {"name": "Chatinos Mexican Grill", "type": "restaurant", "image": null, "address": "1401 West Highland Avenue, Selma, AL", "lat": 32.41179, "lng": -87.02223, "ref_id": 27127440, "rating": 5, "num_reviews": 0, "website": null, "contact_phone": null, "contact_email": null, "status": 1, "source_type": 1, "numberReviews": 1}, {"name": "McDonald's", "type": "restaurant", "image": null, "address": "600 Highland Ave, Selma, AL 36701-4924", "lat": 32.43075, "lng": -87.03184, "ref_id": 15787851, "rating": 4, "num_reviews": 0, "website": "https://www.mcdonalds.com/us/en-us/location/al/selma/600-highland-ave/25205.html?cid=rf%3ayxt%3aron%3a%3aclicks%3fcid%3drf%3ayxt%3afb%3a%3aclicks", "contact_phone": "+13345264379", "contact_email": null, "status": 1, "source_type": 1, "numberReviews": 2}, {"name": "Captain D's", "type": "restaurant", "image": null, "address": "1516 W Highland Ave, Selma, AL 36701-6607", "lat": 32.43216, "lng": -87.04491, "ref_id": 4646402, "rating": 4, "num_reviews": 0, "website": "https://locations.captainds.com/ll/us/al/selma/1516-w-highland-ave", "contact_phone": "+1 334-872-7000", "contact_email": null, "status": 1, "source_type": 1, "numberReviews": 3}, {"name": "Sonic Drive-In", "type": "restaurant", "image": null, "address": "2407 N Broad St, Selma, AL 36701-4010", "lat": 32.432076, "lng": -87.02499, "ref_id": 4612003, "rating": 3.5, "num_reviews": 0, "website": "https://locations.sonicdrivein.com/al/selma/2407-n.-broad-street.html", "contact_phone": "+1 334-875-2594", "contact_email": null, "status": 1, "source_type": 1, "numberReviews": 8}, {"name": "American Deli", "type": "restaurant", "image": null, "address": "405 Highland Ave, Selma, AL 36701-6226", "lat": 32.43161, "lng": -87.03412, "ref_id": 19843382, "rating": 3, "num_reviews": 0, "website": "http://americandeli.com/", "contact_phone": "+13345264446", "contact_email": "info@americandeli.com", "status": 1, "source_type": 1, "numberReviews": 1}, {"name": "Papa Johns Pizza", "type": "restaurant", "image": null, "address": "210 Highland Ave, Selma, AL 36701", "lat": 32.431084, "lng": -87.03715, "ref_id": 4658276, "rating": 2.5, "num_reviews": 0, "website": "https://locations.papajohns.com/united-states/al/36701/selma/210-highland-ave?utm_source=gmb&utm_medium=organic&y_source=1_MTA2OTE0NTYtNzY5LWxvY2F0aW9uLndlYnNpdGU%3D", "contact_phone": "+1 334-526-3017", "contact_email": null, "status": 1, "source_type": 1, "numberReviews": 3}, {"name": "Church's Texas Chicken", "type": "restaurant", "image": "https://dynamic-media-cdn.tripadvisor.com/media/photo-o/1b/03/6f/7b/we-were-hungry.jpg?w=1000&s=1", "address": "1208 Broad St, Selma, AL 36701-4302", "lat": 32.417572, "lng": -87.02389, "ref_id": 4734307, "rating": 3, "num_reviews": 0, "website": "https://locations.churchs.com/al/selma/1208-broad-street", "contact_phone": "+1 334-877-1129", "contact_email": null, "status": 1, "source_type": 1, "numberReviews": 7}, {"name": "Burger King", "type": "restaurant", "image": null, "address": "312 Highland Ave, Selma, AL 36701-6223", "lat": 32.430786, "lng": -87.035065, "ref_id": 4619763, "rating": 3, "num_reviews": 0, "website": "https://burgerking.com/store-locator/store/restaurant_820", "contact_phone": "+1 334-874-8300", "contact_email": null, "status": 1, "source_type": 1, "numberReviews": 8}, {"name": "Wendy's", "type": "restaurant", "image": null, "address": "1790 Al Highway 14 E, Selma, AL 36703-3203", "lat": 32.431976, "lng": -87.01401, "ref_id": 15783282, "rating": 2, "num_reviews": 0, "website": "https://locations.wendys.com/united-states/al/selma/1790-alabama-hwy-14", "contact_phone": "+1 334-875-5194", "contact_email": null, "status": 1, "source_type": 1, "numberReviews": 1}, {"name": "China Star", "type": "restaurant", "image": null, "address": "1798 Al Highway 14 E, Selma, AL 36703-3203", "lat": 32.43216, "lng": -87.01157, "ref_id": 865996, "rating": 1.5, "num_reviews": 0, "website": null, "contact_phone": "+1 334-875-3603", "contact_email": "", "status": 1, "source_type": 1, "numberReviews": 2}, {"name": "Subway", "type": "restaurant", "image": null, "address": "1338 Highland Ave, Selma, AL 36701", "lat": 32.430286, "lng": -87.01636, "ref_id": 14106004, "rating": 2, "num_reviews": 0, "website": "https://restaurants.subway.com/united-states/al/selma/1338-highland-ave?utm_source=yext-other&utm_medium=local&utm_term=acq&utm_content=11355&utm_campaign=evergreen-2020&y_source=1_MTQ5MDg3NDItNzY5LWxvY2F0aW9uLndlYnNpdGU%3D", "contact_phone": "+1 334-431-5471", "contact_email": null, "status": 1, "source_type": 1, "numberReviews": 2}, {"name": "Organpi Farms Farmhouse", "type": "restaurant", "image": null, "address": "1010 Water Ave, Selma, AL 36701-4617", "lat": 32.40605, "lng": -87.0196, "ref_id": 14881260, "rating": 2.5, "num_reviews": 0, "website": "https://www.facebook.com/organpifarms/", "contact_phone": "+1 334-526-4560", "contact_email": "ganjabistro@gmail.com", "status": 1, "source_type": 1, "numberReviews": 2}, {"name": "Popeyes Louisiana Kitchen", "type": "restaurant", "image": null, "address": "1221 Highland Ave, Selma, AL 36703-4134", "lat": 32.431805, "lng": -87.02033, "ref_id": 4616366, "rating": 2.5, "num_reviews": 0, "website": "https://www.popeyes.com/store-locator/store/restaurant_83666?utm_source=yext&utm_medium=referral&utm_campaign=organic-local-listings", "contact_phone": "+1 334-877-0681", "contact_email": "popeyes9945@cajun-ssc.net", "status": 1, "source_type": 1, "numberReviews": 7}, {"name": "Vasser's Mini Mart", "type": "restaurant", "image": "https://dynamic-media-cdn.tripadvisor.com/media/photo-o/0c/13/a2/67/vasser-s-mini-mart.jpg?w=1000&s=1", "address": "1900 W Dallas Ave, Selma, AL 36701-7027", "lat": 32.39842, "lng": -87.06475, "ref_id": 3242015, "rating": 3, "num_reviews": 0, "website": "https://www.facebook.com/vassers/", "contact_phone": "+1 334-418-0560", "contact_email": null, "status": 1, "source_type": 1, "numberReviews": 21}, {"name": "Hardee's", "type": "restaurant", "image": null, "address": "1201 Highland Ave, Selma, AL 36703-4134", "lat": 32.431686, "lng": -87.02191, "ref_id": 17522179, "rating": -1, "num_reviews": 0, "website": "https://locations.hardees.com/al/selma/1201-highland-ave", "contact_phone": "+13348728351", "contact_email": null, "status": 1, "source_type": 1, "numberReviews": 0}, {"name": "Selma Cash and Carry Warehouse Grocery", "type": "restaurant", "image": null, "address": "1315 W Highland Ave, Selma, AL 36701-6604", "lat": 32.432117, "lng": -87.04091, "ref_id": 26900925, "rating": -1, "num_reviews": 0, "website": "", "contact_phone": "+1 334-874-8060", "contact_email": null, "status": 1, "source_type": 1, "numberReviews": 0}, {"name": "Krispy Krunchy Chicken", "type": "restaurant", "image": null, "address": "4865 Us Hwy 80 East, Selma, AL 36701", "lat": 32.35342, "lng": -86.968765, "ref_id": 27528066, "rating": -1, "num_reviews": 0, "website": "https://www.krispykrunchy.com/", "contact_phone": "+1 334-418-6930", "contact_email": null, "status": 1, "source_type": 1, "numberReviews": 0}, {"name": "Hunter's Gold Custom Meats", "type": "restaurant", "image": null, "address": "11634 County Road 9, Millport, AL 35576-3049", "lat": 33.63758, "lng": -88.23133, "ref_id": 26981997, "rating": -1, "num_reviews": 0, "website": "https://www.facebook.com/318360796167", "contact_phone": "+12056625707", "contact_email": null, "status": 1, "source_type": 1, "numberReviews": 0}, {"name": "Hero Doughnuts", "type": "restaurant", "image": null, "address": "314 Main Street, Trussville, AL 35173", "lat": null, "lng": null, "ref_id": 26602559, "rating": -1, "num_reviews": 0, "website": "www.herodoughnutsandbuns.com", "contact_phone": "+1 205-825-8875", "contact_email": "guestfeedback@herodoughnuts.com", "status": 1, "source_type": 1, "numberReviews": 0}, {"name": "Tacky Jacks 2 - Fort Morgan", "type": "restaurant", "image": "https://dynamic-media-cdn.tripadvisor.com/media/photo-o/0f/fb/e1/17/plenty-of-seating.jpg?w=1000&s=1", "address": "1577 State Highway 180, Fort Morgan, AL 36542-7008", "lat": 30.232716, "lng": -87.994606, "ref_id": 4071485, "rating": 3.5, "num_reviews": 0, "website": "https://www.facebook.com/160719080648926", "contact_phone": "+1 251-968-8341", "contact_email": "kkichler@tackyjacks.com", "status": 1, "source_type": 1, "numberReviews": 689}, {"name": "Texas Pit Oyster Bar", "type": "restaurant", "image": null, "address": "100 Sandshell Boulevard, Tarrant, AL", "lat": null, "lng": null, "ref_id": 5000711, "rating": -1, "num_reviews": 0, "website": null, "contact_phone": null, "contact_email": null, "status": 1, "source_type": 1, "numberReviews": 0}, {"name": "Corner Pit BBQ", "type": "restaurant", "image": "https://dynamic-media-cdn.tripadvisor.com/media/photo-o/0f/52/62/db/ta-img-20170519-130725.jpg?w=1000&s=1", "address": "107 Dellrose Rd, Dellrose, TN 38453-5115", "lat": 35.09923, "lng": -86.86183, "ref_id": 3226919, "rating": 4.5, "num_reviews": 0, "website": "http://Cornerpitbbq.com", "contact_phone": "+1 931-732-4575", "contact_email": null, "status": 1, "source_type": 1, "numberReviews": 21}, {"name": "Shady Lawn \"The Big Chicken\" Truck Stop", "type": "restaurant", "image": "https://dynamic-media-cdn.tripadvisor.com/media/photo-o/12/72/88/01/the-front-of-the-shady.jpg?w=1000&s=1", "address": "1371 Bryson Rd exit 6 on I-65, Elkton, TN 38449-5248", "lat": 35.083393, "lng": -86.88267, "ref_id": 9584939, "rating": 4.5, "num_reviews": 0, "website": "https://www.facebook.com/shadylawntruckstop", "contact_phone": "+1 931-468-0601", "contact_email": "parsonsoil@fpunet.com", "status": 1, "source_type": 1, "numberReviews": 41}, {"name": "Wise Ant General Store & Bakery", "type": "restaurant", "image": null, "address": "2886 Bryson Rd, Ardmore, TN 38449-5229", "lat": 35.098854, "lng": -86.86184, "ref_id": 26949499, "rating": -1, "num_reviews": 0, "website": "https://www.facebook.com/111160854048838", "contact_phone": "+19316389473", "contact_email": null, "status": 1, "source_type": 1, "numberReviews": 0}, {"name": "R & D Grill And Feed", "type": "restaurant", "image": null, "address": "10672 Nathan Jordan Rd, Millry, AL 36558-5961", "lat": 31.596533, "lng": -88.36005, "ref_id": 26917037, "rating": -1, "num_reviews": 0, "website": "", "contact_phone": "+1 251-846-2446", "contact_email": null, "status": 1, "source_type": 1, "numberReviews": 0}, {"name": "Cinnabon", "type": "restaurant", "image": null, "address": "1000 Eastdale Mall, Montgomery, AL 36117", "lat": 32.385036, "lng": -86.20637, "ref_id": 19601894, "rating": -1, "num_reviews": 0, "website": "https://locations.cinnabon.com/al/montgomery/5501-atlanta-highway?utm_source=extnet&utm_medium=organic&utm_campaign=locations_partner", "contact_phone": "+1 334-274-0891", "contact_email": null, "status": 1, "source_type": 1, "numberReviews": 0}, {"name": "Domino's Pizza", "type": "restaurant", "image": null, "address": "5338 Atlanta Hwy, Montgomery, AL 36109", "lat": 32.381214, "lng": -86.217064, "ref_id": 15263139, "rating": -1, "num_reviews": 0, "website": "https://www.dominos.com/en/?redirect=homepage&utm_source=locallistings&utm_medium=loclist&utm_campaign=localmaps", "contact_phone": "+1 334-271-6401", "contact_email": null, "status": 1, "source_type": 1, "numberReviews": 0}, {"name": "Chick-fil-A", "type": "restaurant", "image": null, "address": "2520 Eastern Blvd, Montgomery, AL 36117", "lat": 32.348145, "lng": -86.22266, "ref_id": 26515386, "rating": -1, "num_reviews": 0, "website": "https://www.chick-fil-a.com/locations/al/montgomery-promenade?utm_source=yext&utm_medium=link", "contact_phone": "+1 334-271-0104", "contact_email": "05091@chick-fil-a.com", "status": 1, "source_type": 1, "numberReviews": 0}, {"name": "Masa Express", "type": "restaurant", "image": null, "address": "2217 E South Blvd, Montgomery, AL 36116-2404", "lat": 32.32756, "lng": -86.27137, "ref_id": 27858268, "rating": -1, "num_reviews": 0, "website": "http://www.masaexpressmontgomery.com/", "contact_phone": "+13345901878", "contact_email": null, "status": 1, "source_type": 1, "numberReviews": 0}, {"name": "Taqueria Los Primos", "type": "restaurant", "image": null, "address": "4429 Troy Hwy, Montgomery, AL 36116-4107", "lat": 32.31336, "lng": -86.22438, "ref_id": 26920155, "rating": -1, "num_reviews": 0, "website": "https://jawy.top/taqueria-los-primos-2", "contact_phone": "+13346127239", "contact_email": null, "status": 1, "source_type": 1, "numberReviews": 0}, {"name": "Sbarro Italian Eatery", "type": "restaurant", "image": null, "address": "1276 Eastdale Mall, Montgomery, AL 36117-2154", "lat": 32.38341, "lng": -86.207794, "ref_id": 544577, "rating": -1, "num_reviews": 0, "website": null, "contact_phone": "+1 334-272-9804", "contact_email": "", "status": 1, "source_type": 1, "numberReviews": 0}, {"name": "Freeze Daiquiri Bar & Grill", "type": "restaurant", "image": null, "address": "115 E South Blvd, Montgomery, AL 36105-3215", "lat": 32.32749, "lng": -86.30405, "ref_id": 26980135, "rating": -1, "num_reviews": 0, "website": "http://freezebar.com", "contact_phone": "+1 334-647-1417", "contact_email": null, "status": 1, "source_type": 1, "numberReviews": 0}, {"name": "Clay Seafood House", "type": "restaurant", "image": null, "address": "1260 W South Blvd, Montgomery, AL 36105-3027", "lat": 32.32898, "lng": -86.34249, "ref_id": 26914559, "rating": -1, "num_reviews": 0, "website": "http://clayseafoodhouse.net/", "contact_phone": "+13345933810", "contact_email": null, "status": 1, "source_type": 1, "numberReviews": 0}, {"name": "Pizza Hut", "type": "restaurant", "image": null, "address": "941 W South Blvd, Montgomery, AL 36108", "lat": 32.325665, "lng": -86.328606, "ref_id": 15257040, "rating": -1, "num_reviews": 0, "website": "https://locations.pizzahut.com/al/montgomery/941-w-south-blvd?utm_medium=organic&utm_source=local&utm_campaign=yextpowerlistings&utm_content=website&utm_term=290477", "contact_phone": "+1 334-288-2682", "contact_email": "rs033209@pizzahut.com", "status": 1, "source_type": 1, "numberReviews": 0}, {"name": "Krystal", "type": "restaurant", "image": null, "address": "3916 Norman Bridge Rd, Montgomery, AL 36105-2944", "lat": 32.32781, "lng": -86.299614, "ref_id": 5584055, "rating": -1, "num_reviews": 0, "website": "https://locations.krystal.com/al/montgomery/3916-norman-bridge-rd", "contact_phone": "+1 334-284-2330", "contact_email": "MNT003@krystal.com", "status": 1, "source_type": 1, "numberReviews": 0}, {"name": "Joe's Pizza and Subs", "type": "restaurant", "image": null, "address": "654 W Fairview Ave, Montgomery, AL 36105-1508", "lat": 32.35189, "lng": -86.31814, "ref_id": 4628487, "rating": -1, "num_reviews": 0, "website": null, "contact_phone": "+1 334-264-0406", "contact_email": null, "status": 1, "source_type": 1, "numberReviews": 0}, {"name": "Charleys Philly Steaks", "type": "restaurant", "image": "https://dynamic-media-cdn.tripadvisor.com/media/photo-o/1c/0d/ca/9a/charleys.jpg?w=1000&s=1", "address": "4109 8th Division Rd, Fort Benning, GA 31905", "lat": 32.37146, "lng": -84.86001, "ref_id": 20001440, "rating": -1, "num_reviews": 0, "website": "http://charleys.com/", "contact_phone": "+1 706-683-0933", "contact_email": null, "status": 1, "source_type": 1, "numberReviews": 0}, {"name": "Marco's Pizza", "type": "restaurant", "image": null, "address": "4109 8th Division Rd, Fort Benning, GA 31905", "lat": 32.37126, "lng": -84.8597, "ref_id": 27925615, "rating": -1, "num_reviews": 0, "website": "https://www.marcos.com/", "contact_phone": "7067861006", "contact_email": null, "status": 1, "source_type": 1, "numberReviews": 0}, {"name": "Fuzion", "type": "restaurant", "image": null, "address": "1095 Highway 165, Fort Mitchell, AL 36856-5233", "lat": 32.271374, "lng": -84.999176, "ref_id": 27861179, "rating": -1, "num_reviews": 0, "website": "https://www.facebook.com/512845955404992", "contact_phone": "+13343333888", "contact_email": null, "status": 1, "source_type": 1, "numberReviews": 0}, {"name": "Fresh Value - Montgomery E. South Blvd", "type": "restaurant", "image": null, "address": "2020 E South Blvd, Montgomery, AL 36116-2408", "lat": 32.32597, "lng": -86.281136, "ref_id": 26929790, "rating": -1, "num_reviews": 0, "website": "http://fresh-value.com", "contact_phone": "+13342861128", "contact_email": null, "status": 1, "source_type": 1, "numberReviews": 0}, {"name": "Flames Grill", "type": "restaurant", "image": null, "address": "5501 Atlanta Highway, Montgomery, AL 36117", "lat": 32.384457, "lng": -86.20613, "ref_id": 25514532, "rating": -1, "num_reviews": 0, "website": null, "contact_phone": null, "contact_email": null, "status": 1, "source_type": 1, "numberReviews": 0}, {"name": "Krispy Krunchy Chicken", "type": "restaurant", "image": null, "address": "4521 South Court Street, Montgomery, AL 36105", "lat": 32.32281, "lng": -86.307076, "ref_id": 27527183, "rating": -1, "num_reviews": 0, "website": "https://www.krispykrunchy.com/", "contact_phone": "+1 334-281-5911", "contact_email": null, "status": 1, "source_type": 1, "numberReviews": 0}, {"name": "Great American Cookies", "type": "restaurant", "image": null, "address": "1076 Eastdale Mall, Montgomery, AL 36117", "lat": 32.3851, "lng": -86.20599, "ref_id": 26686125, "rating": -1, "num_reviews": 0, "website": "http://www.greatamericancookies.com/?olonwp=z17TA_tz20aL5UmKf8LjMg", "contact_phone": "+1 334-271-1900", "contact_email": null, "status": 1, "source_type": 1, "numberReviews": 0}, {"name": "sabor latino Montgomery", "type": "restaurant", "image": null, "address": "4448 Troy Highway, Montgomery, AL 36116", "lat": 32.31229, "lng": -86.22472, "ref_id": 25499336, "rating": -1, "num_reviews": 0, "website": null, "contact_phone": null, "contact_email": null, "status": 1, "source_type": 1, "numberReviews": 0}, {"name": "Chandler's Smokehouse Grill", "type": "restaurant", "image": null, "address": "3827 Norman Bridge Rd, Montgomery, AL 36105-2941", "lat": 32.32845, "lng": -86.29888, "ref_id": 26972006, "rating": -1, "num_reviews": 0, "website": "https://www.facebook.com/105645852033263", "contact_phone": "+13345936686", "contact_email": null, "status": 1, "source_type": 1, "numberReviews": 0}, {"name": "Subway", "type": "restaurant", "image": null, "address": "3782 Norman Bridge Rd, Montgomery, AL 36105-2904", "lat": 32.330524, "lng": -86.29971, "ref_id": 5241424, "rating": -1, "num_reviews": 0, "website": "https://www.facebook.com/243787372703470", "contact_phone": "+1 334-286-1107", "contact_email": null, "status": 1, "source_type": 1, "numberReviews": 0}, {"name": "Krispy Krunchy Chicken", "type": "restaurant", "image": null, "address": "3001 Mcgehee Road, Montgomery, AL 36111", "lat": 32.33813, "lng": -86.26034, "ref_id": 27528666, "rating": -1, "num_reviews": 0, "website": "https://www.krispykrunchy.com/", "contact_phone": "+1 334-649-1950", "contact_email": null, "status": 1, "source_type": 1, "numberReviews": 0}, {"name": "El Chido", "type": "restaurant", "image": null, "address": "152 N Burbank Dr, Montgomery, AL 36117-2839", "lat": 32.384987, "lng": -86.198715, "ref_id": 26891161, "rating": -1, "num_reviews": 0, "website": "https://el-chido-al.hub.biz", "contact_phone": "+1 334-272-9758", "contact_email": null, "status": 1, "source_type": 1, "numberReviews": 0}, {"name": "Checkers", "type": "restaurant", "image": null, "address": "2380 E South Blvd, Montgomery, AL 36116", "lat": 32.326572, "lng": -86.26113, "ref_id": 24103724, "rating": -1, "num_reviews": 0, "website": "https://locations.checkers.com/al/montgomery/2380-e-south-blvd?y_source=1_MzkwMjcyNjEtNzY5LWxvY2F0aW9uLndlYnNpdGU%3D", "contact_phone": "+1 334-593-1669", "contact_email": "Checkerboard3933@gmail.com", "status": 1, "source_type": 1, "numberReviews": 0}, {"name": "Charleys Cheesesteaks", "type": "restaurant", "image": "https://dynamic-media-cdn.tripadvisor.com/media/photo-o/1c/0c/62/6d/charleys.jpg?w=1000&s=1", "address": "355 S Kelly St Ste 1090, Montgomery, AL 36112-5982", "lat": 32.384468, "lng": -86.20627, "ref_id": 20000796, "rating": -1, "num_reviews": 0, "website": "http://charleys.com", "contact_phone": "+1 334-263-6044", "contact_email": null, "status": 1, "source_type": 1, "numberReviews": 0}, {"name": "Hardee's", "type": "restaurant", "image": null, "address": "1183 W South Blvd, Montgomery, AL 36105-3024", "lat": 32.327595, "lng": -86.34025, "ref_id": 17511221, "rating": -1, "num_reviews": 0, "website": "https://locations.hardees.com/al/montgomery/1183-w-south-blvd", "contact_phone": "+13342817367", "contact_email": null, "status": 1, "source_type": 1, "numberReviews": 0}, {"name": "US Food Market Store", "type": "restaurant", "image": null, "address": "5455 Atlanta Hwy, Montgomery, AL 36109-3325", "lat": 32.38367, "lng": -86.21154, "ref_id": 26985602, "rating": -1, "num_reviews": 0, "website": "http://usfoods.com", "contact_phone": "+1 334-272-7000", "contact_email": null, "status": 1, "source_type": 1, "numberReviews": 0}, {"name": "Little Caesars Pizza", "type": "restaurant", "image": null, "address": "2625 W Meighan Canterberry Station, Gadsden, AL 35904", "lat": null, "lng": null, "ref_id": 21225778, "rating": 3, "num_reviews": 0, "website": "http://www.littlecaesars.com", "contact_phone": "+1 256-547-2090", "contact_email": null, "status": 1, "source_type": 1, "numberReviews": 1}, {"name": "Rocky's Bar", "type": "restaurant", "image": null, "address": "3703 Gulf Beach Hwy, Pensacola, FL 32507-2727", "lat": 30.374348, "lng": -87.32206, "ref_id": 26991224, "rating": -1, "num_reviews": 0, "website": "http://rockysbar.net", "contact_phone": "+1 850-455-9310", "contact_email": null, "status": 1, "source_type": 1, "numberReviews": 0}, {"name": "Nelson's Liquor & Lounge", "type": "restaurant", "image": null, "address": "2526 Gulf Beach Highway, Pensacola, FL 32507", "lat": 30.381641, "lng": -87.30693, "ref_id": 25491224, "rating": -1, "num_reviews": 0, "website": null, "contact_phone": null, "contact_email": null, "status": 1, "source_type": 1, "numberReviews": 0}, {"name": "Wendy's", "type": "restaurant", "image": null, "address": "8080 Highway 98 West, Pensacola, FL 32506", "lat": 30.402828, "lng": -87.32138, "ref_id": 15654107, "rating": -1, "num_reviews": 0, "website": "https://locations.wendys.com/united-states/fl/pensacola/8080-highway-98-west", "contact_phone": "+1 850-456-0505", "contact_email": null, "status": 1, "source_type": 1, "numberReviews": 0}, {"name": "Subway", "type": "restaurant", "image": null, "address": "5600 Hwy 98 W Navy Exchange Mall, Pensacola, FL 32511", "lat": 30.40202, "lng": -87.28881, "ref_id": 4257159, "rating": -1, "num_reviews": 0, "website": "https://restaurants.subway.com/united-states/fl/pensacola/5600-hwy-98-w?utm_source=yext-other&utm_medium=local&utm_term=acq&utm_content=20656&utm_campaign=evergreen-2020&y_source=1_MTQ5MTMyMTAtNzY5LWxvY2F0aW9uLndlYnNpdGU%3D", "contact_phone": "+1 850-453-0556", "contact_email": null, "status": 1, "source_type": 1, "numberReviews": 0}, {"name": "Burger King", "type": "restaurant", "image": null, "address": "3210 West Michigan Ave, Pensacola, FL 32526", "lat": 30.461609, "lng": -87.29938, "ref_id": 15654893, "rating": -1, "num_reviews": 0, "website": "https://burgerking.com/store-locator/store/restaurant_5,193", "contact_phone": "+1 850-610-6591", "contact_email": "shane.roberts@gpshospitality.com", "status": 1, "source_type": 1, "numberReviews": 0}, {"name": "Wingstop", "type": "restaurant", "image": null, "address": "6705 Pine Forest Rd, Pensacola, FL 32526", "lat": 30.47795, "lng": -87.307335, "ref_id": 26871637, "rating": -1, "num_reviews": 0, "website": "https://www.wingstop.com/location/wingstop-2425-mobile-al-36619/menu?y_source=1_MTAyMzU2MjQ2NC03NjktbG9jYXRpb24ud2Vic2l0ZQ%3D%3D", "contact_phone": "+1 850-741-3277", "contact_email": null, "status": 1, "source_type": 1, "numberReviews": 0}, {"name": "Fusion Grill", "type": "restaurant", "image": null, "address": "300 Tonawanda Drive, Pensacola, FL 32506", "lat": 30.439856, "lng": -87.28676, "ref_id": 25516181, "rating": -1, "num_reviews": 0, "website": null, "contact_phone": null, "contact_email": null, "status": 1, "source_type": 1, "numberReviews": 0}, {"name": "Popeyes Louisiana Kitchen", "type": "restaurant", "image": null, "address": "4511 Saufley Field Rd, Pensacola, FL 32526", "lat": 30.460697, "lng": -87.302345, "ref_id": 21201535, "rating": -1, "num_reviews": 0, "website": "https://www.popeyes.com/store-locator/store/restaurant_86651?utm_source=yext&utm_medium=referral&utm_campaign=organic-local-listings", "contact_phone": "+1 850-382-7661", "contact_email": "popeyesfamous186@sailormen.com", "status": 1, "source_type": 1, "numberReviews": 0}, {"name": "Subway", "type": "restaurant", "image": null, "address": "5555 Highway 98 Building 3600, Pensacola, FL 32507", "lat": 30.396803, "lng": -87.286446, "ref_id": 20327018, "rating": -1, "num_reviews": 0, "website": "https://restaurants.subway.com/united-states/fl/pensacola/5555-highway-98?utm_source=yext-other&utm_medium=local&utm_term=acq&utm_content=55196&utm_campaign=evergreen-2020&y_source=1_MTQ5MTQ2NjUtNzY5LWxvY2F0aW9uLndlYnNpdGU%3D", "contact_phone": "+1 850-484-2298", "contact_email": null, "status": 1, "source_type": 1, "numberReviews": 0}, {"name": "Rock N Roll Sushi - Beulah", "type": "restaurant", "image": null, "address": "8714 Beluah Rd Unit A-8, Pensacola, FL 32526-5326", "lat": 30.533833, "lng": -87.38015, "ref_id": 25139348, "rating": -1, "num_reviews": 0, "website": "https://rocknrollsushi.com/", "contact_phone": "+1 850-542-7865", "contact_email": null, "status": 1, "source_type": 1, "numberReviews": 0}, {"name": "Krispy Krunchy Chicken", "type": "restaurant", "image": null, "address": "2 South Blue Angel Parkway, Pensacola, FL 32506", "lat": 30.402737, "lng": -87.34204, "ref_id": 25482766, "rating": -1, "num_reviews": 0, "website": null, "contact_phone": null, "contact_email": null, "status": 1, "source_type": 1, "numberReviews": 0}, {"name": "Krispy Krunchy Chicken", "type": "restaurant", "image": null, "address": "5910 W Nine Mile Road Circle - #9079, Pensacola, FL 32526", "lat": 30.536314, "lng": -87.381195, "ref_id": 27622541, "rating": -1, "num_reviews": 0, "website": "https://www.krispykrunchy.com/", "contact_phone": "+1 850-941-4364", "contact_email": null, "status": 1, "source_type": 1, "numberReviews": 0}, {"name": "Subway", "type": "restaurant", "image": null, "address": "6000 W Highway 98 Bldg 2268, Pensacola, FL 32512", "lat": 30.39792, "lng": -87.29872, "ref_id": 26934888, "rating": -1, "num_reviews": 0, "website": "https://restaurants.subway.com/united-states/fl/pensacola/6000-us-hwy-98?utm_source=yxt-bing&utm_medium=local&utm_term=acq&utm_content=22008&utm_campaign=evergreen-2020&y_source=1_mtq5mtq0otatndgzlwxvy2f0aw9ulndlynnpdgu%3d", "contact_phone": "+1 850-308-8032", "contact_email": null, "status": 1, "source_type": 1, "numberReviews": 0}, {"name": "Lulu's Fish N Chicken", "type": "restaurant", "image": null, "address": "1101 Gulf Beach Highway, Pensacola, FL 32507", "lat": 30.386906, "lng": -87.289474, "ref_id": 25486755, "rating": -1, "num_reviews": 0, "website": null, "contact_phone": null, "contact_email": null, "status": 1, "source_type": 1, "numberReviews": 0}, {"name": "Pizza Hut", "type": "restaurant", "image": null, "address": "8708 Beulah Rd, Pensacola, FL 32526", "lat": 30.533638, "lng": -87.38057, "ref_id": 24104672, "rating": -1, "num_reviews": 0, "website": "https://locations.pizzahut.com/fl/pensacola/8708-beulah-rd?utm_medium=organic&utm_source=local&utm_campaign=yextpowerlistings&utm_content=website&utm_term=315338", "contact_phone": "+1 850-332-1211", "contact_email": "rs039150@pizzahut.com", "status": 1, "source_type": 1, "numberReviews": 0}, {"name": "Blue Angel Grill", "type": "restaurant", "image": null, "address": "1350 S Blue Angel Pkwy, Pensacola, FL 32506-6095", "lat": 30.380737, "lng": -87.35052, "ref_id": 26976756, "rating": -1, "num_reviews": 0, "website": "http://www.blueangelgrill.com", "contact_phone": "+1 850-466-2382", "contact_email": null, "status": 1, "source_type": 1, "numberReviews": 0}, {"name": "La Cocina", "type": "restaurant", "image": null, "address": "13140 Lillian Hwy, Pensacola, FL 32506-8400", "lat": 30.39858, "lng": -87.42005, "ref_id": 388520, "rating": -1, "num_reviews": 0, "website": null, "contact_phone": "+1 850-455-3113", "contact_email": "", "status": 1, "source_type": 1, "numberReviews": 0}, {"name": "Lickin Good Donuts", "type": "restaurant", "image": null, "address": "6675 Pine Forest Rd, Pensacola, FL 32526-8912", "lat": 30.47539, "lng": -87.3073, "ref_id": 26924998, "rating": -1, "num_reviews": 0, "website": "", "contact_phone": "+1 850-287-4446", "contact_email": null, "status": 1, "source_type": 1, "numberReviews": 0}, {"name": "Isaac's Deli & Fried Chicken", "type": "restaurant", "image": null, "address": "7014 Lillian Hwy, Pensacola, FL 32506-4438", "lat": 30.420973, "lng": -87.30626, "ref_id": 26943766, "rating": -1, "num_reviews": 0, "website": "", "contact_phone": "+1 850-466-2034", "contact_email": null, "status": 1, "source_type": 1, "numberReviews": 0}, {"name": "Burger King", "type": "restaurant", "image": null, "address": "15622 Highway 280, Chelsea, AL 35043", "lat": 33.351624, "lng": -86.61248, "ref_id": 4685476, "rating": 3.5, "num_reviews": 0, "website": "https://burgerking.com/store-locator/store/restaurant_11,711", "contact_phone": "+1 205-678-9900", "contact_email": "b.stansell66@gmail.com", "status": 1, "source_type": 1, "numberReviews": 4}, {"name": "Jack's", "type": "restaurant", "image": "https://dynamic-media-cdn.tripadvisor.com/media/photo-o/1d/48/c6/50/linden.jpg?w=1000&s=1", "address": "210 N Main St, Linden, AL 36748-1542", "lat": 32.30774, "lng": -87.79845, "ref_id": 19755863, "rating": 5, "num_reviews": 0, "website": "https://locations.eatatjacks.com/al/linden/210-n-main-st/", "contact_phone": "+13344224286", "contact_email": null, "status": 1, "source_type": 1, "numberReviews": 2}, {"name": "Las Palmas Mexican Grill", "type": "restaurant", "image": null, "address": "802 E Coats Ave, Linden, AL 36748-1604", "lat": 32.306465, "lng": -87.78937, "ref_id": 3599346, "rating": 5, "num_reviews": 0, "website": null, "contact_phone": "+1 334-295-4711", "contact_email": null, "status": 1, "source_type": 1, "numberReviews": 1}, {"name": "Subway", "type": "restaurant", "image": null, "address": "506 South Main Street, Linden, AL 36748", "lat": 32.30156, "lng": -87.79818, "ref_id": 4640857, "rating": 3, "num_reviews": 0, "website": "https://restaurants.subway.com/united-states/al/linden/506-south-main-street?utm_source=yxt-bing&utm_medium=local&utm_term=acq&utm_content=55900&utm_campaign=evergreen-2020&y_source=1_mtq5mtiyntqtndgzlwxvy2f0aw9ulndlynnpdgu%3d", "contact_phone": "+1 334-295-4859", "contact_email": null, "status": 1, "source_type": 1, "numberReviews": 1}, {"name": "Krispy Krunchy Chicken", "type": "restaurant", "image": null, "address": "2010 S Main St, Linden, AL 36748", "lat": 32.287415, "lng": -87.79664, "ref_id": 27528343, "rating": -1, "num_reviews": 0, "website": "https://www.krispykrunchy.com/", "contact_phone": "+1 334-295-0087", "contact_email": null, "status": 1, "source_type": 1, "numberReviews": 0}, {"name": "Papa's Foods", "type": "restaurant", "image": null, "address": "306 S Main St, Linden, AL 36748-1726", "lat": 32.303585, "lng": -87.798744, "ref_id": 26936033, "rating": -1, "num_reviews": 0, "website": "http://www.papasfoods.net", "contact_phone": "+13342958888", "contact_email": null, "status": 1, "source_type": 1, "numberReviews": 0}, {"name": "La Zona Rosa", "type": "restaurant", "image": "https://dynamic-media-cdn.tripadvisor.com/media/photo-s/02/85/3d/2f/la-zona-rosa.jpg?w=1000&s=1", "address": "Zelda 2838 Zelda Road, Montgomery, AL", "lat": 32.35918, "lng": -86.26528, "ref_id": 2049018, "rating": 4, "num_reviews": 0, "website": "http://zonarosa.net/site/", "contact_phone": "+1 334-274-1153", "contact_email": "", "status": 1, "source_type": 1, "numberReviews": 73}, {"name": "Ming's Garden", "type": "restaurant", "image": "https://dynamic-media-cdn.tripadvisor.com/media/photo-o/05/f3/2f/ce/lunch-cashew-chicken.jpg?w=1000&s=1", "address": "1741 Eastern Blvd, Montgomery, AL 36117-1609", "lat": 32.35414, "lng": -86.21632, "ref_id": 1576781, "rating": 4, "num_reviews": 0, "website": "https://www.facebook.com/Mings-Garden-111633708874587/", "contact_phone": "+1 334-277-8188", "contact_email": "", "status": 1, "source_type": 1, "numberReviews": 66}, {"name": "Mr. Chen's", "type": "restaurant", "image": "https://dynamic-media-cdn.tripadvisor.com/media/photo-o/0a/d1/37/8b/photo0jpg.jpg?w=1000&s=1", "address": "5461 Atlanta Hwy, Montgomery, AL 36109-3325", "lat": 32.382, "lng": -86.21273, "ref_id": 6463430, "rating": 4, "num_reviews": 0, "website": "http://mrchenfoods.com/", "contact_phone": "+1 334-260-9558", "contact_email": null, "status": 1, "source_type": 1, "numberReviews": 34}, {"name": "Lek's Taste of Thailand", "type": "restaurant", "image": "https://dynamic-media-cdn.tripadvisor.com/media/photo-o/03/b0/06/d8/lek-s-taste-of-thailand.jpg?w=1000&s=1", "address": "5421 Atlanta Hwy, Montgomery, AL 36109-3325", "lat": 32.38363, "lng": -86.21328, "ref_id": 4041703, "rating": 4.5, "num_reviews": 0, "website": "https://www.facebook.com/LeksAtlantahwy", "contact_phone": "+1 334-244-8994", "contact_email": null, "status": 1, "source_type": 1, "numberReviews": 31}, {"name": "The Pizza Place", "type": "restaurant", "image": "https://dynamic-media-cdn.tripadvisor.com/media/photo-o/17/3f/62/fb/photo1jpg.jpg?w=1000&s=1", "address": "3848 Harrison Rd, Montgomery, AL 36109-4508", "lat": 32.36625, "lng": -86.24483, "ref_id": 7743554, "rating": 4.5, "num_reviews": 0, "website": "https://www.facebook.com/ThePizzaPlaceMontgomery/", "contact_phone": "+1 334-593-9753", "contact_email": null, "status": 1, "source_type": 1, "numberReviews": 15}, {"name": "Parrilla Loca", "type": "restaurant", "image": "https://dynamic-media-cdn.tripadvisor.com/media/photo-o/2a/b9/36/a8/menu-6.jpg?w=1000&s=1", "address": "210 Wasden Rd, Hope Hull, Montgomery, AL 36043-4305", "lat": 32.27017, "lng": -86.36393, "ref_id": 23947460, "rating": 5, "num_reviews": 0, "website": null, "contact_phone": "+1 334-280-0012", "contact_email": null, "status": 1, "source_type": 1, "numberReviews": 7}, {"name": "Lucky's Deli", "type": "restaurant", "image": "https://dynamic-media-cdn.tripadvisor.com/media/photo-o/10/b2/c7/5e/welcome-to-luck-s-deli.jpg?w=1000&s=1", "address": "3249 Huntsville Hwy The Magic Mile Shell, Fayetteville, TN 37334", "lat": 35.006004, "lng": -86.57777, "ref_id": 12899166, "rating": 5, "num_reviews": 0, "website": "http://themagicmile.com/", "contact_phone": "+1 931-438-3354", "contact_email": "Marketing@themagicmile.com", "status": 1, "source_type": 1, "numberReviews": 1}, {"name": "Yoshimi Japanese Cuisine", "type": "restaurant", "image": null, "address": "5761 Atlanta Highway, Montgomery, AL 36117", "lat": 32.383522, "lng": -86.200325, "ref_id": 25481877, "rating": -1, "num_reviews": 0, "website": null, "contact_phone": null, "contact_email": null, "status": 1, "source_type": 1, "numberReviews": 0}, {"name": "Seoul Market", "type": "restaurant", "image": null, "address": "1841 Eastern Blvd, Montgomery, AL 36117-1611", "lat": 32.354347, "lng": -86.21687, "ref_id": 26936073, "rating": -1, "num_reviews": 0, "website": "https://seoul-market.hub.biz", "contact_phone": "+1 334-244-0595", "contact_email": null, "status": 1, "source_type": 1, "numberReviews": 0}, {"name": "Cajun crab", "type": "restaurant", "image": null, "address": "1000 Eastdale Circle, Montgomery, AL 36117", "lat": 32.384514, "lng": -86.206345, "ref_id": 25504148, "rating": -1, "num_reviews": 0, "website": null, "contact_phone": null, "contact_email": null, "status": 1, "source_type": 1, "numberReviews": 0}, {"name": "PB Hibachi Express", "type": "restaurant", "image": null, "address": "2323 Eastern Blvd, Montgomery, AL 36117-1503", "lat": 32.36626, "lng": -86.21299, "ref_id": 19667860, "rating": -1, "num_reviews": 0, "website": null, "contact_phone": null, "contact_email": null, "status": 1, "source_type": 1, "numberReviews": 0}, {"name": "Kalim Korean BBQ", "type": "restaurant", "image": null, "address": "5806 Woodmere Blvd, Montgomery, AL 36117-1766", "lat": 32.355103, "lng": -86.212555, "ref_id": 26929805, "rating": -1, "num_reviews": 0, "website": "https://kalimkbbq.com", "contact_phone": "+1 334-356-2285", "contact_email": null, "status": 1, "source_type": 1, "numberReviews": 0}, {"name": "Domino's Pizza", "type": "restaurant", "image": null, "address": "2611 E South Blvd, Montgomery, AL 36116", "lat": 32.327633, "lng": -86.25561, "ref_id": 21201136, "rating": -1, "num_reviews": 0, "website": "https://www.dominos.com/en/?redirect=homepage&utm_source=locallistings&utm_medium=loclist&utm_campaign=localmaps", "contact_phone": "+1 334-409-6555", "contact_email": null, "status": 1, "source_type": 1, "numberReviews": 0}, {"name": "Pasqually's Pizza & Wings", "type": "restaurant", "image": null, "address": "1116 Eastdale Mall, Montgomery, AL 36117", "lat": 32.384724, "lng": -86.20497, "ref_id": 25493789, "rating": -1, "num_reviews": 0, "website": null, "contact_phone": null, "contact_email": null, "status": 1, "source_type": 1, "numberReviews": 0}, {"name": "Kitchen", "type": "restaurant", "image": null, "address": "3407 Norman Bridge Rd Greg's Breakfast Bar, Montgomery, AL 36105-2310", "lat": 32.34404, "lng": -86.2993, "ref_id": 4415819, "rating": -1, "num_reviews": 0, "website": null, "contact_phone": "+1 334-241-9911", "contact_email": null, "status": 1, "source_type": 1, "numberReviews": 0}, {"name": "Franklin Ferry Marina", "type": "restaurant", "image": null, "address": "520 Marina Rd, Adger, AL 35006-5036", "lat": 33.52688, "lng": -87.24519, "ref_id": 4709086, "rating": 4, "num_reviews": 0, "website": "http://franklinferrymarinacafe.blogspot.com", "contact_phone": "+1 205-686-7601", "contact_email": null, "status": 1, "source_type": 1, "numberReviews": 2}, {"name": "American Deli", "type": "restaurant", "image": null, "address": "4015 Norman Bridge Rd, Montgomery, AL 36105-3217", "lat": 32.32558, "lng": -86.29843, "ref_id": 19667856, "rating": 1, "num_reviews": 0, "website": "https://americandeli.com/", "contact_phone": "+13346763003", "contact_email": null, "status": 1, "source_type": 1, "numberReviews": 1}, {"name": "IHOP", "type": "restaurant", "image": "https://dynamic-media-cdn.tripadvisor.com/media/photo-o/13/71/b5/f3/20180623-103839-largejpg.jpg?w=1000&s=1", "address": "115 Eastern Blvd, Montgomery, AL 36117-2007", "lat": 32.3821, "lng": -86.21022, "ref_id": 4257250, "rating": 2.5, "num_reviews": 0, "website": "http://www.ihop.com", "contact_phone": "+1 334-260-0795", "contact_email": null, "status": 1, "source_type": 1, "numberReviews": 32}, {"name": "Flow Nutrition", "type": "restaurant", "image": null, "address": "113 N Burbank Dr, Montgomery, AL 36117-2837", "lat": 32.38484, "lng": -86.19978, "ref_id": 26902223, "rating": -1, "num_reviews": 0, "website": "", "contact_phone": "", "contact_email": null, "status": 1, "source_type": 1, "numberReviews": 0}, {"name": "Subway", "type": "restaurant", "image": null, "address": "1034 W South Blvd, Montgomery, AL 36105-3039", "lat": 32.32816, "lng": -86.33727, "ref_id": 26897224, "rating": -1, "num_reviews": 0, "website": "https://www.facebook.com/402694487185177", "contact_phone": "+13345939576", "contact_email": null, "status": 1, "source_type": 1, "numberReviews": 0}, {"name": "The Grand Hotel Golf Resort & Spa, Autograph Collection", "type": "hotel", "image": "https://dynamic-media-cdn.tripadvisor.com/media/photo-o/2c/50/ef/cd/exterior.jpg?w=1000&s=1", "address": "One Grand Boulevard, Point Clear, AL 36564", "lat": 30.48485, "lng": -87.934654, "ref_id": 113284, "rating": 4.5, "num_reviews": 0, "website": "https://www.marriott.com/en-us/hotels/ptlak-the-grand-hotel-golf-resort-and-spa-autograph-collection/overview/?scid=45f93f1b-bd77-45c9-8dab-83b6a417f6fe&y_source=1_OTkzMDY0NS03NjktbG9jYXRpb24ud2Vic2l0ZQ%3D%3D", "contact_phone": "+1 251-928-9201", "contact_email": "", "status": 1, "source_type": 1, "numberReviews": 1574}, {"name": "Best Western Plus Madison Huntsville Hotel", "type": "hotel", "image": "https://dynamic-media-cdn.tripadvisor.com/media/photo-o/2b/a4/b9/db/exterior.jpg?w=1000&s=1", "address": "9035 Madison Blvd, Madison, AL 35758-1703", "lat": 34.67444, "lng": -86.75569, "ref_id": 1214602, "rating": 4, "num_reviews": 0, "website": "https://www.bestwestern.com/de_DE/book/hotel-rooms.01122.html?iata=00171890&ssob=BLBWI0003G&cid=BLBWI0003G:yext:website:01122", "contact_phone": "+1 256-772-7170", "contact_email": null, "status": 1, "source_type": 1, "numberReviews": 594}, {"name": "Homewood Suites by Hilton Huntsville-Downtown, AL", "type": "hotel", "image": "https://dynamic-media-cdn.tripadvisor.com/media/photo-o/2a/ef/44/68/exterior.jpg?w=1000&s=1", "address": "714 Gallatin St SW, Huntsville, AL 35801-4414", "lat": 34.722485, "lng": -86.58268, "ref_id": 6118850, "rating": 4.5, "num_reviews": 0, "website": "https://www.hilton.com/en/hotels/hsvgshw-homewood-suites-huntsville-downtown-al/?SEO_id=YEXTN-AMER-HG-HSVGSHW&y_source=1_MjA4NDg4NS03NjktbG9jYXRpb24ud2Vic2l0ZQ%3D%3D", "contact_phone": "+1 256-539-1445", "contact_email": null, "status": 1, "source_type": 1, "numberReviews": 762}, {"name": "Hampton Inn & Suites Birmingham / 280 East - Eagle Point", "type": "hotel", "image": "https://dynamic-media-cdn.tripadvisor.com/media/photo-o/2a/ef/2f/78/exterior.jpg?w=1000&s=1", "address": "6220 Farley Court, Birmingham, AL 35242", "lat": 33.40444, "lng": -86.667366, "ref_id": 2018754, "rating": 4.5, "num_reviews": 0, "website": "https://www.hilton.com/en/hotels/bhmlbhx-hampton-suites-birmingham-280-east-eagle-point/?SEO_id=YEXTN-AMER-HX-BHMLBHX&y_source=1_MjA4NDcwNC03NjktbG9jYXRpb24ud2Vic2l0ZQ%3D%3D", "contact_phone": "+1 205-981-0024", "contact_email": "", "status": 1, "source_type": 1, "numberReviews": 799}, {"name": "Homewood Suites by Hilton Birmingham-SW-Riverchase-Galleria", "type": "hotel", "image": "https://dynamic-media-cdn.tripadvisor.com/media/photo-o/2b/7e/c3/10/exterior.jpg?w=1000&s=1", "address": "121 Riverchase Parkway East, Hoover, AL 35244-2907", "lat": 33.35337, "lng": -86.78557, "ref_id": 1486046, "rating": 4.5, "num_reviews": 0, "website": "https://www.hilton.com/en/hotels/bhmhmhw-homewood-suites-birmingham-sw-riverchase-galleria/?SEO_id=YEXTN-AMER-HG-BHMHMHW&y_source=1_MjA4MjE2NS03NjktbG9jYXRpb24ud2Vic2l0ZQ%3D%3D", "contact_phone": "+1 205-637-2900", "contact_email": "april.falkner@hilton.com", "status": 1, "source_type": 1, "numberReviews": 860}, {"name": "Hampton Inn Troy", "type": "hotel", "image": "https://dynamic-media-cdn.tripadvisor.com/media/photo-o/0c/5f/21/2b/king-studio.jpg?w=1000&s=1", "address": "103 Troy Plaza Loop, Troy, AL 36081", "lat": 31.783735, "lng": -85.951004, "ref_id": 293289, "rating": 4, "num_reviews": 0, "website": "https://www.hilton.com/en/hotels/toialhx-hampton-troy/?SEO_id=YEXTN-AMER-HX-TOIALHX&y_source=1_MjA4MTg2Ny03NjktbG9jYXRpb24ud2Vic2l0ZQ%3D%3D", "contact_phone": "+1 334-807-5900", "contact_email": "toial_hampton@hilton.com", "status": 1, "source_type": 1, "numberReviews": 521}, {"name": "Country Inn & Suites by Radisson, Madison, AL", "type": "hotel", "image": "https://dynamic-media-cdn.tripadvisor.com/media/photo-o/2b/c8/53/36/hotel-exterior.jpg?w=1000&s=1", "address": "101 Westchester Drive, Madison, AL 35758", "lat": 34.67417, "lng": -86.75975, "ref_id": 1768770, "rating": 4, "num_reviews": 0, "website": "https://www.radissonhotelsamericas.com/en-us/hotels/country-inn-madison-al?cid=a:rf+b:yex+c:amer+i:local+e:cis+d:us+f:en-US+h:ALMADCTY", "contact_phone": "+1 256-724-6709", "contact_email": "cx_maal@countryinn.com", "status": 1, "source_type": 1, "numberReviews": 292}, {"name": "Homewood Suites by Hilton Birmingham Downtown Near UAB", "type": "hotel", "image": "https://dynamic-media-cdn.tripadvisor.com/media/photo-o/2b/92/af/06/exterior.jpg?w=1000&s=1", "address": "1016 20th Street South, Birmingham, AL 35205", "lat": 33.501274, "lng": -86.79714, "ref_id": 10243110, "rating": 4.5, "num_reviews": 0, "website": "https://www.hilton.com/en/hotels/bhmabhw-homewood-suites-birmingham-downtown-near-uab/?SEO_id=YEXTN-AMER-HG-BHMABHW&y_source=1_NDQ2NjA2My03NjktbG9jYXRpb24ud2Vic2l0ZQ%3D%3D", "contact_phone": "+1 205-703-9920", "contact_email": null, "status": 1, "source_type": 1, "numberReviews": 358}, {"name": "SpringHill Suites by Marriott Huntsville West/Research Park", "type": "hotel", "image": "https://dynamic-media-cdn.tripadvisor.com/media/photo-o/2c/15/c8/5d/lobby-seating-area.jpg?w=1000&s=1", "address": "320 Providence Main Street, Huntsville, AL 35806-4852", "lat": 34.753075, "lng": -86.69282, "ref_id": 3369746, "rating": 4.5, "num_reviews": 0, "website": "https://www.marriott.com/en-us/hotels/hsvwe-springhill-suites-huntsville-west-research-park/overview/?scid=45f93f1b-bd77-45c9-8dab-83b6a417f6fe&y_source=1_MjgxODI4Mi03NjktbG9jYXRpb24ud2Vic2l0ZQ%3D%3D", "contact_phone": "+1 256-724-1220", "contact_email": "springhillpatti@gmail.com", "status": 1, "source_type": 1, "numberReviews": 334}, {"name": "Homewood Suites by Hilton Montgomery EastChase", "type": "hotel", "image": "https://dynamic-media-cdn.tripadvisor.com/media/photo-o/2b/92/b5/62/guest-room.jpg?w=1000&s=1", "address": "7800 Eastchase Pkwy, Montgomery, AL 36117-7043", "lat": 32.360477, "lng": -86.15527, "ref_id": 672954, "rating": 5, "num_reviews": 0, "website": "https://www.hilton.com/en/hotels/mgmmehw-homewood-suites-montgomery-eastchase/?SEO_id=YEXTN-AMER-HG-MGMMEHW&y_source=1_OTIzNTk0MS03NjktbG9jYXRpb24ud2Vic2l0ZQ%3D%3D", "contact_phone": "+1 334-277-9383", "contact_email": "", "status": 1, "source_type": 1, "numberReviews": 654}, {"name": "Fairfield Inn & Suites Birmingham Pelham/I-65", "type": "hotel", "image": "https://dynamic-media-cdn.tripadvisor.com/media/photo-o/2c/15/9b/52/breakfast-dining-area.jpg?w=1000&s=1", "address": "230 Cahaba Valley Rd, Pelham, AL 35124-1363", "lat": 33.330902, "lng": -86.79048, "ref_id": 1723694, "rating": 4, "num_reviews": 0, "website": "https://www.marriott.com/en-us/hotels/bhmfp-fairfield-inn-and-suites-birmingham-pelham-i-65/overview/?scid=45f93f1b-bd77-45c9-8dab-83b6a417f6fe&y_source=1_MjgxODg3OS03NjktbG9jYXRpb24ud2Vic2l0ZQ%3D%3D", "contact_phone": "+1 205-987-9879", "contact_email": "", "status": 1, "source_type": 1, "numberReviews": 276}, {"name": "Springhill Suites by Marriott Montgomery Downtown", "type": "hotel", "image": "https://dynamic-media-cdn.tripadvisor.com/media/photo-o/2b/ff/36/8d/king-stadium-view.jpg?w=1000&s=1", "address": "152 Coosa St, Montgomery, AL 36104-2507", "lat": 32.380573, "lng": -86.31014, "ref_id": 17761674, "rating": 4, "num_reviews": 0, "website": "https://www.marriott.com/en-us/hotels/mgmsm-springhill-suites-montgomery-downtown/overview/?scid=45f93f1b-bd77-45c9-8dab-83b6a417f6fe&y_source=1_MTIyODEzNzEtNzY5LWxvY2F0aW9uLndlYnNpdGU%3D", "contact_phone": "+1 334-245-2088", "contact_email": null, "status": 1, "source_type": 1, "numberReviews": 158}, {"name": "Microtel Inn & Suites by Wyndham Albertville", "type": "hotel", "image": "https://dynamic-media-cdn.tripadvisor.com/media/photo-o/22/6c/63/9e/exterior.jpg?w=1000&s=1", "address": "220 Highway 75 North, Albertville, AL 35951-3834", "lat": 34.27732, "lng": -86.20132, "ref_id": 606438, "rating": 4, "num_reviews": 0, "website": "http://www.wyndhamhotels.com/hotels/29375?tel=18882936798&iata=00065402&cid=fe:mt:20170330:tabl:pp:mtus:29375&checkin_date={{ci:MM/dd/yyyy}}&checkout_date={{co:MM/dd/yyyy}}&children={{nc}}&adults={{na}}&rooms={{nr}}&checkin_date={{ci:MM/dd/yyyy}}&checkout_date={{co:MM/dd/yyyy}}&children={{nc}}&adults={{na}}&rooms={{nr}}", "contact_phone": "+1 256-279-9351", "contact_email": "", "status": 1, "source_type": 1, "numberReviews": 497}, {"name": "Home2 Suites by Hilton Opelika Auburn", "type": "hotel", "image": "https://dynamic-media-cdn.tripadvisor.com/media/photo-o/2a/8d/9f/6b/exterior.jpg?w=1000&s=1", "address": "3150 Capps Way, Opelika, AL 36801", "lat": 32.612103, "lng": -85.40083, "ref_id": 12430244, "rating": 4.5, "num_reviews": 0, "website": "https://www.hilton.com/en/hotels/auooaht-home2-suites-opelika-auburn/?SEO_id=YEXTN-AMER-HT-AUOOAHT&y_source=1_NzU4MDE4Ni03NjktbG9jYXRpb24ud2Vic2l0ZQ%3D%3D", "contact_phone": "+1 334-737-5155", "contact_email": null, "status": 1, "source_type": 1, "numberReviews": 233}, {"name": "Hampton Inn & Suites Scottsboro", "type": "hotel", "image": "https://dynamic-media-cdn.tripadvisor.com/media/photo-o/2a/f4/83/2b/exterior.jpg?w=1000&s=1", "address": "24747 John T Reid Pkwy, Scottsboro, AL 35768-2341", "lat": 34.667126, "lng": -86.00646, "ref_id": 1572860, "rating": 4.5, "num_reviews": 0, "website": "https://www.hilton.com/en/hotels/hsvsbhx-hampton-suites-scottsboro/?SEO_id=YEXTN-AMER-HX-HSVSBHX&y_source=1_MjA4MzI4Ni03NjktbG9jYXRpb24ud2Vic2l0ZQ%3D%3D", "contact_phone": "+1 256-259-5200", "contact_email": "gm.scottsboro@hotelevolution.net", "status": 1, "source_type": 1, "numberReviews": 614}, {"name": "Courtyard by Marriott Decatur", "type": "hotel", "image": "https://dynamic-media-cdn.tripadvisor.com/media/photo-o/2c/0a/01/35/exterior.jpg?w=1000&s=1", "address": "1209 Courtyard Circle, Decatur, AL 35603", "lat": 34.587276, "lng": -87.02991, "ref_id": 224158, "rating": 4, "num_reviews": 0, "website": "https://www.marriott.com/en-us/hotels/hsvdc-courtyard-decatur/overview/?scid=45f93f1b-bd77-45c9-8dab-83b6a417f6fe&y_source=1_Mzg4OTgzNy03NjktbG9jYXRpb24ud2Vic2l0ZQ%3D%3D", "contact_phone": "+1 256-355-4446", "contact_email": "", "status": 1, "source_type": 1, "numberReviews": 189}, {"name": "Hilton Garden Inn Dothan", "type": "hotel", "image": "https://dynamic-media-cdn.tripadvisor.com/media/photo-o/17/17/a8/d2/hilton-garden-inn-dothan.jpg?w=1000&s=1", "address": "171 Hospitality Ln, Dothan, AL 36303-1879", "lat": 31.269613, "lng": -85.44494, "ref_id": 1480778, "rating": 4, "num_reviews": 0, "website": "https://www.hilton.com/en/hotels/dhndogi-hilton-garden-inn-dothan/?SEO_id=YEXTN-AMER-GI-DHNDOGI&y_source=1_MjA4MjYzNC03NjktbG9jYXRpb24ud2Vic2l0ZQ%3D%3D", "contact_phone": "+1 334-671-7676", "contact_email": "hgidothan@lbaproperties.com", "status": 1, "source_type": 1, "numberReviews": 612}, {"name": "Microtel Inn & Suites by Wyndham Tuscaloosa Near University", "type": "hotel", "image": "https://dynamic-media-cdn.tripadvisor.com/media/photo-o/23/b1/04/d2/exterior.jpg?w=1000&s=1", "address": "1417 Veterans Memorial Pkwy, Tuscaloosa, AL 35404-4702", "lat": 33.196835, "lng": -87.517, "ref_id": 1157379, "rating": 4, "num_reviews": 0, "website": "http://www.wyndhamhotels.com/hotels/31491?tel=18882936798&iata=00065402&cid=fe:mt:20170330:tabl:pp:mtus:31491&checkin_date={{ci:MM/dd/yyyy}}&checkout_date={{co:MM/dd/yyyy}}&children={{nc}}&adults={{na}}&rooms={{nr}}&checkin_date={{ci:MM/dd/yyyy}}&checkout_date={{co:MM/dd/yyyy}}&children={{nc}}&adults={{na}}&rooms={{nr}}", "contact_phone": "+1 205-553-4095", "contact_email": "gm@tuscaloosamicrotel.com", "status": 1, "source_type": 1, "numberReviews": 934}, {"name": "Huntsville Marriott At The Space & Rocket Center", "type": "hotel", "image": "https://dynamic-media-cdn.tripadvisor.com/media/photo-o/2c/0a/57/c9/the-barrel-room.jpg?w=1000&s=1", "address": "5 Tranquility Base, Huntsville, AL 35805", "lat": 34.711143, "lng": -86.64954, "ref_id": 72705, "rating": 3.5, "num_reviews": 0, "website": "https://www.marriott.com/en-us/hotels/hsval-huntsville-marriott-at-the-space-and-rocket-center/overview/?scid=45f93f1b-bd77-45c9-8dab-83b6a417f6fe&y_source=1_Mzg5MDMwOS03NjktbG9jYXRpb24ud2Vic2l0ZQ%3D%3D", "contact_phone": "+1 256-830-2222", "contact_email": "", "status": 1, "source_type": 1, "numberReviews": 546}, {"name": "Quality Inn Airport\u2013Southeast", "type": "hotel", "image": "https://dynamic-media-cdn.tripadvisor.com/media/photo-o/23/e3/70/e3/hotel-exterior.jpg?w=1000&s=1", "address": "3910 Kilgore Memorial Dr, Irondale, AL 35210-5000", "lat": 33.532936, "lng": -86.69105, "ref_id": 73404, "rating": 3.5, "num_reviews": 0, "website": "https://www.choicehotels.com/alabama/birmingham/quality-inn-hotels/al310?source=gglocalai", "contact_phone": "+1 205-956-4100", "contact_email": "", "status": 1, "source_type": 1, "numberReviews": 103}, {"name": "Hilton Garden Inn Montgomery East", "type": "hotel", "image": "https://dynamic-media-cdn.tripadvisor.com/media/photo-o/2b/c2/53/72/exterior.jpg?w=1000&s=1", "address": "1600 Interstate Park Dr, Montgomery, AL 36109", "lat": 32.36084, "lng": -86.24277, "ref_id": 277985, "rating": 4, "num_reviews": 0, "website": "https://www.hilton.com/en/hotels/mgmgigi-hilton-garden-inn-montgomery-east/?SEO_id=YEXTN-AMER-GI-MGMGIGI&y_source=1_MjA4MjU1Mi03NjktbG9jYXRpb24ud2Vic2l0ZQ%3D%3D", "contact_phone": "+1 334-272-2225", "contact_email": null, "status": 1, "source_type": 1, "numberReviews": 727}, {"name": "Hampton Inn Auburn", "type": "hotel", "image": "https://dynamic-media-cdn.tripadvisor.com/media/photo-o/2a/c2/e1/1c/exterior.jpg?w=1000&s=1", "address": "2430 S. College St., Auburn, AL 36832", "lat": 32.556225, "lng": -85.50815, "ref_id": 73118, "rating": 4, "num_reviews": 0, "website": "https://www.hilton.com/en/hotels/aubalhx-hampton-auburn/?SEO_id=YEXTN-AMER-HX-AUBALHX&y_source=1_MjA4MzI2OC03NjktbG9jYXRpb24ud2Vic2l0ZQ%3D%3D", "contact_phone": "+1 334-821-4111", "contact_email": "aubal.hampton@hilton.com", "status": 1, "source_type": 1, "numberReviews": 607}, {"name": "Econo Lodge", "type": "hotel", "image": "https://dynamic-media-cdn.tripadvisor.com/media/photo-o/1c/d7/64/f8/hotel-exterior.jpg?w=1000&s=1", "address": "25 Elm St, Oxford, AL 36203-2454", "lat": 33.602413, "lng": -85.834595, "ref_id": 73574, "rating": 4, "num_reviews": 0, "website": "http://www.econolodge.com/hotel-oxford-alabama-AL434", "contact_phone": "+1 256-831-9480", "contact_email": "econolodge@outlook.com", "status": 1, "source_type": 1, "numberReviews": 145}, {"name": "Hampton Inn & Suites Birmingham-Pelham (I-65)", "type": "hotel", "image": "https://dynamic-media-cdn.tripadvisor.com/media/photo-o/2a/ef/2f/24/exterior.jpg?w=1000&s=1", "address": "232 Cahaba Valley Road, Pelham, AL 35124", "lat": 33.331276, "lng": -86.78965, "ref_id": 224508, "rating": 4, "num_reviews": 0, "website": "https://www.hilton.com/en/hotels/bhmcvhx-hampton-suites-birmingham-pelham-i-65/?SEO_id=YEXTN-AMER-HX-BHMCVHX&y_source=1_MjA4MzIwMy03NjktbG9jYXRpb24ud2Vic2l0ZQ%3D%3D", "contact_phone": "+1 205-313-9500", "contact_email": "", "status": 1, "source_type": 1, "numberReviews": 550}, {"name": "Palm Beach Resort", "type": "hotel", "image": "https://dynamic-media-cdn.tripadvisor.com/media/photo-o/2a/f9/2b/42/guest-room.jpg?w=1000&s=1", "address": "22984 Perdido Beach Blvd, Orange Beach, AL 36561-3066", "lat": 30.25639, "lng": -87.633766, "ref_id": 1147037, "rating": 4, "num_reviews": 0, "website": "https://palmbeachresortob.com/", "contact_phone": "+1 251-974-5020", "contact_email": "info@vacationcondos.com", "status": 1, "source_type": 1, "numberReviews": 217}, {"name": "Baymont By Wyndham Bessemer", "type": "hotel", "image": "https://dynamic-media-cdn.tripadvisor.com/media/photo-o/2b/9b/f0/e1/caption.jpg?w=1000&s=1", "address": "5001 Academy Lane, Bessemer, AL 35022", "lat": 33.36635, "lng": -87.00503, "ref_id": 27438383, "rating": 5, "num_reviews": 0, "website": "https://www.wyndhamhotels.com/baymont/bessemer-alabama/baymont-bessemer/overview?CID=LC:cfixxwa8fefdt79:57563&iata=00093796", "contact_phone": "+1 205-434-1994", "contact_email": null, "status": 1, "source_type": 1, "numberReviews": 4}, {"name": "Clarion Inn Sheffield", "type": "hotel", "image": "https://dynamic-media-cdn.tripadvisor.com/media/photo-o/1e/01/97/b9/hotel-exterior.jpg?w=1000&s=1", "address": "4900 Hatch Blvd, Sheffield, AL 35660-3744", "lat": 34.76186, "lng": -87.66917, "ref_id": 72388, "rating": 3.5, "num_reviews": 0, "website": "https://www.choicehotels.com/alabama/sheffield/clarion-hotels/al388", "contact_phone": "+1 256-381-4710", "contact_email": null, "status": 1, "source_type": 1, "numberReviews": 160}, {"name": "TownePlace Suites by Marriott Foley at OWA", "type": "hotel", "image": "https://dynamic-media-cdn.tripadvisor.com/media/photo-o/2c/16/75/b7/exterior.jpg?w=1000&s=1", "address": "1070 N Owa Blvd, Foley, AL 36535", "lat": 30.377275, "lng": -87.66455, "ref_id": 12485772, "rating": 4, "num_reviews": 0, "website": "http://www.marriott.com/PNSTF", "contact_phone": "+1 251-581-9222", "contact_email": "jennifer.white38@icloud.com", "status": 1, "source_type": 1, "numberReviews": 110}, {"name": "Holiday Inn Express & Suites Florence Northeast An IHG Hotel", "type": "hotel", "image": "https://dynamic-media-cdn.tripadvisor.com/media/photo-o/2c/1c/d6/c2/hotel-exterior.jpg?w=1000&s=1", "address": "180 Etta Gray St, Florence, AL 35630-9574", "lat": 34.828796, "lng": -87.62401, "ref_id": 1526325, "rating": 4.5, "num_reviews": 0, "website": "https://www.ihg.com/holidayinnexpress/hotels/us/en/florence/shefl/hoteldetail?cm_mmc=YextLocal-_-EX-_-US-_-SHEFL", "contact_phone": "+1 256-246-2200", "contact_email": "florencehie@live.com", "status": 1, "source_type": 1, "numberReviews": 144}, {"name": "Element Huntsville, a Marriott Hotel", "type": "hotel", "image": "https://dynamic-media-cdn.tripadvisor.com/media/photo-o/0f/a8/61/b2/hotel-exterior-element.jpg?w=1000&s=1", "address": "6810 Governors West NW, Huntsville, AL 35806", "lat": 34.718502, "lng": -86.672745, "ref_id": 11044950, "rating": 3.5, "num_reviews": 0, "website": "https://www.marriott.com/en-us/hotels/hsvel-element-huntsville/overview/?scid=45f93f1b-bd77-45c9-8dab-83b6a417f6fe&y_source=1_NjExMzIyMS03NjktbG9jYXRpb24ud2Vic2l0ZQ%3D%3D", "contact_phone": "+1 256-327-9000", "contact_email": null, "status": 1, "source_type": 1, "numberReviews": 165}, {"name": "Best Western Premier The Tides", "type": "hotel", "image": "https://dynamic-media-cdn.tripadvisor.com/media/photo-o/2a/ff/a9/e7/discover-the-best-of.jpg?w=1000&s=1", "address": "26032 Perdido Beach Blvd, Orange Beach, AL 36561", "lat": 30.27029, "lng": -87.58049, "ref_id": 10163307, "rating": 4.5, "num_reviews": 0, "website": "https://www.bestwestern.com/de_DE/book/hotel-rooms.01124.html?iata=00171890&ssob=BLBWI0003G&cid=BLBWI0003G:yext:website:01124", "contact_phone": "+1 251-981-9888", "contact_email": "tideshotelob@innisfreehotels.com", "status": 1, "source_type": 1, "numberReviews": 1060}, {"name": "The Lodge at Gulf State Park, a Hilton Hotel", "type": "hotel", "image": "https://dynamic-media-cdn.tripadvisor.com/media/photo-o/2b/be/50/7f/exterior.jpg?w=1000&s=1", "address": "21196 East Beach Blvd, Gulf Shores, AL 36542", "lat": 30.250198, "lng": -87.66402, "ref_id": 14084829, "rating": 4.5, "num_reviews": 0, "website": "https://www.hilton.com/en/hotels/pnslghh-the-lodge-at-gulf-state-park/?SEO_id=YEXTN-AMER-HH-PNSLGHH&y_source=1_MTExMDY0OTMtNzY5LWxvY2F0aW9uLndlYnNpdGU%3D", "contact_phone": "+1 251-540-4000", "contact_email": null, "status": 1, "source_type": 1, "numberReviews": 863}, {"name": "Perdido Beach Resort", "type": "hotel", "image": "https://dynamic-media-cdn.tripadvisor.com/media/photo-o/2c/1f/b6/69/perdido-beach-resort.jpg?w=1000&s=1", "address": "27200 Perdido Beach Blvd., Orange Beach, AL 36561", "lat": 30.27365, "lng": -87.56147, "ref_id": 113291, "rating": 4.5, "num_reviews": 0, "website": "https://www.perdidobeachresort.com/?utm_source=local&utm_medium=organic&utm_campaign=website_link", "contact_phone": "+1 251-981-9811", "contact_email": "reservations@perdidobeachresort.com", "status": 1, "source_type": 1, "numberReviews": 2717}, {"name": "Drury Inn & Suites Huntsville at the Space & Rocket Center", "type": "hotel", "image": "https://dynamic-media-cdn.tripadvisor.com/media/photo-o/2b/72/61/1f/exterior.jpg?w=1000&s=1", "address": "93 Wynn Drive NW Space & Rocket Center, Huntsville, AL 35805", "lat": 34.715904, "lng": -86.65159, "ref_id": 13667966, "rating": 5, "num_reviews": 0, "website": null, "contact_phone": "+1 256-430-9888", "contact_email": "emarketing@druryhotels.com", "status": 1, "source_type": 1, "numberReviews": 333}, {"name": "The Hotel at Auburn University & Dixon Conference Center", "type": "hotel", "image": "https://dynamic-media-cdn.tripadvisor.com/media/photo-o/1b/7b/71/d8/the-hotel-at-auburn-university.jpg?w=1000&s=1", "address": "241 S College St, Auburn, AL 36830-5429", "lat": 32.60307, "lng": -85.48104, "ref_id": 230835, "rating": 4.5, "num_reviews": 0, "website": "http://www.auhcc.com/", "contact_phone": "+1 334-821-8200", "contact_email": "todd.scholl@auhcc.com", "status": 1, "source_type": 1, "numberReviews": 886}, {"name": "Hampton Inn & Suites Montgomery-EastChase", "type": "hotel", "image": "https://dynamic-media-cdn.tripadvisor.com/media/photo-o/2b/86/59/93/exterior.jpg?w=1000&s=1", "address": "7651 Eastchase Parkway, Montgomery, AL 36117", "lat": 32.36224, "lng": -86.158745, "ref_id": 503076, "rating": 4.5, "num_reviews": 0, "website": "https://www.hilton.com/en/hotels/mgmhshx-hampton-suites-montgomery-eastchase/?SEO_id=YEXTN-AMER-HX-MGMHSHX&y_source=1_MjA4NDk3OS03NjktbG9jYXRpb24ud2Vic2l0ZQ%3D%3D", "contact_phone": "+1 334-277-1818", "contact_email": "", "status": 1, "source_type": 1, "numberReviews": 1370}, {"name": "Best Western On The Beach", "type": "hotel", "image": "https://dynamic-media-cdn.tripadvisor.com/media/photo-o/2b/a4/b8/10/exterior.jpg?w=1000&s=1", "address": "337 E Beach Blvd, Gulf Shores, AL 36542", "lat": 30.24848, "lng": -87.68398, "ref_id": 72934, "rating": 4, "num_reviews": 0, "website": "https://www.bestwestern.com/de_DE/book/hotel-rooms.01047.html?iata=00171890&ssob=BLBWI0003G&cid=BLBWI0003G:yext:website:01047", "contact_phone": "+1 251-948-2711", "contact_email": null, "status": 1, "source_type": 1, "numberReviews": 1805}, {"name": "Drury Inn & Suites Birmingham Grandview", "type": "hotel", "image": "https://dynamic-media-cdn.tripadvisor.com/media/photo-o/2a/cf/3b/6c/exterior.jpg?w=1000&s=1", "address": "3510 Grandview Pkwy, Birmingham, AL 35243-1929", "lat": 33.44067, "lng": -86.724556, "ref_id": 224905, "rating": 4.5, "num_reviews": 0, "website": "https://www.facebook.com/DruryInnSuitesBirminghamGrandview/", "contact_phone": "+1 205-967-2450", "contact_email": "emarketing@druryhotels.com", "status": 1, "source_type": 1, "numberReviews": 951}, {"name": "Hampton Inn & Suites Birmingham-Downtown-Tutwiler", "type": "hotel", "image": "https://dynamic-media-cdn.tripadvisor.com/media/photo-o/2a/ed/4b/29/exterior.jpg?w=1000&s=1", "address": "2021 Park Place, Birmingham, AL 35203-2705", "lat": 33.520115, "lng": -86.80797, "ref_id": 1035861, "rating": 4.5, "num_reviews": 0, "website": "https://www.hilton.com/en/hotels/bhmdnhx-hampton-suites-birmingham-downtown-tutwiler/?SEO_id=YEXTN-AMER-HX-BHMDNHX&y_source=1_MjA4Mjk1My03NjktbG9jYXRpb24ud2Vic2l0ZQ%3D%3D", "contact_phone": "+1 205-322-2100", "contact_email": "", "status": 1, "source_type": 1, "numberReviews": 1649}, {"name": "Hotel Capstone", "type": "hotel", "image": "https://dynamic-media-cdn.tripadvisor.com/media/photo-o/2c/1f/a2/f1/hotel-capstone-exterior.jpg?w=1000&s=1", "address": "320 Paul Bryant Drive, Tuscaloosa, AL 35401", "lat": 33.206337, "lng": -87.540695, "ref_id": 72932, "rating": 4, "num_reviews": 0, "website": "https://www.hotelcapstone.com/", "contact_phone": "+1 205-343-1118", "contact_email": "info@hotelcapstone.com", "status": 1, "source_type": 1, "numberReviews": 670}, {"name": "Hyatt Regency Birmingham - The Wynfrey Hotel", "type": "hotel", "image": "https://dynamic-media-cdn.tripadvisor.com/media/photo-o/24/ff/5b/21/exterior.jpg?w=1000&s=1", "address": "1000 Riverchase Galleria, Birmingham, AL 35244-2301", "lat": 33.379684, "lng": -86.80767, "ref_id": 114774, "rating": 4, "num_reviews": 0, "website": "http://www.hyattregencywynfrey.com", "contact_phone": "+1 205-705-1234", "contact_email": "", "status": 1, "source_type": 1, "numberReviews": 2254}, {"name": "Beachside Resort Hotel", "type": "hotel", "image": "https://dynamic-media-cdn.tripadvisor.com/media/photo-o/1c/e9/77/ee/beachside-resort-hotel.jpg?w=1000&s=1", "address": "610 W Beach Blvd, Gulf Shores, AL 36542-6334", "lat": 30.24714, "lng": -87.6995, "ref_id": 653673, "rating": 3, "num_reviews": 0, "website": "http://www.bsrhgs.com/", "contact_phone": "+1 251-948-8141", "contact_email": "rama@zebra.net", "status": 1, "source_type": 1, "numberReviews": 526}, {"name": "Island House Hotel Orange Beach - a DoubleTree by Hilton", "type": "hotel", "image": "https://dynamic-media-cdn.tripadvisor.com/media/photo-o/2a/f4/bf/3f/exterior.jpg?w=1000&s=1", "address": "26650 Perdido Beach Boulevard, Orange Beach, AL 36561", "lat": 30.272348, "lng": -87.569626, "ref_id": 72628, "rating": 4, "num_reviews": 0, "website": "https://www.hilton.com/en/hotels/pnsobdt-island-house-hotel-orange-beach/?SEO_id=YEXTN-AMER-DT-PNSOBDT&y_source=1_NzYzNzcyOS03NjktbG9jYXRpb24ud2Vic2l0ZQ%3D%3D", "contact_phone": "+1 251-981-6100", "contact_email": null, "status": 1, "source_type": 1, "numberReviews": 1212}, {"name": "The Admiral Hotel", "type": "hotel", "image": "https://dynamic-media-cdn.tripadvisor.com/media/photo-o/2a/a8/63/07/the-admiral-hotel.jpg?w=1000&s=1", "address": "251 Government St, Mobile, AL 36602", "lat": 30.689184, "lng": -88.04315, "ref_id": 72785, "rating": 4, "num_reviews": 0, "website": "https://www.theadmiralhotel.com", "contact_phone": "+1 251-432-8000", "contact_email": "info@theadmiralhotel.com", "status": 1, "source_type": 1, "numberReviews": 1634}, {"name": "Redmont Hotel Birmingham, Curio Collection by Hilton", "type": "hotel", "image": "https://dynamic-media-cdn.tripadvisor.com/media/photo-o/2a/80/92/81/exterior.jpg?w=1000&s=1", "address": "2101 5th Avenue North, Birmingham, AL 35203", "lat": 33.518734, "lng": -86.80638, "ref_id": 72334, "rating": 4.5, "num_reviews": 0, "website": "https://www.hilton.com/en/hotels/bhmcuqq-redmont-hotel-birmingham/?SEO_id=YEXTN-AMER-QQ-BHMCUQQ&y_source=1_Mjg1Njc0OC03NjktbG9jYXRpb24ud2Vic2l0ZQ%3D%3D", "contact_phone": "+1 205-957-6828", "contact_email": null, "status": 1, "source_type": 1, "numberReviews": 973}, {"name": "SpringHill Suites by Marriott Orange Beach at The Wharf", "type": "hotel", "image": "https://dynamic-media-cdn.tripadvisor.com/media/photo-o/2b/ff/11/e3/outdoor-pool.jpg?w=1000&s=1", "address": "4673 Wharf Parkway West, Orange Beach, AL 36561-9604", "lat": 30.292631, "lng": -87.63222, "ref_id": 10202579, "rating": 4.5, "num_reviews": 0, "website": "https://www.marriott.com/en-us/hotels/pnsor-springhill-suites-orange-beach-at-the-wharf/overview/?scid=45f93f1b-bd77-45c9-8dab-83b6a417f6fe&y_source=1_Mzg5MDI5Mi03NjktbG9jYXRpb24ud2Vic2l0ZQ%3D%3D", "contact_phone": "+1 251-943-6600", "contact_email": null, "status": 1, "source_type": 1, "numberReviews": 405}, {"name": "Malaga Inn", "type": "hotel", "image": "https://dynamic-media-cdn.tripadvisor.com/media/photo-o/09/19/a6/b2/malaga-inn.jpg?w=1000&s=1", "address": "359 Church St, Mobile, AL 36602-2399", "lat": 30.687422, "lng": -88.0446, "ref_id": 113288, "rating": 4.5, "num_reviews": 0, "website": null, "contact_phone": "+1 800-235-1586", "contact_email": null, "status": 1, "source_type": 1, "numberReviews": 868}, {"name": "Hampton Inn & Suites Orange Beach/Gulf Front", "type": "hotel", "image": "https://dynamic-media-cdn.tripadvisor.com/media/photo-o/2a/ae/5b/d1/exterior.jpg?w=1000&s=1", "address": "25518 Perdido Beach Blvd, Orange Beach, AL 36561-6100", "lat": 30.268106, "lng": -87.58922, "ref_id": 1967141, "rating": 4.5, "num_reviews": 0, "website": "https://www.hilton.com/en/hotels/mobobhx-hampton-suites-orange-beach-gulf-front/?SEO_id=YEXTN-AMER-HX-MOBOBHX&y_source=1_MjA4MzM0Mi03NjktbG9jYXRpb24ud2Vic2l0ZQ%3D%3D", "contact_phone": "+1 251-923-4400", "contact_email": null, "status": 1, "source_type": 1, "numberReviews": 2350}, {"name": "Hampton Inn & Suites Huntsville Downtown", "type": "hotel", "image": "https://dynamic-media-cdn.tripadvisor.com/media/photo-o/2b/84/ca/58/exterior.jpg?w=1000&s=1", "address": "313 Clinton Avenue W, Huntsville, AL 35801", "lat": 34.7292, "lng": -86.590164, "ref_id": 23692322, "rating": 5, "num_reviews": 0, "website": "https://www.hilton.com/en/hotels/hsvhthx-hampton-suites-huntsville-downtown/?SEO_id=YEXTN-AMER-HX-HSVHTHX&y_source=1_Mjc3MjkyMDAtNzY5LWxvY2F0aW9uLndlYnNpdGU%3D", "contact_phone": "+1 256-270-9120", "contact_email": null, "status": 1, "source_type": 1, "numberReviews": 124}, {"name": "La Quinta Inn & Suites by Wyndham Cullman", "type": "hotel", "image": "https://dynamic-media-cdn.tripadvisor.com/media/photo-o/23/af/b2/c2/exterior.jpg?w=1000&s=1", "address": "2054 St. Joseph Dr. NW, Cullman, AL 35058-5949", "lat": 34.20914, "lng": -86.873146, "ref_id": 10533388, "rating": 4.5, "num_reviews": 0, "website": "http://www.lq.com/en/findandbook/hotel-details.6772.html", "contact_phone": "+1 256-775-9500", "contact_email": null, "status": 1, "source_type": 1, "numberReviews": 673}, {"name": "Staybridge Suites Gulf Shores, an IHG Hotel", "type": "hotel", "image": "https://dynamic-media-cdn.tripadvisor.com/media/photo-o/2c/1c/d3/68/staybridge-suites-gulf.jpg?w=1000&s=1", "address": "3947 Gulf Shores Parkway, Gulf Shores, AL 36542-2735", "lat": 30.309605, "lng": -87.6846, "ref_id": 1216744, "rating": 4.5, "num_reviews": 0, "website": "https://www.ihg.com/staybridge/hotels/us/en/gulf-shores/pnssb/hoteldetail?cm_mmc=YextLocal-_-SB-_-US-_-PNSSB", "contact_phone": "+1 251-277-4343", "contact_email": "admin@staygulfshoresal.com", "status": 1, "source_type": 1, "numberReviews": 458}, {"name": "Drury Inn & Suites Montgomery", "type": "hotel", "image": "https://dynamic-media-cdn.tripadvisor.com/media/photo-o/29/d3/87/97/exterior.jpg?w=1000&s=1", "address": "1124 Eastern Blvd, Montgomery, AL 36117-1941", "lat": 32.364735, "lng": -86.21347, "ref_id": 518282, "rating": 4.5, "num_reviews": 0, "website": null, "contact_phone": "+1 334-273-1101", "contact_email": null, "status": 1, "source_type": 1, "numberReviews": 757}, {"name": "Holiday Inn Birmingham-Airport, an IHG Hotel", "type": "hotel", "image": "https://dynamic-media-cdn.tripadvisor.com/media/photo-o/16/c4/50/81/holiday-inn-birmingham.jpg?w=1000&s=1", "address": "5000 Richard Arrington Jr Blvd N, Birmingham, AL 35212", "lat": 33.54403, "lng": -86.76087, "ref_id": 72341, "rating": 3.5, "num_reviews": 0, "website": "https://www.ihg.com/holidayinn/hotels/us/en/birmingham/bhmap/hoteldetail?cm_mmc=YextLocal-_-HI-_-US-_-BHMAP", "contact_phone": "+1 205-909-1999", "contact_email": "erin.castillo@hibhm.com", "status": 1, "source_type": 1, "numberReviews": 163}, {"name": "Hyatt Place Birmingham/Hoover", "type": "hotel", "image": "https://dynamic-media-cdn.tripadvisor.com/media/photo-o/24/ff/96/f8/exterior.jpg?w=1000&s=1", "address": "2980 John Hawkins Parkway, Hoover, AL 35244-1087", "lat": 33.370872, "lng": -86.81406, "ref_id": 73347, "rating": 4, "num_reviews": 0, "website": "http://birminghamhoover.place.hyatt.com/hyatt/hotels/place/index.jsp", "contact_phone": "+1 205-988-8444", "contact_email": "", "status": 1, "source_type": 1, "numberReviews": 456}, {"name": "Fairfield Inn & Suites Orange Beach", "type": "hotel", "image": "https://dynamic-media-cdn.tripadvisor.com/media/photo-o/2c/15/82/4e/lobby-sitting-area.jpg?w=1000&s=1", "address": "3111 Loop Rd, Orange Beach, AL 36561-6198", "lat": 30.270342, "lng": -87.59385, "ref_id": 1237563, "rating": 4, "num_reviews": 0, "website": "https://www.marriott.com/en-us/hotels/pnsob-fairfield-inn-and-suites-orange-beach/overview/?scid=45f93f1b-bd77-45c9-8dab-83b6a417f6fe&y_source=1_MjgxOTAwOC03NjktbG9jYXRpb24ud2Vic2l0ZQ%3D%3D", "contact_phone": "+1 251-543-4444", "contact_email": "", "status": 1, "source_type": 1, "numberReviews": 514}, {"name": "Best Western Dothan Inn & Suites", "type": "hotel", "image": "https://dynamic-media-cdn.tripadvisor.com/media/photo-o/25/02/47/67/exterior.jpg?w=1000&s=1", "address": "1650 Westgate Pkwy, Dothan, AL 36303-5652", "lat": 31.258333, "lng": -85.43067, "ref_id": 1391711, "rating": 4.5, "num_reviews": 0, "website": "https://www.bestwestern.com/en_US/book/hotel-rooms.01132.html?iata=00171890&ssob=BLBWI0003G&cid=BLBWI0003G:yext:website:01132", "contact_phone": "+1 334-792-9000", "contact_email": "bw01132dothan@gmail.com", "status": 1, "source_type": 1, "numberReviews": 388}, {"name": "Courtyard by Marriott Gulf Shores Craft Farms", "type": "hotel", "image": "https://dynamic-media-cdn.tripadvisor.com/media/photo-o/2c/0a/1b/cd/the-bistro-bar.jpg?w=1000&s=1", "address": "3750 Gulf Shores Parkway, Gulf Shores, AL 36542-2750", "lat": 30.299442, "lng": -87.68179, "ref_id": 72961, "rating": 4.5, "num_reviews": 0, "website": "https://www.marriott.com/en-us/hotels/pnsgs-courtyard-gulf-shores-craft-farms/overview/?scid=45f93f1b-bd77-45c9-8dab-83b6a417f6fe&y_source=1_MjgzMzY4OC03NjktbG9jYXRpb24ud2Vic2l0ZQ%3D%3D", "contact_phone": "+1 251-968-1113", "contact_email": "efitzharris@dadlp.com", "status": 1, "source_type": 1, "numberReviews": 312}, {"name": "Microtel Inn & Suites by Wyndham Gulf Shores", "type": "hotel", "image": "https://dynamic-media-cdn.tripadvisor.com/media/photo-o/2b/61/25/e5/exterior.jpg?w=1000&s=1", "address": "3600 Gulf Shores Pkwy, Gulf Shores, AL 36542-2720", "lat": 30.294436, "lng": -87.6818, "ref_id": 72620, "rating": 3.5, "num_reviews": 0, "website": "https://www.wyndhamhotels.com/microtel/gulf-shores-alabama/microtel-inn-and-suites-gulf-shores/overview", "contact_phone": "+1 251-298-8800", "contact_email": "accessibility@wyndham.com", "status": 1, "source_type": 1, "numberReviews": 1423}, {"name": "Hilton Garden Inn Orange Beach Beachfront", "type": "hotel", "image": "https://dynamic-media-cdn.tripadvisor.com/media/photo-o/21/57/43/1f/front-of-hotel-building.jpg?w=1000&s=1", "address": "23092 Perdido Beach Boulevard, Orange Beach, AL 36561", "lat": 30.257887, "lng": -87.63068, "ref_id": 72911, "rating": 4, "num_reviews": 0, "website": "https://www.hilton.com/en/hotels/orbhhgi-hilton-garden-inn-orange-beach-beachfront/?SEO_id=YEXTN-AMER-GI-ORBHHGI&y_source=1_MjA4MzE5NS03NjktbG9jYXRpb24ud2Vic2l0ZQ%3D%3D", "contact_phone": "+1 251-974-1600", "contact_email": "hiltongardeninnob@innisfreehotels.com", "status": 1, "source_type": 1, "numberReviews": 1784}, {"name": "Baymont by Wyndham Dothan", "type": "hotel", "image": "https://dynamic-media-cdn.tripadvisor.com/media/photo-o/24/7b/df/c5/dothan-inn.jpg?w=1000&s=1", "address": "2841 Ross Clark Cir S.W, Dothan, AL 36301-2016", "lat": 31.21502, "lng": -85.43159, "ref_id": 8525605, "rating": 3.5, "num_reviews": 0, "website": "http://www.wyndhamhotels.com/baymont/dothan-alabama/baymont-dothan/overview", "contact_phone": "+1 334-793-2550", "contact_email": null, "status": 1, "source_type": 1, "numberReviews": 38}, {"name": "The Cottle House Bed & Breakfast", "type": "hotel", "image": "https://dynamic-media-cdn.tripadvisor.com/media/photo-o/09/9a/f7/b3/hickory-ridge-lodge-and.jpg?w=1000&s=1", "address": "27388 Straughn School Rd, Andalusia, AL 36421-9425", "lat": 31.37957, "lng": -86.446526, "ref_id": 7079919, "rating": 4, "num_reviews": 0, "website": "http://www.thecottlehouse.com/", "contact_phone": "+1 334-343-6192", "contact_email": "hickoryridgebnb@gmail.com", "status": 1, "source_type": 1, "numberReviews": 8}, {"name": "Wills Creek RV Park", "type": "hotel", "image": "https://dynamic-media-cdn.tripadvisor.com/media/photo-o/19/f3/f8/9c/wills-creek-rv-park.jpg?w=1000&s=1", "address": "1310 Airport Rd W, Fort Payne, AL 35968-3320", "lat": 34.45915, "lng": -85.73868, "ref_id": 15681751, "rating": 4, "num_reviews": 0, "website": "http://willscreekrvpark.com/", "contact_phone": "+1 256-845-6703", "contact_email": "info@willscreekrvpark.com", "status": 1, "source_type": 1, "numberReviews": 8}, {"name": "John Hand Club", "type": "hotel", "image": "https://dynamic-media-cdn.tripadvisor.com/media/photo-o/28/65/e6/a1/entrance-to-the-historic.jpg?w=1000&s=1", "address": "17 20th St N Ste 2000, Birmingham, AL 35203-4023", "lat": 33.514, "lng": -86.805, "ref_id": 20159933, "rating": 5, "num_reviews": 0, "website": "http://johnhandclub.com/", "contact_phone": "+1 205-671-8235", "contact_email": "martha.anne@johnhandclub.com", "status": 1, "source_type": 1, "numberReviews": 3}, {"name": "Talladega Pit Stop RV Park & Campground", "type": "hotel", "image": "https://dynamic-media-cdn.tripadvisor.com/media/photo-o/1a/c0/60/5b/one-of-our-adorable-tiny.jpg?w=1000&s=1", "address": "4785 Speedway Blvd, Lincoln, AL 35096-7035", "lat": 33.58079, "lng": -86.045, "ref_id": 1636296, "rating": 4, "num_reviews": 0, "website": "http://www.talladegataz.com/", "contact_phone": "+1 515-419-2608", "contact_email": "TalladegaPitStop@gmail.com", "status": 1, "source_type": 1, "numberReviews": 8}, {"name": "The Johnston-Torbert House", "type": "hotel", "image": "https://dynamic-media-cdn.tripadvisor.com/media/photo-o/06/c8/25/c6/the-blue-room.jpg?w=1000&s=1", "address": "1101 South St, Greensboro, AL 36744-1513", "lat": 32.70285, "lng": -87.59267, "ref_id": 6474049, "rating": 4.5, "num_reviews": 0, "website": null, "contact_phone": "+1 334-352-5271", "contact_email": "antebellumestates@gmail.com", "status": 1, "source_type": 1, "numberReviews": 7}, {"name": "Grand Beach Condominiums", "type": "hotel", "image": "https://dynamic-media-cdn.tripadvisor.com/media/photo-o/23/94/97/c5/caption.jpg?w=1000&s=1", "address": "572 E Beach Blvd, Gulf Shores, AL 36542-6606", "lat": 30.25108, "lng": -87.6736, "ref_id": 14787541, "rating": 4.5, "num_reviews": 0, "website": null, "contact_phone": null, "contact_email": null, "status": 1, "source_type": 1, "numberReviews": 4}, {"name": "Georgia-Bama RV Park", "type": "hotel", "image": null, "address": "2190 Almon St, Heflin, AL 36264-1801", "lat": 33.6235, "lng": -85.5956, "ref_id": 20318137, "rating": 4.5, "num_reviews": 0, "website": "http://Facebook.com/georgiabamarvpark", "contact_phone": "+1 256-453-1561", "contact_email": null, "status": 1, "source_type": 1, "numberReviews": 4}, {"name": "Point Mallard Park", "type": "hotel", "image": "https://dynamic-media-cdn.tripadvisor.com/media/photo-o/04/53/35/d5/the-larger-pool.jpg?w=1000&s=1", "address": "Decatur, AL 35602-0488", "lat": 34.58065, "lng": -86.93001, "ref_id": 668631, "rating": 3.5, "num_reviews": 0, "website": "http://www.pointmallardpark.com/", "contact_phone": "+1 256-351-7772", "contact_email": "", "status": 1, "source_type": 1, "numberReviews": 26}, {"name": "Tidewater Condominiums", "type": "hotel", "image": "https://dynamic-media-cdn.tripadvisor.com/media/photo-o/1d/8f/cd/e1/caption.jpg?w=1000&s=1", "address": "26750 Perdido Beach Blvd, Orange Beach, AL 36561-6142", "lat": 30.27232, "lng": -87.56814, "ref_id": 21392974, "rating": 4.5, "num_reviews": 0, "website": null, "contact_phone": null, "contact_email": null, "status": 1, "source_type": 1, "numberReviews": 4}, {"name": "Kelly Creek RV Park", "type": "hotel", "image": "https://dynamic-media-cdn.tripadvisor.com/media/photo-o/2a/25/4b/f1/4-mile-hike-with-lush.jpg?w=1000&s=1", "address": "1468 County Road 14, Newton, AL 36350", "lat": 31.3557, "lng": -85.53207, "ref_id": 26551259, "rating": 5, "num_reviews": 0, "website": "www.kellycreekrvpark.com", "contact_phone": "+1 334-797-9885", "contact_email": null, "status": 1, "source_type": 1, "numberReviews": 2}, {"name": "Parnell Creek RV Park", "type": "hotel", "image": "https://dynamic-media-cdn.tripadvisor.com/media/photo-s/01/76/94/93/sheriff-s-lookout-cabin.jpg?w=1000&s=1", "address": "115 Parnell Cir, Woodville, AL 35776-6413", "lat": 34.61359, "lng": -86.23403, "ref_id": 267547, "rating": 3.5, "num_reviews": 0, "website": "http://www.parnellcreekrvpark.com/", "contact_phone": "+1 256-776-2348", "contact_email": "parnellcreekrvpark@yahoo.com", "status": 1, "source_type": 1, "numberReviews": 25}, {"name": "U.S. Space & Rocket Center RV Park", "type": "hotel", "image": "https://dynamic-media-cdn.tripadvisor.com/media/photo-o/0d/82/d4/3c/us-space-rocket-center.jpg?w=1000&s=1", "address": "1 Tranquility Base, Huntsville, AL 35805-3371", "lat": 34.71058, "lng": -86.64694, "ref_id": 7192610, "rating": 3.5, "num_reviews": 0, "website": "http://www.spacecamp.com/travel/rvpark", "contact_phone": "+1 256-830-4987", "contact_email": null, "status": 1, "source_type": 1, "numberReviews": 31}, {"name": "Hotel Red Bay", "type": "hotel", "image": "https://dynamic-media-cdn.tripadvisor.com/media/photo-o/1c/7c/79/95/photo0jpg.jpg?w=1000&s=1", "address": "107 4th Ave SE, Red Bay, AL 35582-4245", "lat": 34.441418, "lng": -88.143936, "ref_id": 22219348, "rating": 4.5, "num_reviews": 0, "website": "http://hotelredbay.com", "contact_phone": "+1 256-668-0181", "contact_email": "", "status": 1, "source_type": 1, "numberReviews": 3}, {"name": "Autumn Lake RV Park", "type": "hotel", "image": "https://dynamic-media-cdn.tripadvisor.com/media/photo-o/11/21/4a/2e/ta-img-20171030-154827.jpg?w=1000&s=1", "address": "1049 Fairford Road, Calvert, AL 36513", "lat": 31.159449, "lng": -88.02566, "ref_id": 10375216, "rating": 5, "num_reviews": 0, "website": "http://Autumnlakervpark.com", "contact_phone": "+1 251-421-2513", "contact_email": "Autumnlakervparkcalvert@gmail.com", "status": 1, "source_type": 1, "numberReviews": 4}, {"name": "Gulf State Park Cottages", "type": "hotel", "image": "https://dynamic-media-cdn.tripadvisor.com/media/photo-o/12/f5/ee/56/front-of-the-3-bedroom.jpg?w=1000&s=1", "address": "20115 State Highway 135, Gulf Shores, AL 36542-4501", "lat": 30.26573, "lng": -87.68152, "ref_id": 4049510, "rating": 4, "num_reviews": 0, "website": "http://www.alapark.com/gulfstate/Cottages/", "contact_phone": "+1 800-252-7275", "contact_email": "gulfcabins.statepark@dcnr.alabama.gov", "status": 1, "source_type": 1, "numberReviews": 9}, {"name": "Little River Marina & Lodge", "type": "hotel", "image": "https://dynamic-media-cdn.tripadvisor.com/media/photo-o/0a/7b/51/d6/a-few-crappie.jpg?w=1000&s=1", "address": "1780 County Road 102, Cedar Bluff, AL 35959-3342", "lat": 34.23446, "lng": -85.64494, "ref_id": 7117764, "rating": 4.5, "num_reviews": 0, "website": "http://www.littlerivermarinaandlodge.com/", "contact_phone": "+1 256-779-6461", "contact_email": null, "status": 1, "source_type": 1, "numberReviews": 9}, {"name": "Days Inn by Wyndham Centre", "type": "hotel", "image": "https://dynamic-media-cdn.tripadvisor.com/media/photo-o/22/16/d7/7b/lobby.jpg?w=1000&s=1", "address": "1585 W Main St, Centre, AL 35960-1127", "lat": 34.52722, "lng": -88.21333, "ref_id": 1140995, "rating": 3.5, "num_reviews": 0, "website": "http://www.wyndhamhotels.com/hotels/18213?tel=18003291992&iata=00065402&cid=fe:di:20161215:tabl:pp:dius:18213&checkin_date={{ci:MM/dd/yyyy}}&checkout_date={{co:MM/dd/yyyy}}&children={{nc}}&adults={{na}}&rooms={{nr}}&checkin_date={{ci:MM/dd/yyyy}}&checkout_date={{co:MM/dd/yyyy}}&children={{nc}}&adults={{na}}&rooms={{nr}}", "contact_phone": "+1 256-927-7927", "contact_email": "", "status": 1, "source_type": 1, "numberReviews": 176}, {"name": "Seaglass Inn Bed & breakfast", "type": "hotel", "image": "https://dynamic-media-cdn.tripadvisor.com/media/photo-o/15/20/73/a5/20181020-141420-largejpg.jpg?w=1000&s=1", "address": "56 Fairhope Ave, Fairhope, AL 36532-3421", "lat": 30.52312, "lng": -87.91015, "ref_id": 12900146, "rating": 5, "num_reviews": 0, "website": "http://www.seaglassinnllc.com", "contact_phone": "+1 251-517-7784", "contact_email": null, "status": 1, "source_type": 1, "numberReviews": 4}, {"name": "The Good Inn", "type": "hotel", "image": "https://dynamic-media-cdn.tripadvisor.com/media/photo-o/2b/b9/ba/25/caption.jpg?w=1000&s=1", "address": "72 Eufaula Ave, Clayton, AL 36016-2007", "lat": 31.878698, "lng": -85.44445, "ref_id": 24859612, "rating": 5, "num_reviews": 0, "website": "http://thegoodinn.com/?utm_source=gmb&utm_medium=referral", "contact_phone": "+1 706-786-6967", "contact_email": "tricia@thegoodinn.com", "status": 1, "source_type": 1, "numberReviews": 2}, {"name": "Magnolia Farms RV Park", "type": "hotel", "image": "https://dynamic-media-cdn.tripadvisor.com/media/photo-o/19/e8/2d/d5/the-clubhouse.jpg?w=1000&s=1", "address": "13381 Lipscomb Rd, Foley, AL 36535-8458", "lat": 30.420164, "lng": -87.785484, "ref_id": 5062701, "rating": 4, "num_reviews": 0, "website": "http://www.magnoliafarmsrvpark.com", "contact_phone": "+1 251-928-7335", "contact_email": "magnoliafarmsrvpark@yahoo.com", "status": 1, "source_type": 1, "numberReviews": 8}, {"name": "Great Buck Lodge", "type": "hotel", "image": "https://dynamic-media-cdn.tripadvisor.com/media/photo-s/02/b9/71/b8/great-buck-lodge.jpg?w=1000&s=1", "address": "108A Fox Ave E, Fort Payne, AL 35967-7243", "lat": 34.41796, "lng": -85.70561, "ref_id": 2507667, "rating": 5, "num_reviews": 0, "website": "http://www.greatbucklodge.com", "contact_phone": "+1 256-845-7054", "contact_email": "GreatBuckLodge@gmail.com", "status": 1, "source_type": 1, "numberReviews": 6}, {"name": "The Hatter Country Inn", "type": "hotel", "image": "https://dynamic-media-cdn.tripadvisor.com/media/photo-o/28/35/86/2a/beautiful-country-inn.jpg?w=1000&s=1", "address": "4277 Al Highway 117, Mentone, AL 35984-2630", "lat": 34.567688, "lng": -85.5594, "ref_id": 24108258, "rating": 5, "num_reviews": 0, "website": "https://thehattercountryinn.com/", "contact_phone": "+1 941-376-6810", "contact_email": "info@TheHatterCafe.com", "status": 1, "source_type": 1, "numberReviews": 2}, {"name": "Palomino Rv Resort", "type": "hotel", "image": "https://dynamic-media-cdn.tripadvisor.com/media/photo-o/23/d1/a0/f6/caption.jpg?w=1000&s=1", "address": "1315 County Road 222, Cullman, AL 35057-3548", "lat": 34.12948, "lng": -86.87697, "ref_id": 23923335, "rating": 4.5, "num_reviews": 0, "website": "http://palominorvresort.com/", "contact_phone": "+1 256-737-0220", "contact_email": "info@palominorvresort.com", "status": 1, "source_type": 1, "numberReviews": 3}, {"name": "Little River RV Park & Campground", "type": "hotel", "image": "https://dynamic-media-cdn.tripadvisor.com/media/photo-o/0e/6f/15/63/little-river-rv-park.jpg?w=1000&s=1", "address": "1357 County Road 261, Fort Payne, AL 35967-7119", "lat": 34.40664, "lng": -85.65313, "ref_id": 11644638, "rating": 4, "num_reviews": 0, "website": "http://www.littleriverrvpark.com/", "contact_phone": "+1 256-619-2267", "contact_email": null, "status": 1, "source_type": 1, "numberReviews": 13}, {"name": "The Cove RV Resort & Campground", "type": "hotel", "image": "https://dynamic-media-cdn.tripadvisor.com/media/photo-o/1c/7e/ff/ef/jagged-rock-retaining.jpg?w=1000&s=1", "address": "4122 Old Pump Station Rd, Gadsden, AL 35904-8202", "lat": 34.00053, "lng": -86.081, "ref_id": 13361158, "rating": 3.5, "num_reviews": 0, "website": "http://www.thecoverv.com", "contact_phone": "+1 256-467-3158", "contact_email": "reservations@thecoverv.com", "status": 1, "source_type": 1, "numberReviews": 12}, {"name": "Mill Creek RV Park", "type": "hotel", "image": "https://dynamic-media-cdn.tripadvisor.com/media/photo-o/20/f0/a5/3e/just-beautiful.jpg?w=1000&s=1", "address": "28861 Veto Rd, Elkmont, AL 35620-6027", "lat": 34.96849, "lng": -86.99258, "ref_id": 20358964, "rating": 4, "num_reviews": 0, "website": "https://millcreekrv.com/", "contact_phone": "+1 256-732-3686", "contact_email": "info@millcreekrv.com", "status": 1, "source_type": 1, "numberReviews": 4}, {"name": "Everhope Plantation", "type": "hotel", "image": "https://dynamic-media-cdn.tripadvisor.com/media/photo-o/0b/6b/b7/f7/everhope-plantation.jpg?w=1000&s=1", "address": "11334 Al Highway 14, Eutaw, AL 35462-2912", "lat": 32.90204, "lng": -87.971825, "ref_id": 10357985, "rating": 4, "num_reviews": 0, "website": "http://www.everhopeplantation.com", "contact_phone": "+1 205-500-0780", "contact_email": "EBJR@Everhope1852.com", "status": 1, "source_type": 1, "numberReviews": 9}, {"name": "Talladega Knights RV Park", "type": "hotel", "image": "https://dynamic-media-cdn.tripadvisor.com/media/photo-o/0f/4b/da/c2/camp-site.jpg?w=1000&s=1", "address": "230 Summer Dale Ln, Lincoln, AL 35096-5675", "lat": 33.58381, "lng": -86.08062, "ref_id": 11717388, "rating": 4.5, "num_reviews": 0, "website": "http://www.talladegaknightsrvpark.com", "contact_phone": "+1 205-746-5351", "contact_email": null, "status": 1, "source_type": 1, "numberReviews": 6}, {"name": "Riverview RV Park", "type": "hotel", "image": "https://dynamic-media-cdn.tripadvisor.com/media/photo-o/2a/47/98/f2/spacious-level-concrete.jpg?w=1000&s=1", "address": "7555 Riverview Ln, Bay Minette, AL 36507-8814", "lat": 30.863438, "lng": -87.89328, "ref_id": 25076472, "rating": 5, "num_reviews": 0, "website": "https://app.fireflyreservations.com/kiosk/property/RiverviewRVPark", "contact_phone": "+1 813-990-7515", "contact_email": "riverviewrvpark225@gmail.com", "status": 1, "source_type": 1, "numberReviews": 2}, {"name": "Lani Kai Village", "type": "hotel", "image": "https://dynamic-media-cdn.tripadvisor.com/media/photo-o/14/06/c9/aa/lani-kai-village.jpg?w=1000&s=1", "address": "729 W Beach Blvd, Gulf Shores, AL 36542-6385", "lat": 30.24644, "lng": -87.70161, "ref_id": 1157102, "rating": 3.5, "num_reviews": 0, "website": null, "contact_phone": "", "contact_email": "", "status": 1, "source_type": 1, "numberReviews": 18}, {"name": "Days Inn by Wyndham Oneonta AL", "type": "hotel", "image": "https://dynamic-media-cdn.tripadvisor.com/media/photo-o/1c/fd/da/70/exterior.jpg?w=1000&s=1", "address": "293 Valley Rd, Oneonta, AL 35121-1334", "lat": 33.953182, "lng": -86.46499, "ref_id": 243983, "rating": 3, "num_reviews": 0, "website": "http://www.wyndhamhotels.com/hotels/45978?tel=18003291992&iata=00065402&cid=fe:di:20161215:tabl:pp:dius:45978&checkin_date={{ci:MM/dd/yyyy}}&checkout_date={{co:MM/dd/yyyy}}&children={{nc}}&adults={{na}}&rooms={{nr}}&checkin_date={{ci:MM/dd/yyyy}}&checkout_date={{co:MM/dd/yyyy}}&children={{nc}}&adults={{na}}&rooms={{nr}}", "contact_phone": "+1 205-274-2200", "contact_email": "daysinn45978@gmail.com", "status": 1, "source_type": 1, "numberReviews": 179}, {"name": "GuestHouse Dothan", "type": "hotel", "image": "https://dynamic-media-cdn.tripadvisor.com/media/photo-o/2a/c4/ed/04/exterior.jpg?w=1000&s=1", "address": "1075 Ross Clark Cir, Dothan, AL 36303-5424", "lat": 31.21732, "lng": -85.36096, "ref_id": 230802, "rating": 3, "num_reviews": 0, "website": "https://www.stayinns.com/guesthouse-extended-stay/al/dothan/guesthouse-dothan", "contact_phone": "+1 334-793-2525", "contact_email": "", "status": 1, "source_type": 1, "numberReviews": 29}, {"name": "Hilltop RV Park", "type": "hotel", "image": null, "address": "23420 County Road 64, Robertsdale, AL 36567-4044", "lat": 30.62508, "lng": -87.62492, "ref_id": 1647728, "rating": 3, "num_reviews": 0, "website": "http://www.hilltoprvpark.com/", "contact_phone": "+1 251-960-1129", "contact_email": "info@hilltoprvpark.com", "status": 1, "source_type": 1, "numberReviews": 11}, {"name": "Lake View Inn & Suites", "type": "hotel", "image": "https://dynamic-media-cdn.tripadvisor.com/media/photo-o/0f/dc/ec/a1/pool.jpg?w=1000&s=1", "address": "101 Highway 72, Killen, AL 35645-2837", "lat": 34.852516, "lng": -87.56792, "ref_id": 240667, "rating": 2.5, "num_reviews": 0, "website": "https://www.facebook.com/Lakeview-Inn-Suites-109353834056543/", "contact_phone": "+1 256-757-2167", "contact_email": "lakeviewinnsuites@gmail.com", "status": 1, "source_type": 1, "numberReviews": 66}, {"name": "Travel Inn Montgomery WestSouth Blvd I-65", "type": "hotel", "image": null, "address": "970 West South Boulevard, Montgomery, AL 36105-3021", "lat": 32.32761, "lng": -86.33101, "ref_id": 6034131, "rating": 1, "num_reviews": 0, "website": null, "contact_phone": "+1 334-288-2600", "contact_email": null, "status": 1, "source_type": 1, "numberReviews": 1}, {"name": "Madison Inn and Suites", "type": "hotel", "image": "https://dynamic-media-cdn.tripadvisor.com/media/photo-o/18/c7/da/6d/madison-inn-and-suites.jpg?w=1000&s=1", "address": "8716 Madison Blvd, Madison, AL 35758-1806", "lat": 34.680485, "lng": -86.74434, "ref_id": 72519, "rating": 2.5, "num_reviews": 0, "website": "http://madisoninnandsuites.com", "contact_phone": "+1 256-258-3800", "contact_email": "madisoninnandsuites@gmail.com", "status": 1, "source_type": 1, "numberReviews": 12},