[{"name": "Lohas Residences Sukhumvit Hotel", "type": "hotel", "image": "https://dynamic-media-cdn.tripadvisor.com/media/photo-o/23/6a/61/af/lohas-residences-sukhumvit.jpg?w=1000&s=1", "address": "75 Sukhumvit Soi 2 Khlongtoey, Bangkok 10110 Thailand", "lat": 13.737178, "lng": 100.552086, "ref_id": 2037768, "rating": 4, "num_reviews": 0, "website": "http://www.lohasresidences.com/?utm_source={{ts}}&utm_medium=tripadvisor", "contact_phone": "+66 2 120 8188", "contact_email": "rsvn@lohasresidences.com", "status": 1, "source_type": 1, "numberReviews": 1036}, {"name": "Chern Hostel", "type": "hotel", "image": "https://dynamic-media-cdn.tripadvisor.com/media/photo-o/1b/83/34/75/chern-hostel.jpg?w=1000&s=1", "address": "17 Soi Ratchasak, Bamrung Mueang Road Samranrat, Phra Nakorn, Bangkok 10200 Thailand", "lat": 13.751545, "lng": 100.50317, "ref_id": 4765347, "rating": 4.5, "num_reviews": 0, "website": "http://chernhostel.com/", "contact_phone": "+66 89 168 0212", "contact_email": "info@chernbangkok.com", "status": 1, "source_type": 1, "numberReviews": 689}, {"name": "SO/ BANGKOK", "type": "hotel", "image": "https://dynamic-media-cdn.tripadvisor.com/media/photo-o/2b/65/f1/0d/exterior-view.jpg?w=1000&s=1", "address": "2 North Sathorn Road Silom, Bangrak, Bangkok 10500 Thailand", "lat": 13.7263, "lng": 100.54316, "ref_id": 2421117, "rating": 4.5, "num_reviews": 0, "website": "https://www.so-bangkok.com", "contact_phone": "+66 2 624 0000", "contact_email": "h6835@so-hotels.com", "status": 1, "source_type": 1, "numberReviews": 8412}, {"name": "Hotel Icon Bangkok", "type": "hotel", "image": "https://dynamic-media-cdn.tripadvisor.com/media/photo-o/17/41/01/54/photo1jpg.jpg?w=1000&s=1", "address": "Sukhumvit Soi 2 Khlong Toey, Bangkok 10110 Thailand", "lat": 13.739588, "lng": 100.55211, "ref_id": 6206933, "rating": 4.5, "num_reviews": 0, "website": "http://www.hoteliconbangkok.com", "contact_phone": "+66 2 656 9797", "contact_email": "info@hoteliconbangkok.com", "status": 1, "source_type": 1, "numberReviews": 1113}, {"name": "Adelphi Grande Sukhumvit", "type": "hotel", "image": "https://dynamic-media-cdn.tripadvisor.com/media/photo-o/1a/bc/4a/e9/pool-on-the-4th-floor.jpg?w=1000&s=1", "address": "16 Sukhumvit Soi 41 Phrom Phong, Bangkok 10110 Thailand", "lat": 13.73017, "lng": 100.57204, "ref_id": 1396639, "rating": 4.5, "num_reviews": 0, "website": "https://www.adelphihospitality.com/destinations/adelphi-grande", "contact_phone": "+66 2 695 0555", "contact_email": "reservation@adelphigrande.com", "status": 1, "source_type": 1, "numberReviews": 977}, {"name": "Valia Hotel Bangkok", "type": "hotel", "image": "https://dynamic-media-cdn.tripadvisor.com/media/photo-o/2b/c2/9d/c8/deluxe-suite.jpg?w=1000&s=1", "address": "95,370 Sukhumvit Soi 24 Khwaeng Klongton, Khet Klongtoey, Bangkok 10110 Thailand", "lat": 13.721255, "lng": 100.56553, "ref_id": 25146302, "rating": 5, "num_reviews": 0, "website": "https://www.valiahotelbangkok.com", "contact_phone": "+66 2 483 3999", "contact_email": "enquiry@valiahotelbangkok.com", "status": 1, "source_type": 1, "numberReviews": 414}, {"name": "Mercure Bangkok Makkasan", "type": "hotel", "image": "https://dynamic-media-cdn.tripadvisor.com/media/photo-o/2a/ed/a7/a3/exterior.jpg?w=1000&s=1", "address": "1599, Kamphaeng Phet 7 Road Makkasan, Ratchathewi, Bangkok 10400 Thailand", "lat": 13.751399, "lng": 100.55748, "ref_id": 11403400, "rating": 4.5, "num_reviews": 0, "website": "http://www.mercure.com/gb/hotel-8422-mercure-bangkok-makkasan-opening-december-2016/index.shtml", "contact_phone": "+66 2 115 3333", "contact_email": "H8422@accor.com", "status": 1, "source_type": 1, "numberReviews": 1494}, {"name": "Citrus Suites Sukhumvit 6 by Compass Hospitality", "type": "hotel", "image": "https://dynamic-media-cdn.tripadvisor.com/media/photo-o/12/68/81/e4/citrus-suites-sukhumvit.jpg?w=1000&s=1", "address": "25/1 Sukhumvit Soi 6, Bangkok 10110 Thailand", "lat": 13.738997, "lng": 100.553604, "ref_id": 13005280, "rating": 4.5, "num_reviews": 0, "website": "http://www.citrussuitessukhumvit.com", "contact_phone": "+66 2 254 7956", "contact_email": "enquiry@citrussuitessukhumvit.com", "status": 1, "source_type": 1, "numberReviews": 549}, {"name": "Hotel Nikko Bangkok", "type": "hotel", "image": "https://dynamic-media-cdn.tripadvisor.com/media/photo-o/16/21/73/f3/exterior-night-view.jpg?w=1000&s=1", "address": "27, Sukhumvit 55 ,Sukhumvit Rd Khlong Tan Nuea, Watthana, Bangkok 10110 Thailand", "lat": 13.725009, "lng": 100.57926, "ref_id": 15019979, "rating": 4.5, "num_reviews": 0, "website": "http://www.nikkobangkok.com", "contact_phone": "+66 2 080 2111", "contact_email": "info@nikkobangkok.com", "status": 1, "source_type": 1, "numberReviews": 784}, {"name": "ASAI Bangkok Chinatown", "type": "hotel", "image": "https://dynamic-media-cdn.tripadvisor.com/media/photo-o/1c/6c/ac/21/courtyard.jpg?w=1000&s=1", "address": "531 Charoen Krung Road, Pom Prap, Pom Prap Sattru Phai, Bangkok 10100 Thailand", "lat": 13.741491, "lng": 100.51123, "ref_id": 21151284, "rating": 5, "num_reviews": 0, "website": "https://www.asaihotels.com/locations/bangkok-chinatown/", "contact_phone": "+66 2 220 8999", "contact_email": "", "status": 1, "source_type": 1, "numberReviews": 1527}, {"name": "Ibis Bangkok Sukhumvit 24", "type": "hotel", "image": "https://dynamic-media-cdn.tripadvisor.com/media/photo-o/27/c8/7c/78/exterior.jpg?w=1000&s=1", "address": "5/1 Sukhumvit 24 Road Klong Tan, Klong Toey, Bangkok 10110 Thailand", "lat": 13.729213, "lng": 100.56977, "ref_id": 19192507, "rating": 4, "num_reviews": 0, "website": "https://www.accorhotels.com/gb/hotel-B0M5-ibis-bangkok-sukhumvit-24-opening-december-2019/index.shtml", "contact_phone": "+66 2 659 2888", "contact_email": "ibis.erawan@accor.com", "status": 1, "source_type": 1, "numberReviews": 99}, {"name": "Bliston Suwan Park View", "type": "hotel", "image": "https://dynamic-media-cdn.tripadvisor.com/media/photo-o/21/5c/23/d4/lobby.jpg?w=1000&s=1", "address": "9 Soi Tonson,Ploenchit Road,Lumpini,Pathumwan, Bangkok 10330 Thailand", "lat": 13.741889, "lng": 100.545654, "ref_id": 619164, "rating": 4.5, "num_reviews": 0, "website": "http://www.blistonresidence.com", "contact_phone": "+66 2 658 7979", "contact_email": "enquiry@blistonresidence.com", "status": 1, "source_type": 1, "numberReviews": 764}, {"name": "Pinnacle Lumpinee Park Hotel", "type": "hotel", "image": "https://dynamic-media-cdn.tripadvisor.com/media/photo-o/26/cf/fb/98/pinnacle-lumpinee-park.jpg?w=1000&s=1", "address": "17 Soi Ngam Duphli, Rama 4 Road Sathorn, Bangkok 10120 Thailand", "lat": 13.723688, "lng": 100.54832, "ref_id": 308962, "rating": 3.5, "num_reviews": 0, "website": "https://www.facebook.com/pinnaclelumpineeparkhotel", "contact_phone": "+66 65 518 4299", "contact_email": "phlreservation@gmail.com", "status": 1, "source_type": 1, "numberReviews": 1665}, {"name": "The Journey Hotel", "type": "hotel", "image": "https://dynamic-media-cdn.tripadvisor.com/media/photo-o/15/10/08/0f/the-journey-hotel.jpg?w=1000&s=1", "address": "345/65 Soi Ngamwongwarn 47, Yaek 44 Khwaeng Thung Song Hong, Khet Lak Si, Bangkok 10210 Thailand", "lat": 13.870599, "lng": 100.55872, "ref_id": 10901116, "rating": 4.5, "num_reviews": 0, "website": "http://www.thejourneyhotel.com", "contact_phone": "+66 2 954 9226", "contact_email": "reservations@thejourneyhotel.com", "status": 1, "source_type": 1, "numberReviews": 84}, {"name": "MUU Bangkok Hotel", "type": "hotel", "image": "https://dynamic-media-cdn.tripadvisor.com/media/photo-o/29/a6/78/ab/muu-bangkok-hotel.jpg?w=1000&s=1", "address": "88/333 Thong Lo Rd Khlong Tan Nuea, Watthana, Bangkok 10110 Thailand", "lat": 13.730718, "lng": 100.58178, "ref_id": 1585947, "rating": 4.5, "num_reviews": 0, "website": "https://muuhotels.com/bangkok/", "contact_phone": "+66 2 090 9000", "contact_email": "reservation.bangkok@muuhotels.com", "status": 1, "source_type": 1, "numberReviews": 927}, {"name": "Arize Hotel Sukhumvit", "type": "hotel", "image": "https://dynamic-media-cdn.tripadvisor.com/media/photo-o/09/b8/f4/bc/two-bedroom-suite--v9710867.jpg?w=1000&s=1", "address": "8/8, Soi Sukhumvit 26 Khlong Tan, Khlong Toei, Bangkok 10110 Thailand", "lat": 13.728712, "lng": 100.57061, "ref_id": 3469453, "rating": 3.5, "num_reviews": 0, "website": "http://arizehotel.com/", "contact_phone": "+66 2 204 4888", "contact_email": "ecommerce@arizesukhumvit.com", "status": 1, "source_type": 1, "numberReviews": 378}, {"name": "Ibis Bangkok Sathorn", "type": "hotel", "image": "https://dynamic-media-cdn.tripadvisor.com/media/photo-o/2b/4c/ed/9c/exterior-view.jpg?w=1000&s=1", "address": "29/9 Soi Ngam Duphli, Rama IV Rd. Sathon, Bangkok 10120 Thailand", "lat": 13.721614, "lng": 100.54666, "ref_id": 1140504, "rating": 4, "num_reviews": 0, "website": "http://www.ibishotel.com/gb/hotel-6537-ibis-bangkok-sathorn/index.shtml", "contact_phone": "+66 2 659 2888", "contact_email": "ibis.Erawan@accor.com", "status": 1, "source_type": 1, "numberReviews": 1604}, {"name": "Bangkok 68", "type": "hotel", "image": "https://dynamic-media-cdn.tripadvisor.com/media/photo-o/0d/f0/e7/39/photo0jpg.jpg?w=1000&s=1", "address": "68 Soi Inthamara 45 Dindaeng, Bangkok 10400 Thailand", "lat": 13.786252, "lng": 100.56949, "ref_id": 6214941, "rating": 3.5, "num_reviews": 0, "website": "http://www.bangkok68.com/", "contact_phone": "+6622762650-6", "contact_email": null, "status": 1, "source_type": 1, "numberReviews": 392}, {"name": "PARKROYAL Suites Bangkok", "type": "hotel", "image": "https://dynamic-media-cdn.tripadvisor.com/media/photo-o/27/e5/b6/35/parkroyal-suites-bangkok.jpg?w=1000&s=1", "address": "22 Sukhumvit Soi 6 Klongtoey, Bangkok 10110 Thailand", "lat": 13.739378, "lng": 100.55372, "ref_id": 1627122, "rating": 4, "num_reviews": 0, "website": "https://www.panpacific.com/en/serviced-suites/pr-ss-bangkok.html", "contact_phone": "+66 63 385 1695", "contact_email": "enquiry.prsbkk@parkroyalhotels.com", "status": 1, "source_type": 1, "numberReviews": 1169}, {"name": "Holiday Inn Express Bangkok Siam, an IHG Hotel", "type": "hotel", "image": "https://dynamic-media-cdn.tripadvisor.com/media/photo-o/2c/00/5e/f3/holiday-inn-express-bangkok.jpg?w=1000&s=1", "address": "889 Rama 1 Road Wang Mai, Pathumwan, Bangkok 10330 Thailand", "lat": 13.747172, "lng": 100.52778, "ref_id": 2307347, "rating": 4, "num_reviews": 0, "website": "https://www.ihg.com/holidayinnexpress/hotels/us/en/bangkok/bkkrb/hoteldetail?cm_mmc=YextLocal-_-EX-_-TH-_-BKKRB", "contact_phone": "+66 2 217 7555", "contact_email": "info@hiexsiam.com", "status": 1, "source_type": 1, "numberReviews": 2174}, {"name": "Bangkok Marriott Hotel Sukhumvit", "type": "hotel", "image": "https://dynamic-media-cdn.tripadvisor.com/media/photo-o/19/f7/1d/3b/relax-in-style-at-octave.jpg?w=1000&s=1", "address": "2 Sukhumvit Soi 57 Khlong Tan Nuea, Bangkok 10110 Thailand", "lat": 13.723425, "lng": 100.580444, "ref_id": 3825474, "rating": 4.5, "num_reviews": 0, "website": "https://www.marriott.com/en-us/hotels/bkkms-bangkok-marriott-hotel-sukhumvit/overview/", "contact_phone": "+66 2 797 0000", "contact_email": null, "status": 1, "source_type": 1, "numberReviews": 4756}, {"name": "Montien Riverside Hotel", "type": "hotel", "image": "https://dynamic-media-cdn.tripadvisor.com/media/photo-o/24/cc/1a/d1/montien-riverside-hotel.jpg?w=1000&s=1", "address": "372 Rama III Road Bang Khlo, Bangkok 10120 Thailand", "lat": 13.688132, "lng": 100.50782, "ref_id": 301386, "rating": 4, "num_reviews": 0, "website": "http://www.montienhotel-riverside.com/", "contact_phone": "+66 2 292 2999", "contact_email": "riverside@montienhotel-riverside.com", "status": 1, "source_type": 1, "numberReviews": 868}, {"name": "Best Western Chatuchak", "type": "hotel", "image": "https://dynamic-media-cdn.tripadvisor.com/media/photo-o/29/5c/6e/e6/caption.jpg?w=1000&s=1", "address": "No.18 KamphaengPhet Road Chatuchak, Bangkok 10900 Thailand", "lat": 13.738059, "lng": 100.44573, "ref_id": 25336187, "rating": 5, "num_reviews": 0, "website": "www.bestwesternchatuchak.com", "contact_phone": "+66 2 666 4695", "contact_email": "info@bestwesternchatuchak.com", "status": 1, "source_type": 1, "numberReviews": 48}, {"name": "I Residence Hotel Silom", "type": "hotel", "image": "https://dynamic-media-cdn.tripadvisor.com/media/photo-o/1c/be/4b/03/caption.jpg?w=1000&s=1", "address": "93 Narathivas Rachanakarin Road, Bangkok 10500 Thailand", "lat": 13.723561, "lng": 100.5298, "ref_id": 643721, "rating": 4, "num_reviews": 0, "website": "http://www.iresidencesilom.com", "contact_phone": "+66 (0)2 267-9700-3", "contact_email": "reservation@iresidencesilom.com", "status": 1, "source_type": 1, "numberReviews": 1965}, {"name": "Bossotel Bangkok", "type": "hotel", "image": "https://dynamic-media-cdn.tripadvisor.com/media/photo-o/17/a0/96/6f/caption.jpg?w=1000&s=1", "address": "55/8, Soi Charoen Krung 42/1 Bang Rak, Bangkok 10500 Thailand", "lat": 13.721479, "lng": 100.51585, "ref_id": 456300, "rating": 4, "num_reviews": 0, "website": "http://www.bossotelinn.com/home.html", "contact_phone": "+66 2 630 6120", "contact_email": "bossbk@bossotelinn.com", "status": 1, "source_type": 1, "numberReviews": 902}, {"name": "Spenza Hotel", "type": "hotel", "image": "https://dynamic-media-cdn.tripadvisor.com/media/photo-o/14/c9/92/30/spenza-hotel.jpg?w=1000&s=1", "address": "88 Soi Phetchaburi 15, Phetchaburi Road, Ratchathewi, Bangkok 10400 Thailand", "lat": 13.75419, "lng": 100.53786, "ref_id": 11661324, "rating": 4, "num_reviews": 0, "website": "http://www.spenzahotelpratunam.com", "contact_phone": "+66 2 251 5251", "contact_email": "info@spenzahotel.com", "status": 1, "source_type": 1, "numberReviews": 141}, {"name": "Witchuwan Apartel", "type": "hotel", "image": "https://dynamic-media-cdn.tripadvisor.com/media/photo-o/1a/ae/8d/2d/witchuwan-apartel.jpg?w=1000&s=1", "address": "589 Soi 3 Ratchadapisek Dindaeng, Ratchadaphisek, Bangkok 10400 Thailand", "lat": 13.762142, "lng": 100.56014, "ref_id": 1746811, "rating": 3.5, "num_reviews": 0, "website": "http://www.witchuwan.com/", "contact_phone": "+66 2 641 7777", "contact_email": "Witchuwan589@hotmail.com", "status": 1, "source_type": 1, "numberReviews": 37}, {"name": "Alpine Suites Pratunam Hotel", "type": "hotel", "image": "https://dynamic-media-cdn.tripadvisor.com/media/photo-o/04/0d/83/e1/grand-alpine.jpg?w=1000&s=1", "address": "88/15-17 Phetchaburi Rd. Phayathai Ratchathewi, Bangkok 10400 Thailand", "lat": 13.75482, "lng": 100.53983, "ref_id": 2329122, "rating": 3, "num_reviews": 0, "website": null, "contact_phone": null, "contact_email": null, "status": 1, "source_type": 1, "numberReviews": 294}, {"name": "Nantra Sukhumvit 39", "type": "hotel", "image": "https://dynamic-media-cdn.tripadvisor.com/media/photo-o/0b/4f/84/21/lobby--v10999078.jpg?w=1000&s=1", "address": "1/46 - 49 Sukhumvit 39 , North Klongton, Wattana, Bangkok 10110 Thailand", "lat": 13.731187, "lng": 100.57034, "ref_id": 3158201, "rating": 3, "num_reviews": 0, "website": "http://www.nantrahotelsresorts.com/NantraSukhumvit39/", "contact_phone": "", "contact_email": "", "status": 1, "source_type": 1, "numberReviews": 289}, {"name": "Convenient Resort", "type": "hotel", "image": "https://dynamic-media-cdn.tripadvisor.com/media/photo-s/01/34/93/7e/caption.jpg?w=1000&s=1", "address": "9-11 38 Soi Lat Krabang, Bangkok 10520 Thailand", "lat": 13.719074, "lng": 100.7565, "ref_id": 658683, "rating": 3, "num_reviews": 0, "website": "http://www.queensgardenresort.net/", "contact_phone": "+66 2 327 4118", "contact_email": "", "status": 1, "source_type": 1, "numberReviews": 708}, {"name": "Florida Hotel", "type": "hotel", "image": "https://dynamic-media-cdn.tripadvisor.com/media/photo-o/03/f8/be/e6/florida-hotel.jpg?w=1000&s=1", "address": "43 Phrayathai Road Rajathevi, Bangkok 10400 Thailand", "lat": 13.75757, "lng": 100.534096, "ref_id": 662851, "rating": 3, "num_reviews": 0, "website": null, "contact_phone": "+66 2 274 0990", "contact_email": "", "status": 1, "source_type": 1, "numberReviews": 177}, {"name": "Sweethome Guest House", "type": "hotel", "image": "https://dynamic-media-cdn.tripadvisor.com/media/partner/bookingcom/photo-o/1c/19/47/95/bedroom.jpg?w=1000&s=1", "address": "60/1, Ratchaprarop Road, Bangkok 10400 Thailand", "lat": 13.753723, "lng": 100.54259, "ref_id": 20101698, "rating": 1, "num_reviews": 0, "website": "http://www.oyorooms.com/94405?utm_source=tripadvisor&utm_medium=listing&utm_campaign=TH_BGK126", "contact_phone": null, "contact_email": "talistings@oyorooms.com", "status": 1, "source_type": 1, "numberReviews": 1}, {"name": "Avion Apart-hotel", "type": "hotel", "image": "https://dynamic-media-cdn.tripadvisor.com/media/photo-s/02/ea/8d/13/avion-apart-hotel.jpg?w=1000&s=1", "address": "1646/99, 1646/1-9 Ladkrabang Rd. Ladkrabang, Bangkok 10520 Thailand", "lat": 13.72054, "lng": 100.77421, "ref_id": 1957724, "rating": 2.5, "num_reviews": 0, "website": "http://www.avion-village.com", "contact_phone": "+66 2 327 3737", "contact_email": "rsvn@avion-village.com", "status": 1, "source_type": 1, "numberReviews": 57}, {"name": "Gusto Pratunam Hotel", "type": "hotel", "image": "https://dynamic-media-cdn.tripadvisor.com/media/photo-o/03/a7/2b/80/pratunam-pavilion.jpg?w=1000&s=1", "address": "89 Soi Sangkarn, Petchburi Road, Bangkok 10400 Thailand", "lat": 13.754688, "lng": 100.539665, "ref_id": 2336365, "rating": 2.5, "num_reviews": 0, "website": "https://www.gustopratunam.com/contact/", "contact_phone": "+66 2 656 4000", "contact_email": "gustopratunam@gmail.com", "status": 1, "source_type": 1, "numberReviews": 183}, {"name": "Livotel Express Hotel Ramkhamhaeng 50 Bangkok", "type": "hotel", "image": "https://dynamic-media-cdn.tripadvisor.com/media/partner/bookingcom/photo-o/1c/13/0d/78/lobbyorreception.jpg?w=1000&s=1", "address": "38 Soi Ramkhamhaeng 50, Ramkhamhaeng Rd., Bangkok 10240 Thailand", "lat": 13.763687, "lng": 100.6499, "ref_id": 19625417, "rating": 2, "num_reviews": 0, "website": "https://www.livotelhotel.com/", "contact_phone": "+66 2 732 2222", "contact_email": null, "status": 1, "source_type": 1, "numberReviews": 2}, {"name": "Orchid House", "type": "hotel", "image": "https://dynamic-media-cdn.tripadvisor.com/media/photo-o/06/c1/4d/11/orchid-house.jpg?w=1000&s=1", "address": "77 Sukhumvit soi 4, Klongtoey, Bangkok 10110 Thailand", "lat": 13.72872, "lng": 100.57302, "ref_id": 5888074, "rating": 2, "num_reviews": 0, "website": null, "contact_phone": null, "contact_email": null, "status": 1, "source_type": 1, "numberReviews": 3}, {"name": "UTD Apartments Sukhumvit Hotel & Residence", "type": "hotel", "image": "https://dynamic-media-cdn.tripadvisor.com/media/photo-o/05/b9/33/ec/utd-apartments-sukhumvit.jpg?w=1000&s=1", "address": "426/21 on-nut Soi 8, On-nut road, Suan laung, Bangkok 10250 Thailand", "lat": 13.710309, "lng": 100.60739, "ref_id": 6373368, "rating": 2, "num_reviews": 0, "website": "http://utdliving.com/", "contact_phone": "+66 91 041 7913", "contact_email": "mark@utdliving.com", "status": 1, "source_type": 1, "numberReviews": 10}, {"name": "OYO 1042 Boon's Residence Sathorn", "type": "hotel", "image": null, "address": "11 Soi Naradhiwat Rajanagarindra 10, Bangkok 10120 Thailand", "lat": 13.714554, "lng": 100.5325, "ref_id": 21287490, "rating": 1, "num_reviews": 0, "website": null, "contact_phone": null, "contact_email": null, "status": 1, "source_type": 1, "numberReviews": 1}, {"name": "Bunkbed Hostel", "type": "hotel", "image": "https://dynamic-media-cdn.tripadvisor.com/media/photo-o/28/bb/b8/f0/caption.jpg?w=1000&s=1", "address": "11, 122 Soi Ratchaprarop 8, Makkasan, Ratchathewi, Bangkok 10400 Thailand", "lat": 13.745595, "lng": 100.53466, "ref_id": 25300397, "rating": 1, "num_reviews": 0, "website": null, "contact_phone": "+66 93 545 4095", "contact_email": null, "status": 1, "source_type": 1, "numberReviews": 1}, {"name": "OYO 519 B Min Airport", "type": "hotel", "image": "https://dynamic-media-cdn.tripadvisor.com/media/photo-o/28/38/d4/af/caption.jpg?w=1000&s=1", "address": "3 Soi Ramkamhang 187/1, Junction 3, Bangkok 10510 Thailand", "lat": 13.799938, "lng": 100.71253, "ref_id": 20403433, "rating": 1, "num_reviews": 0, "website": "https://www.oyorooms.com/th/92723-oyo-hotels-oyo-519-b-min-airport-bangkok/", "contact_phone": null, "contact_email": null, "status": 1, "source_type": 1, "numberReviews": 1}, {"name": "Royal Pacific Hotel", "type": "hotel", "image": "https://dynamic-media-cdn.tripadvisor.com/media/photo-s/02/ea/1b/2d/hotel-royal-pacific.jpg?w=1000&s=1", "address": "335 Rama9 Road Bangkapi Huaykwang, Bangkok 10310 Thailand", "lat": 13.753552, "lng": 100.585365, "ref_id": 1160103, "rating": 1.5, "num_reviews": 0, "website": "http://www.royalpacifichotel.co.th", "contact_phone": "+66 2 319 9621", "contact_email": "jod.royalpacific@Hotmail.com", "status": 1, "source_type": 1, "numberReviews": 7}, {"name": "Ratchada 17 Place", "type": "hotel", "image": "https://dynamic-media-cdn.tripadvisor.com/media/photo-o/0c/f6/5c/80/ta-img-20160915-141005.jpg?w=1000&s=1", "address": "368, Soi Inthamara 47 Dindaeng, Bangkok 10400 Thailand", "lat": 13.784463, "lng": 100.57152, "ref_id": 3181329, "rating": 2.5, "num_reviews": 0, "website": "http://ratchada17.com/", "contact_phone": "+66 2 277 2645", "contact_email": "ratchada17@hotmail.com", "status": 1, "source_type": 1, "numberReviews": 60}, {"name": "Grand BS Airport Hotel Suvarnabhumi", "type": "hotel", "image": "https://dynamic-media-cdn.tripadvisor.com/media/photo-o/2a/d0/14/ba/caption.jpg?w=1000&s=1", "address": "836/11 Soi Ladkrabang 30/4, Bangkok 10520 Thailand", "lat": 13.767617, "lng": 100.72324, "ref_id": 26611305, "rating": 2.5, "num_reviews": 0, "website": "https://grandbsairport.business.site", "contact_phone": "+66 81 710 8778", "contact_email": "rsvn.bsgroup@gmail.com", "status": 1, "source_type": 1, "numberReviews": 27}, {"name": "Anandpura Riverside Hotel", "type": "hotel", "image": "https://dynamic-media-cdn.tripadvisor.com/media/partner/bookingcom/photo-o/2a/41/ec/28/caption.jpg?w=1000&s=1", "address": "104 Soi Charoen Nakhon 49 Charoen Nakhon Road., Banglumphu Klongsan, Bangkok 10600 Thailand", "lat": 13.708382, "lng": 100.50087, "ref_id": 23248712, "rating": 1, "num_reviews": 0, "website": null, "contact_phone": null, "contact_email": null, "status": 1, "source_type": 1, "numberReviews": 1}, {"name": "Casa Asara", "type": "hotel", "image": null, "address": "168 Sukhumvit 77 On-Nut 2 Prakanong Nua, Bangkok 10260 Thailand", "lat": 13.69323, "lng": 100.60768, "ref_id": 16731433, "rating": 1, "num_reviews": 0, "website": "http://www.casaasara.com/", "contact_phone": "+66 81 151 1119", "contact_email": "casaasara@gmail.com", "status": 1, "source_type": 1, "numberReviews": 1}, {"name": "Buri Hostel", "type": "hotel", "image": null, "address": "3113 Sukhumvit Road, Bangkok 10260 Thailand", "lat": 13.682838, "lng": 100.61075, "ref_id": 23915092, "rating": 1, "num_reviews": 0, "website": null, "contact_phone": "+66 99 181 5000", "contact_email": null, "status": 1, "source_type": 1, "numberReviews": 1}, {"name": "OYO 926 Sydney Resort", "type": "hotel", "image": "https://dynamic-media-cdn.tripadvisor.com/media/partner/bookingcom/photo-o/29/30/4f/e6/caption.jpg?w=1000&s=1", "address": "Near Suphan Buri Ring Road, Bangkok 72000 Thailand", "lat": 14.5592, "lng": 100.16472, "ref_id": 21287017, "rating": 1, "num_reviews": 0, "website": "https://www.oyorooms.com/th/101836-oyo-hotels-oyo-926-sydney-resort-suphanburi/", "contact_phone": "+66 87 664 7888", "contact_email": null, "status": 1, "source_type": 1, "numberReviews": 1}, {"name": "Penyos Residence", "type": "hotel", "image": "https://dynamic-media-cdn.tripadvisor.com/media/photo-o/2b/ea/ca/c4/caption.jpg?w=1000&s=1", "address": "290 Soi Petchkasem 67 Petchkasem Rd, Bangkok 10160 Thailand", "lat": 13.705548, "lng": 100.37907, "ref_id": 15135131, "rating": 2.5, "num_reviews": 0, "website": "https://www.facebook.com/penyosresidence", "contact_phone": "+66 2 809 2913", "contact_email": "penyosresidence@gmail.com", "status": 1, "source_type": 1, "numberReviews": 3}, {"name": "ABC@48 Hotel & Service Apartment", "type": "hotel", "image": "https://dynamic-media-cdn.tripadvisor.com/media/partner/bookingcom/photo-o/29/e9/3e/4d/caption.jpg?w=1000&s=1", "address": "Soi Lat Phrao 48, Bangkok 10310 Thailand", "lat": 13.79316, "lng": 100.58441, "ref_id": 26106121, "rating": -1, "num_reviews": 0, "website": null, "contact_phone": null, "contact_email": null, "status": 1, "source_type": 1, "numberReviews": 0}, {"name": "Buri hostel", "type": "hotel", "image": "https://dynamic-media-cdn.tripadvisor.com/media/photo-o/28/ed/52/ba/caption.jpg?w=1000&s=1", "address": "3113-3115 Burihostel, Bangkok 10260 Thailand", "lat": 13.674171, "lng": 100.6084, "ref_id": 23785097, "rating": 1, "num_reviews": 0, "website": null, "contact_phone": null, "contact_email": null, "status": 1, "source_type": 1, "numberReviews": 1}, {"name": "Kawin Place Guesthouse", "type": "hotel", "image": "https://dynamic-media-cdn.tripadvisor.com/media/photo-s/01/24/27/b3/kohsan-road.jpg?w=1000&s=1", "address": "86 Khao San Road Taladyod, Pranakorn, Bangkok 10200 Thailand", "lat": 13.758723, "lng": 100.49688, "ref_id": 600711, "rating": 2.5, "num_reviews": 0, "website": "", "contact_phone": "+66 2 281 7512", "contact_email": "kawinplace@yahoo.com", "status": 1, "source_type": 1, "numberReviews": 89}, {"name": "Avana Hotel and Convention Centre", "type": "hotel", "image": "https://dynamic-media-cdn.tripadvisor.com/media/photo-o/26/4f/ad/f4/avana-grand-hotel-and.jpg?w=1000&s=1", "address": "900 Debaratana Rd., Bangkok 10260 Thailand", "lat": 13.6694, "lng": 100.6149, "ref_id": 17341434, "rating": 2.5, "num_reviews": 0, "website": "https://bkk.avanahotel.com/", "contact_phone": "+66 2 763 2900", "contact_email": "avana2004@hotmail.com", "status": 1, "source_type": 1, "numberReviews": 14}, {"name": "New Trocadero Hotel Bangkok", "type": "hotel", "image": "https://dynamic-media-cdn.tripadvisor.com/media/photo-o/09/92/4d/00/caption.jpg?w=1000&s=1", "address": "343 Surawongse Road, Bangkok 10500 Thailand", "lat": 13.7254, "lng": 100.51712, "ref_id": 1719727, "rating": 2, "num_reviews": 0, "website": "", "contact_phone": "662 234 8920 9", "contact_email": "newtrochotel@gmail.com", "status": 1, "source_type": 1, "numberReviews": 9}, {"name": "Blooms Residence", "type": "hotel", "image": "https://dynamic-media-cdn.tripadvisor.com/media/photo-o/05/fd/80/e6/this-is-a-coffee-table.jpg?w=1000&s=1", "address": "203/1 Soi Sribumphen, Bangkok Thailand", "lat": 13.718314, "lng": 100.55238, "ref_id": 1639484, "rating": 2.5, "num_reviews": 0, "website": null, "contact_phone": "+66 2 711 9207", "contact_email": "", "status": 1, "source_type": 1, "numberReviews": 34}, {"name": "Asia Residence 14 Bangkapi", "type": "hotel", "image": "https://dynamic-media-cdn.tripadvisor.com/media/photo-s/02/de/0e/84/asia-residence-14-bangkapi.jpg?w=1000&s=1", "address": "444/6 Happyland 2, Klongjan, Bangkapi, Bangkok 10240 Thailand", "lat": 13.77522, "lng": 100.64251, "ref_id": 3184309, "rating": 2.5, "num_reviews": 0, "website": "", "contact_phone": "+66 2 734 3700", "contact_email": "", "status": 1, "source_type": 1, "numberReviews": 10}, {"name": "Siam Inn", "type": "hotel", "image": "https://dynamic-media-cdn.tripadvisor.com/media/daodao/photo-o/10/f6/9c/17/getlstd-property-photo.jpg?w=1000&s=1", "address": "902, Soi on nut 46 Bangna, Bangkok 10250 Thailand", "lat": 13.701821, "lng": 100.63776, "ref_id": 12654149, "rating": 1, "num_reviews": 0, "website": null, "contact_phone": null, "contact_email": null, "status": 1, "source_type": 1, "numberReviews": 2}, {"name": "Sun City Hotel", "type": "hotel", "image": "https://dynamic-media-cdn.tripadvisor.com/media/photo-s/01/25/f9/38/bangkok.jpg?w=1000&s=1", "address": "41 Sukhumvit soi-11 Klongton-Nua, Wantana, Bangkok 10110 Thailand", "lat": 13.7457, "lng": 100.556, "ref_id": 1400995, "rating": 2.5, "num_reviews": 0, "website": "http://suncitybangkok.com/", "contact_phone": "(662) 251-4284-8", "contact_email": "info@suncitybangkok.com", "status": 1, "source_type": 1, "numberReviews": 15}, {"name": "Hotel Clover Asoke", "type": "hotel", "image": "https://dynamic-media-cdn.tripadvisor.com/media/photo-o/27/03/ae/37/hotel-clover-asoke.jpg?w=1000&s=1", "address": "9/1 Sukhumvit 16 Klongtoey, Bangkok 10110 Thailand", "lat": 13.734478, "lng": 100.5611, "ref_id": 8950960, "rating": 5, "num_reviews": 0, "website": "https://asoke.hotelclover.com/", "contact_phone": "+66 2 258 8555", "contact_email": "rsvn.rs@hotelcloverbangkok.com", "status": 1, "source_type": 1, "numberReviews": 2066}, {"name": "Akara Hotel", "type": "hotel", "image": "https://dynamic-media-cdn.tripadvisor.com/media/photo-o/12/d7/ca/34/rooftop-pool.jpg?w=1000&s=1", "address": "372 Sri Ayutthaya Road Thanon Phyathai Rajthevi, Bangkok 10400 Thailand", "lat": 13.75611, "lng": 100.54131, "ref_id": 13134217, "rating": 5, "num_reviews": 0, "website": "http://www.akarahotel.com", "contact_phone": "+66 2 248 5511", "contact_email": "fom@akarahotel.com", "status": 1, "source_type": 1, "numberReviews": 3405}, {"name": "Banyan Tree Bangkok", "type": "hotel", "image": "https://dynamic-media-cdn.tripadvisor.com/media/photo-o/2a/8e/8f/54/vertigo-at-61st-floor.jpg?w=1000&s=1", "address": "21/100 South Sathon Road. Thai Wah Tower II, Bangkok 10120 Thailand", "lat": 13.723646, "lng": 100.53977, "ref_id": 302959, "rating": 4.5, "num_reviews": 0, "website": "https://www.banyantree.com/thailand/bangkok", "contact_phone": "+66 2 679 1200", "contact_email": "bangkok@banyantree.com", "status": 1, "source_type": 1, "numberReviews": 13496}, {"name": "Carlton Hotel Bangkok Sukhumvit", "type": "hotel", "image": "https://dynamic-media-cdn.tripadvisor.com/media/photo-o/2a/87/54/e2/exterior.jpg?w=1000&s=1", "address": "491 Sukhumvit Road Khwaeng Klongtoey Nua, Khet Wattana, Bangkok 10110 Thailand", "lat": 13.734612, "lng": 100.56454, "ref_id": 20146210, "rating": 5, "num_reviews": 0, "website": "https://www.carltonhotel.co.th/", "contact_phone": "+66 2 090 7888", "contact_email": "enquiry@carltonhotel.co.th", "status": 1, "source_type": 1, "numberReviews": 1536}, {"name": "The Quarter Chaophraya by UHG", "type": "hotel", "image": "https://dynamic-media-cdn.tripadvisor.com/media/photo-o/29/09/a9/77/stylish-stay-our-accommodation.jpg?w=1000&s=1", "address": "1190 Soi Somdet Chao Phraya 17, Somdet Chao Phraya Road Klong San Subdistrict, Bangkok 10600 Thailand", "lat": 13.731532, "lng": 100.50905, "ref_id": 24969581, "rating": 5, "num_reviews": 0, "website": "https://www.quarterchaophraya.com/", "contact_phone": "+66 92 373 7499", "contact_email": "info@quarterchaophraya.com", "status": 1, "source_type": 1, "numberReviews": 690}, {"name": "La Petite Salil Sukhumvit Thonglor 1", "type": "hotel", "image": "https://dynamic-media-cdn.tripadvisor.com/media/photo-o/29/32/96/5b/la-petite-salil-sukhumvit.jpg?w=1000&s=1", "address": "44/14-17, Sukhumvit 53 Paidee Madee, Sukhumvit Road Klongton Nue, Bangkok 10110 Thailand", "lat": 13.727528, "lng": 100.57881, "ref_id": 1588108, "rating": 4.5, "num_reviews": 0, "website": "https://www.lapetitesalil.com/sukhumvitthonglor1/", "contact_phone": "+66 2 662 5480", "contact_email": "infosl2@lapetitesalil.com", "status": 1, "source_type": 1, "numberReviews": 2817}, {"name": "Chatrium Residence Sathon Bangkok", "type": "hotel", "image": "https://dynamic-media-cdn.tripadvisor.com/media/photo-o/21/71/b2/25/sha-plus-certificate.jpg?w=1000&s=1", "address": "291, Soi Naradhiwas Rajanagarindra 24, New Sathorn Road Chong Nonsi, Yan Nawa, Bangkok 10120 Thailand", "lat": 13.702046, "lng": 100.53755, "ref_id": 301613, "rating": 4.5, "num_reviews": 0, "website": "https://www.chatrium.com/sathonbangkok", "contact_phone": "+66 2 672 0200", "contact_email": "reservations.crst@chatrium.com", "status": 1, "source_type": 1, "numberReviews": 2932}, {"name": "Eastin Grand Hotel Sathorn", "type": "hotel", "image": "https://dynamic-media-cdn.tripadvisor.com/media/photo-o/2b/e4/5c/0e/exterior.jpg?w=1000&s=1", "address": "33/1 South Sathorn Road Yannawa, Sathon, Bangkok 10120 Thailand", "lat": 13.719151, "lng": 100.52193, "ref_id": 2318761, "rating": 4.5, "num_reviews": 0, "website": "http://www.eastingrandsathorn.com/", "contact_phone": "+66 2 210 8100", "contact_email": "rsvnm@eastingrandsathorn.com", "status": 1, "source_type": 1, "numberReviews": 9549}, {"name": "Anantara Riverside Bangkok Resort", "type": "hotel", "image": "https://dynamic-media-cdn.tripadvisor.com/media/photo-o/08/e5/6a/00/anantara-bangkok-riverside.jpg?w=1000&s=1", "address": "257/1-3 Charoennakorn Rd. Samrae, Bangkok 10600 Thailand", "lat": 13.704306, "lng": 100.4923, "ref_id": 299778, "rating": 4.5, "num_reviews": 0, "website": "http://bangkok-riverside.anantara.com/", "contact_phone": "+66 2 476 0022", "contact_email": "bangkokriverside@anantara.com", "status": 1, "source_type": 1, "numberReviews": 10360}, {"name": "Chatrium Hotel Riverside Bangkok", "type": "hotel", "image": "https://dynamic-media-cdn.tripadvisor.com/media/photo-o/2b/e7/71/67/chrb-exterior.jpg?w=1000&s=1", "address": "28 Charoenkrung Soi 70 Wat Phraya Krai, Bang Kho Laem, Bangkok 10120 Thailand", "lat": 13.71062, "lng": 100.51017, "ref_id": 1315544, "rating": 4.5, "num_reviews": 0, "website": "https://www.chatrium.com/chatriumriversidebangkok", "contact_phone": "+66 2 307 8888", "contact_email": "reservations.chrb@chatrium.com", "status": 1, "source_type": 1, "numberReviews": 12133}, {"name": "The Okura Prestige Bangkok", "type": "hotel", "image": "https://dynamic-media-cdn.tripadvisor.com/media/photo-o/2b/f4/3e/59/hotel-lobby.jpg?w=1000&s=1", "address": "Park Ventures Ecoplex, 57 Wireless Road Lumpini, Pathumwan, Bangkok 10330 Thailand", "lat": 13.742734, "lng": 100.547844, "ref_id": 2624290, "rating": 5, "num_reviews": 0, "website": "http://www.okurabangkok.com", "contact_phone": "+66 2 687 9000", "contact_email": "info@okurabangkok.com", "status": 1, "source_type": 1, "numberReviews": 4828}, {"name": "Siam@Siam Design Hotel Bangkok", "type": "hotel", "image": "https://dynamic-media-cdn.tripadvisor.com/media/photo-o/21/7f/03/55/siam-siam-design-hotel.jpg?w=1000&s=1", "address": "865 Rama 1 Road Wang Mai, Pathum Wan, Bangkok 10330 Thailand", "lat": 13.747291, "lng": 100.526955, "ref_id": 649258, "rating": 4.5, "num_reviews": 0, "website": "www.siamatsiam.com/bangkok", "contact_phone": "+66 2 217 3000", "contact_email": "dor@siamatsiam.com", "status": 1, "source_type": 1, "numberReviews": 6220}, {"name": "Grande Centre Point Terminal 21", "type": "hotel", "image": "https://dynamic-media-cdn.tripadvisor.com/media/photo-o/06/1a/42/c2/grande-centre-point-hotel.jpg?w=1000&s=1", "address": "2 Sukhumvit Soi 19 , Sukhumvit Rd Khlongtoei Nua, Bangkok 10110 Thailand", "lat": 13.737092, "lng": 100.56041, "ref_id": 2422237, "rating": 4.5, "num_reviews": 0, "website": "http://www.grandecentrepointterminal21.com", "contact_phone": "+66 2 056 9000", "contact_email": "", "status": 1, "source_type": 1, "numberReviews": 2984}, {"name": "Aira Hotel Bangkok", "type": "hotel", "image": "https://dynamic-media-cdn.tripadvisor.com/media/photo-o/24/85/16/64/aira-hotel-bangkok.jpg?w=1000&s=1", "address": "Sukhumvit 11, 14 Sukhumvit Rd., Bangkok 10110 Thailand", "lat": 13.742592, "lng": 100.556625, "ref_id": 23822723, "rating": 5, "num_reviews": 0, "website": "https://www.airahotelbangkok.com/", "contact_phone": "+66 2 078 3999", "contact_email": "reservations@airahotelbangkok.com", "status": 1, "source_type": 1, "numberReviews": 685}, {"name": "Grande Centre Point Hotel Ratchadamri", "type": "hotel", "image": "https://dynamic-media-cdn.tripadvisor.com/media/photo-o/0f/05/32/09/grande-deluxe.jpg?w=1000&s=1", "address": "153 / 2 Soi Mahatlek Luang 1, Ratchadamri Road, Bangkok 10330 Thailand", "lat": 13.741611, "lng": 100.54095, "ref_id": 1023464, "rating": 4.5, "num_reviews": 0, "website": "http://www.grandecentrepointratchadamri.com", "contact_phone": "+66 2 091 9000", "contact_email": "ratchadamri@gcphotels.com", "status": 1, "source_type": 1, "numberReviews": 2047}, {"name": "Grande Centre Point Sukhumvit 55", "type": "hotel", "image": "https://dynamic-media-cdn.tripadvisor.com/media/photo-o/18/e5/75/27/55.jpg?w=1000&s=1", "address": "300 Soi Sukhumvit 55 Klongton Nua Wattana, Bangkok 10110 Thailand", "lat": 13.731668, "lng": 100.58218, "ref_id": 10719657, "rating": 4.5, "num_reviews": 0, "website": "http://www.grandecentrepointsukhumvit55.com", "contact_phone": "+66 2 020 8000", "contact_email": "sukhumvit55@gcphotels.com", "status": 1, "source_type": 1, "numberReviews": 475}, {"name": "Eastin Grand Hotel Phayathai", "type": "hotel", "image": "https://dynamic-media-cdn.tripadvisor.com/media/photo-o/2b/e7/7f/bd/exterior.jpg?w=1000&s=1", "address": "18 Phaya Thai Rd, Bangkok 10400 Thailand", "lat": 13.756485, "lng": 100.5329, "ref_id": 25794929, "rating": 5, "num_reviews": 0, "website": "https://www.eastinhotelsresidences.com/eastingrandhotelphayathai", "contact_phone": "+66 2 483 2899", "contact_email": "rsvn@eastingrandphayathai.com", "status": 1, "source_type": 1, "numberReviews": 145}, {"name": "Centre Point Hotel Silom", "type": "hotel", "image": "https://dynamic-media-cdn.tripadvisor.com/media/photo-o/16/73/8b/30/centre-point-hotel-silom.jpg?w=1000&s=1", "address": "1522/2 Soi Kaysorn 1, Charoenkrung Rd., Bangkok 10500 Thailand", "lat": 13.719808, "lng": 100.515274, "ref_id": 594262, "rating": 4.5, "num_reviews": 0, "website": "https://www.centrepoint.com/silom", "contact_phone": "+66 2 266 0521", "contact_email": "silom@centrepoint.com", "status": 1, "source_type": 1, "numberReviews": 2745}, {"name": "Asia Hotel Bangkok", "type": "hotel", "image": "https://dynamic-media-cdn.tripadvisor.com/media/photo-o/16/62/0a/37/caption.jpg?w=1000&s=1", "address": "296 Phayathai Road, Ratchatewee, Phaya Thai Ratchatewi BTS Skytrain station, Bangkok 10400 Thailand", "lat": 13.751436, "lng": 100.53115, "ref_id": 300624, "rating": 3.5, "num_reviews": 0, "website": "http://www.asiahotel.co.th/asia_bangkok/", "contact_phone": "+66 2 217 0808", "contact_email": "BANGKOK@ASIAHOTEL.CO.TH", "status": 1, "source_type": 1, "numberReviews": 1729}, {"name": "Ambassador Hotel Bangkok", "type": "hotel", "image": "https://dynamic-media-cdn.tripadvisor.com/media/photo-o/07/93/85/db/ambassador-hotel-bangkok.jpg?w=1000&s=1", "address": "171 Soi Sukhumvit 11 Khlong Toei Nuea, Watthana, Bangkok 10110 Thailand", "lat": 13.742091, "lng": 100.55662, "ref_id": 308724, "rating": 4, "num_reviews": 0, "website": "http://www.ambassadorbkk.com", "contact_phone": "+66 2 254 0444", "contact_email": "mcmbkk@amtel.co.th", "status": 1, "source_type": 1, "numberReviews": 2590}, {"name": "Rembrandt Hotel & Suites Bangkok", "type": "hotel", "image": "https://dynamic-media-cdn.tripadvisor.com/media/photo-o/2b/ff/42/b7/vpsrmbbkkimghdr.jpg?w=1000&s=1", "address": "19 Sukhumvit Soi 18, Sukhumvit Road Klong Toey, Bangkok 10110 Thailand", "lat": 13.732402, "lng": 100.56318, "ref_id": 305496, "rating": 4.5, "num_reviews": 0, "website": "http://www.rembrandtbkk.com/", "contact_phone": "+66 2 261 7100", "contact_email": "reservations@rembrandtbkk.com", "status": 1, "source_type": 1, "numberReviews": 6179}, {"name": "Baiyoke Sky Hotel", "type": "hotel", "image": "https://dynamic-media-cdn.tripadvisor.com/media/photo-o/1b/ed/3e/08/baiyoke-sky-hotel.jpg?w=1000&s=1", "address": "222 Soi Ratchaprarop 3, Ratchaprarop Rd. Ratchathewi, Bangkok 10400 Thailand", "lat": 13.754386, "lng": 100.54036, "ref_id": 305228, "rating": 3.5, "num_reviews": 0, "website": "http://baiyokesky.baiyokehotel.com", "contact_phone": "+66 2 656 3000", "contact_email": "baiyokesky@baiyoke.co.th", "status": 1, "source_type": 1, "numberReviews": 6298}, {"name": "Shangri-La Bangkok", "type": "hotel", "image": "https://dynamic-media-cdn.tripadvisor.com/media/photo-o/2a/9c/cc/45/shangri-la-bangkok.jpg?w=1000&s=1", "address": "89 Soi Wat Suan Plu, New Road Bangrak, Bangkok 10500 Thailand", "lat": 13.720464, "lng": 100.51375, "ref_id": 307155, "rating": 4.5, "num_reviews": 0, "website": "http://www.shangri-la.com/bangkok/shangrila", "contact_phone": "+66 2 236 7777", "contact_email": "bangkok@shangri-la.com", "status": 1, "source_type": 1, "numberReviews": 12699}, {"name": "Solaria Nishitetsu Hotel Bangkok", "type": "hotel", "image": "https://dynamic-media-cdn.tripadvisor.com/media/photo-o/2a/62/bf/d7/solaria-nishitetsu-hotel.jpg?w=1000&s=1", "address": "1 Soi Sukhumvit 14, Bangkok 10110 Thailand", "lat": 13.737016, "lng": 100.56006, "ref_id": 19949476, "rating": 4.5, "num_reviews": 0, "website": "https://www.solariabangkok.com", "contact_phone": "+66 2 092 8999", "contact_email": "reservations@solariabangkok.com", "status": 1, "source_type": 1, "numberReviews": 35}, {"name": "Arte Hotel", "type": "hotel", "image": "https://dynamic-media-cdn.tripadvisor.com/media/photo-o/11/3e/73/c6/photo0jpg.jpg?w=1000&s=1", "address": "29 Sukhumvit Soi 19 Wattana, Klongtoey Nua, Bangkok 10110 Thailand", "lat": 13.740214, "lng": 100.560036, "ref_id": 10807456, "rating": 4, "num_reviews": 0, "website": "http://www.artehotelbangkok.com", "contact_phone": "+66 2 108 3378", "contact_email": "info@artehotelbangkok.com", "status": 1, "source_type": 1, "numberReviews": 398}, {"name": "The Berkeley Hotel Pratunam", "type": "hotel", "image": "https://dynamic-media-cdn.tripadvisor.com/media/photo-o/13/08/96/5e/the-berkeley-hotel-pratunam.jpg?w=1000&s=1", "address": "559 Ratchaprarop Road, Makkasan, Ratchathewi Adjacent to The Palladium World Shopping Centre, Bangkok 10400 Thailand", "lat": 13.750167, "lng": 100.54279, "ref_id": 4340225, "rating": 4, "num_reviews": 0, "website": "http://www.berkeleypratunam.com", "contact_phone": "+66 2 309 9999", "contact_email": "info@berkeleyhotel.co.th", "status": 1, "source_type": 1, "numberReviews": 3773}, {"name": "Arnoma Grand Bangkok", "type": "hotel", "image": "https://dynamic-media-cdn.tripadvisor.com/media/photo-o/0d/6f/84/82/arnoma-grand-bangkok.jpg?w=1000&s=1", "address": "99, Ratchadamri Road Lumphini, Bangkok 10330 Thailand", "lat": 13.746622, "lng": 100.54092, "ref_id": 305402, "rating": 3.5, "num_reviews": 0, "website": "http://www.arnoma.com", "contact_phone": "+66 2 655 5555", "contact_email": "arnoma@arnoma.com", "status": 1, "source_type": 1, "numberReviews": 901}, {"name": "Rambuttri Village Inn & Plaza", "type": "hotel", "image": "https://dynamic-media-cdn.tripadvisor.com/media/photo-o/08/51/72/3d/rambuttri-village-inn.jpg?w=1000&s=1", "address": "95 Soi Ram Buttri, Chakkra Phong Road Phra Nakorn, Bangkok 10200 Thailand", "lat": 13.761519, "lng": 100.4962, "ref_id": 633078, "rating": 3.5, "num_reviews": 0, "website": "http://www.khaosan-hotels.com/", "contact_phone": "+66 2 282 9162", "contact_email": "info@khaosan-hotels.com", "status": 1, "source_type": 1, "numberReviews": 4883}, {"name": "Suvarnabhumi Ville Airport Hotel", "type": "hotel", "image": "https://dynamic-media-cdn.tripadvisor.com/media/photo-o/13/0e/a8/45/executive-pool-view.jpg?w=1000&s=1", "address": "9/9 Moo 7 King Kaew Road Soi 64 Lat Krabang, Bangkok 10540 Thailand", "lat": 13.712784, "lng": 100.73979, "ref_id": 10759322, "rating": 3.5, "num_reviews": 0, "website": "http://www.suvarnabhumiville.com/", "contact_phone": "+66 98 267 3888", "contact_email": "front@suvarnabhumiville.com", "status": 1, "source_type": 1, "numberReviews": 310}, {"name": "Wild Orchid Villa Khaosan", "type": "hotel", "image": "https://dynamic-media-cdn.tripadvisor.com/media/photo-o/0d/4d/ad/65/pool--v14286901.jpg?w=1000&s=1", "address": "8 Soi Chana Songkhram, Bangkok 10200 Thailand", "lat": 13.761939, "lng": 100.4943, "ref_id": 5966962, "rating": 3, "num_reviews": 0, "website": "http://www.wildorchidvilla.com/", "contact_phone": "+66 2 629 4378", "contact_email": "wildorchidvilla8@hotmail.com", "status": 1, "source_type": 1, "numberReviews": 686}, {"name": "Sleep Dee Hostel", "type": "hotel", "image": "https://dynamic-media-cdn.tripadvisor.com/media/photo-o/1b/48/02/32/sleep-dee-hostel.jpg?w=1000&s=1", "address": "1112/35-36 Sukhumvit 48 Sukhumvit Road. Phra Khanong, Bangkok 10110 Thailand", "lat": 13.7113, "lng": 100.59543, "ref_id": 10045930, "rating": 3.5, "num_reviews": 0, "website": null, "contact_phone": null, "contact_email": null, "status": 1, "source_type": 1, "numberReviews": 8}, {"name": "Rabbit Room", "type": "hotel", "image": "https://dynamic-media-cdn.tripadvisor.com/media/photo-o/0f/ed/66/af/rabbit-room.jpg?w=1000&s=1", "address": "1895/2 Phahonyothin Road Kwang Lard Yao, Khet Jatujuk, Bangkok 10900 Thailand", "lat": 13.80472, "lng": 100.55485, "ref_id": 12380034, "rating": 4.5, "num_reviews": 0, "website": null, "contact_phone": null, "contact_email": null, "status": 1, "source_type": 1, "numberReviews": 2}, {"name": "The Lek Aree", "type": "hotel", "image": "https://dynamic-media-cdn.tripadvisor.com/media/photo-o/11/eb/7c/1c/room-three.jpg?w=1000&s=1", "address": "10/21 Paholyothin Soi 5 Samsen Nai, Phaya Thai, Bangkok 10400 Thailand", "lat": 13.79485, "lng": 100.54401, "ref_id": 12189866, "rating": 4, "num_reviews": 0, "website": null, "contact_phone": null, "contact_email": null, "status": 1, "source_type": 1, "numberReviews": 3}, {"name": "Thaya Hotel Bangkok", "type": "hotel", "image": "https://dynamic-media-cdn.tripadvisor.com/media/photo-o/26/7a/34/d5/caption.jpg?w=1000&s=1", "address": "888 Phatthanakan 44-42, Bangkok 10250 Thailand", "lat": 13.73632, "lng": 100.629486, "ref_id": 24944521, "rating": 3.5, "num_reviews": 0, "website": "https://thayahotelbangkok.com/", "contact_phone": "+66 2 321 0639", "contact_email": "reservation@thayahotel.com", "status": 1, "source_type": 1, "numberReviews": 7}, {"name": "Nacornhostel Nil", "type": "hotel", "image": "https://dynamic-media-cdn.tripadvisor.com/media/photo-o/10/5d/81/d2/breakfast-at-morning.jpg?w=1000&s=1", "address": "56 Soi Tuek Din, Dinsor Rd Saochingcha, Phranakorn, Bangkok 10200 Thailand", "lat": 13.75838, "lng": 100.50211, "ref_id": 8768167, "rating": 4.5, "num_reviews": 0, "website": null, "contact_phone": null, "contact_email": null, "status": 1, "source_type": 1, "numberReviews": 3}, {"name": "Coral Grand Place Bangkok", "type": "hotel", "image": "https://dynamic-media-cdn.tripadvisor.com/media/photo-o/0d/7d/cb/ae/image-0-02-06-ac47bd96bf076e69.jpg?w=1000&s=1", "address": "4/8-9 Soi Vipavadee 32 Vipavadee-Rangsit Rd Jatujak, Bangkok 10900 Thailand", "lat": 13.825215, "lng": 100.559296, "ref_id": 3157996, "rating": 3.5, "num_reviews": 0, "website": "https://www.facebook.com/coralgrandplacebangkok/", "contact_phone": "+60 (0) 2939 4896", "contact_email": null, "status": 1, "source_type": 1, "numberReviews": 8}, {"name": "S.V. Guest House", "type": "hotel", "image": "https://dynamic-media-cdn.tripadvisor.com/media/photo-s/02/77/c5/68/filename-002-jpg-thumbnail0.jpg?w=1000&s=1", "address": "19/36 Soi 19 Sukhumvit Road Klongthoey, Wattana, Bangkok 10110 Thailand", "lat": 13.73693, "lng": 100.56116, "ref_id": 2504281, "rating": 3.5, "num_reviews": 0, "website": null, "contact_phone": "+66 86 772 7088", "contact_email": "", "status": 1, "source_type": 1, "numberReviews": 7}, {"name": "Portico Residence Ratchada 36", "type": "hotel", "image": "https://dynamic-media-cdn.tripadvisor.com/media/partner/bookingcom/photo-o/19/af/ad/71/photoofthewholeroom.jpg?w=1000&s=1", "address": "598-599 Ratchadaphisek, Bangkok 10900 Thailand", "lat": 13.82303, "lng": 100.57929, "ref_id": 12654235, "rating": 4.5, "num_reviews": 0, "website": null, "contact_phone": null, "contact_email": null, "status": 1, "source_type": 1, "numberReviews": 2}, {"name": "Talai Suites", "type": "hotel", "image": null, "address": "20 Surawong Road, Si Phraya, Bang Rak, Bangkok 10500 Thailand", "lat": 13.730409, "lng": 100.53268, "ref_id": 3801188, "rating": 3.5, "num_reviews": 0, "website": null, "contact_phone": null, "contact_email": null, "status": 1, "source_type": 1, "numberReviews": 7}, {"name": "Euro Asia Hostel", "type": "hotel", "image": "https://dynamic-media-cdn.tripadvisor.com/media/photo-o/0d/19/da/1d/family-room.jpg?w=1000&s=1", "address": "316/1, Samsen Soi 4 Banglamphu, Phra Nakorn, Bangkok 10200 Thailand", "lat": 13.76281, "lng": 100.49883, "ref_id": 6942880, "rating": 3.5, "num_reviews": 0, "website": null, "contact_phone": null, "contact_email": null, "status": 1, "source_type": 1, "numberReviews": 9}, {"name": "JJ Guesthouse", "type": "hotel", "image": null, "address": "Bangkok 10900 Thailand", "lat": 13.829046, "lng": 100.55503, "ref_id": 23591344, "rating": 5, "num_reviews": 0, "website": null, "contact_phone": "+66 80 401 8316", "contact_email": null, "status": 1, "source_type": 1, "numberReviews": 1}, {"name": "RoomQuest Ladprao Soi 1", "type": "hotel", "image": "https://dynamic-media-cdn.tripadvisor.com/media/partner/bookingcom/photo-o/2a/c7/1a/ee/caption.jpg?w=1000&s=1", "address": "333/3 Soi Ladprao 1 Chom Phon Sub-Districts, Chatuchak District, Bangkok 10900 Thailand", "lat": 13.800434, "lng": 100.56661, "ref_id": 23472245, "rating": 5, "num_reviews": 0, "website": null, "contact_phone": null, "contact_email": null, "status": 1, "source_type": 1, "numberReviews": 1}, {"name": "White Lodge", "type": "hotel", "image": "https://dynamic-media-cdn.tripadvisor.com/media/photo-o/01/20/7f/cd/room1.jpg?w=1000&s=1", "address": "36/8 Soi Kasemsan 1, Rama 1 Road, Bangkok 10330 Thailand", "lat": 13.74757, "lng": 100.52949, "ref_id": 536440, "rating": 3, "num_reviews": 0, "website": "", "contact_phone": "+66 2 216 8867", "contact_email": "", "status": 1, "source_type": 1, "numberReviews": 96}, {"name": "Ekk 4 Guest House", "type": "hotel", "image": "https://dynamic-media-cdn.tripadvisor.com/media/photo-o/07/2f/9f/ed/ekk-4-guest-house.jpg?w=1000&s=1", "address": "24 Ekkamai Soi 4, Bangkok 10170 Thailand", "lat": 13.80986, "lng": 100.81799, "ref_id": 6594300, "rating": 4.5, "num_reviews": 0, "website": null, "contact_phone": null, "contact_email": null, "status": 1, "source_type": 1, "numberReviews": 3}, {"name": "MOCA Hotel", "type": "hotel", "image": "https://dynamic-media-cdn.tripadvisor.com/media/photo-o/19/b5/06/74/lane-outside-hotel.jpg?w=1000&s=1", "address": "371/45, Saranakom 2, Song Prapha Road Sikan, Don Mueang, Bangkok 10210 Thailand", "lat": 13.924754, "lng": 100.59917, "ref_id": 15853068, "rating": 3.5, "num_reviews": 0, "website": "https://moca-hotel.business.site/", "contact_phone": "+66 2 590 0164", "contact_email": null, "status": 1, "source_type": 1, "numberReviews": 17}, {"name": "5 Minute Hostel", "type": "hotel", "image": "https://dynamic-media-cdn.tripadvisor.com/media/photo-o/12/8c/5f/39/5-minute-hostel.jpg?w=1000&s=1", "address": "164/78 Soi Nomchit, Phayathai Road Ratchathewi, Thung Phaya Thai, Bangkok 10500 Thailand", "lat": 13.729662, "lng": 100.523895, "ref_id": 13441249, "rating": 4.5, "num_reviews": 0, "website": null, "contact_phone": null, "contact_email": null, "status": 1, "source_type": 1, "numberReviews": 2}, {"name": "Sawasdee Langsuan Inn", "type": "hotel", "image": "https://dynamic-media-cdn.tripadvisor.com/media/daodao/photo-s/01/a9/f6/35/caption.jpg?w=1000&s=1", "address": "93/4 Soi Lang Suan 5 Ploenchit Road, Bangkok 10330 Thailand", "lat": 13.73658, "lng": 100.5434, "ref_id": 1160106, "rating": 3.5, "num_reviews": 0, "website": "http://www.sawadee.com/hotel/bangkok/sawasdeelangsuan/", "contact_phone": "", "contact_email": "", "status": 1, "source_type": 1, "numberReviews": 131}, {"name": "Tarntawan Place Apartments", "type": "hotel", "image": "https://dynamic-media-cdn.tripadvisor.com/media/photo-o/12/5b/90/33/tarntawan-place-apartments.jpg?w=1000&s=1", "address": "121 Surawong Rd Bangrak, Bangkok 10500 Thailand", "lat": 13.72935, "lng": 100.53001, "ref_id": 12878901, "rating": 4, "num_reviews": 0, "website": null, "contact_phone": null, "contact_email": null, "status": 1, "source_type": 1, "numberReviews": 3}, {"name": "Centana Apartment", "type": "hotel", "image": null, "address": "364 Rachdaphisek Road, Soi 36, Yaek 9-9, Chatuchak, Bangkok 10700 Thailand", "lat": 13.821531, "lng": 100.58348, "ref_id": 2632835, "rating": 4.5, "num_reviews": 0, "website": null, "contact_phone": "+66 2 541 6084", "contact_email": "", "status": 1, "source_type": 1, "numberReviews": 3}, {"name": "S7 Hostel", "type": "hotel", "image": "https://dynamic-media-cdn.tripadvisor.com/media/photo-o/1a/3e/d6/ca/vip-room.jpg?w=1000&s=1", "address": "3/14, Sukhumvit 71 Road, Bangkok 10110 Thailand", "lat": 13.714124, "lng": 100.59393, "ref_id": 12850482, "rating": 3.5, "num_reviews": 0, "website": "http://www.oyorooms.com/92916?utm_source=tripadvisor&utm_medium=listing&utm_campaign=TH_BGK107", "contact_phone": "+66 88 238 6969", "contact_email": "talistings@oyorooms.com", "status": 1, "source_type": 1, "numberReviews": 8}, {"name": "RECOFTC", "type": "hotel", "image": "https://dynamic-media-cdn.tripadvisor.com/media/photo-o/0e/ea/18/e6/recoftc.jpg?w=1000&s=1", "address": "Soi Suwanvajokkasikit, Bangkok 10903 Thailand", "lat": 13.84845, "lng": 100.57251, "ref_id": 9811491, "rating": 4, "num_reviews": 0, "website": "http://www.recoftc.org/about-us/services/facilities", "contact_phone": "+66 2 940 5700", "contact_email": null, "status": 1, "source_type": 1, "numberReviews": 3}, {"name": "Monkey Cave", "type": "hotel", "image": "https://dynamic-media-cdn.tripadvisor.com/media/photo-o/15/28/ba/92/monkey-cave.jpg?w=1000&s=1", "address": "202 Thanon Tanao, Bangkok 10200 Thailand", "lat": 13.75596, "lng": 100.49865, "ref_id": 13506288, "rating": 4.5, "num_reviews": 0, "website": null, "contact_phone": null, "contact_email": null, "status": 1, "source_type": 1, "numberReviews": 2}, {"name": "Honey Guest House", "type": "hotel", "image": "https://dynamic-media-cdn.tripadvisor.com/media/photo-o/09/f7/34/73/getlstd-property-photo.jpg?w=1000&s=1", "address": "Sukhumvit Soi10 23/16 Klongtoey, Bangkok 10110 Thailand", "lat": 13.736493, "lng": 100.55743, "ref_id": 9722315, "rating": 5, "num_reviews": 0, "website": "https://www.facebook.com/honeyhouse2316", "contact_phone": "+66 95 947 8640", "contact_email": null, "status": 1, "source_type": 1, "numberReviews": 2}, {"name": "2Bedtel", "type": "hotel", "image": "https://dynamic-media-cdn.tripadvisor.com/media/photo-o/14/af/c7/89/2bedtel.jpg?w=1000&s=1", "address": "919/10 Rama IX Rd Khwaeng Suan Luang, Khet Suan Luang, Krung Thep Maha Nakhon, Bangkok 10250 Thailand", "lat": 13.7407, "lng": 100.62409, "ref_id": 13414679, "rating": 4, "num_reviews": 0, "website": null, "contact_phone": null, "contact_email": null, "status": 1, "source_type": 1, "numberReviews": 4}, {"name": "Apartment Khun Noy", "type": "hotel", "image": "https://dynamic-media-cdn.tripadvisor.com/media/photo-o/09/c1/76/a3/apartment-khun-noy.jpg?w=1000&s=1", "address": "36/35 M.1, Soi noung condominium Laksi, Bangkok 10210 Thailand", "lat": 13.892534, "lng": 100.562836, "ref_id": 7387051, "rating": 4, "num_reviews": 0, "website": null, "contact_phone": null, "contact_email": null, "status": 1, "source_type": 1, "numberReviews": 4}, {"name": "OYO 378 Bright Minitel", "type": "hotel", "image": null, "address": "59 Phraeng Sanphasat Road San Chao Pho Sua, Phra Nakhon, Bangkok 10200 Thailand", "lat": 13.75338, "lng": 100.49745, "ref_id": 13237555, "rating": 4.5, "num_reviews": 0, "website": null, "contact_phone": null, "contact_email": null, "status": 1, "source_type": 1, "numberReviews": 2}, {"name": "Udomsuk Inn At Bts Udomsuk", "type": "hotel", "image": "https://dynamic-media-cdn.tripadvisor.com/media/photo-o/1c/b7/a1/95/ideo-mix-sukhumvit-103.jpg?w=1000&s=1", "address": "2728 Soi Piamthip, Bangkok 10260 Thailand", "lat": 13.68162, "lng": 100.60893, "ref_id": 17769338, "rating": 3.5, "num_reviews": 0, "website": null, "contact_phone": null, "contact_email": null, "status": 1, "source_type": 1, "numberReviews": 3}, {"name": "Grow Apartment", "type": "hotel", "image": "https://dynamic-media-cdn.tripadvisor.com/media/photo-o/0d/24/a2/f1/img-20160928-wa0000-largejpg.jpg?w=1000&s=1", "address": "765 Ramintra Km. 11 Rd., Khannayao, Bangkok 10230 Thailand", "lat": 13.838997, "lng": 100.66226, "ref_id": 2637170, "rating": 4, "num_reviews": 0, "website": null, "contact_phone": "02-5404230-32", "contact_email": "info@growapartment.com", "status": 1, "source_type": 1, "numberReviews": 4}, {"name": "The All 24 Luxury Residence", "type": "hotel", "image": null, "address": "Sihaburanukit Road 9, Bangkok 10510 Thailand", "lat": 13.80927, "lng": 100.72184, "ref_id": 12794984, "rating": -1, "num_reviews": 0, "website": "https://theall24.business.site/", "contact_phone": "+66 97 151 0800", "contact_email": null, "status": 1, "source_type": 1, "numberReviews": 0}, {"name": "My Loft Condo", "type": "hotel", "image": "https://dynamic-media-cdn.tripadvisor.com/media/photo-o/11/b9/0a/b9/apartment-sixth-floor.jpg?w=1000&s=1", "address": "54 Soi Ratchadaphisek 36, Bangkok 10900 Thailand", "lat": 13.82145, "lng": 100.58487, "ref_id": 13110012, "rating": 4, "num_reviews": 0, "website": "https://www.facebook.com/profile.php?id=100063910751279", "contact_phone": "+66 96 465 9946", "contact_email": null, "status": 1, "source_type": 1, "numberReviews": 1}, {"name": "S Ratchada Leisure Hotel", "type": "hotel", "image": "https://dynamic-media-cdn.tripadvisor.com/media/photo-o/06/89/1c/0d/spacious-poolside-room.jpg?w=1000&s=1", "address": "52 Tiamruammit Road, Bangkok 10310 Thailand", "lat": 13.767394, "lng": 100.582985, "ref_id": 6610663, "rating": 3, "num_reviews": 0, "website": "http://www.sratchadahotel.com/", "contact_phone": "+66 2 246 0796", "contact_email": "info@sratchadahotel.com", "status": 1, "source_type": 1, "numberReviews": 32}, {"name": "Sleepy Flamingo Hostel", "type": "hotel", "image": "https://dynamic-media-cdn.tripadvisor.com/media/photo-o/11/be/11/42/look-for-the-fire-engine.jpg?w=1000&s=1", "address": "168/3 Tani Road Talat Yot, Phra Nakhon, Bangkok 10200 Thailand", "lat": 13.76008, "lng": 100.49849, "ref_id": 13347032, "rating": 4, "num_reviews": 0, "website": null, "contact_phone": null, "contact_email": null, "status": 1, "source_type": 1, "numberReviews": 1}, {"name": "Chatuchak Greenery", "type": "hotel", "image": null, "address": "66/3 Soi Lat Phrao 16, Bangkok 10900 Thailand", "lat": 13.80301, "lng": 100.57043, "ref_id": 13219925, "rating": 3.5, "num_reviews": 0, "website": null, "contact_phone": null, "contact_email": null, "status": 1, "source_type": 1, "numberReviews": 2}, {"name": "Rider Resort", "type": "hotel", "image": "https://dynamic-media-cdn.tripadvisor.com/media/photo-o/0b/d7/60/cf/fresh-seafood.jpg?w=1000&s=1", "address": "21/1 Moo. 7 Soi Khaenthonguppatham School Nongbon Pravet, Bangkok 10250 Thailand", "lat": 13.697859, "lng": 100.65282, "ref_id": 2664058, "rating": 3, "num_reviews": 0, "website": "http://www.ridersthailand.com", "contact_phone": "+66 2 721 8461", "contact_email": "rider-resort@hotmail.com", "status": 1, "source_type": 1, "numberReviews": 13}, {"name": "Greyscale Short & Long Stay", "type": "hotel", "image": null, "address": "77 Soi Ramkhamhaeng 24 Yaek 6, Hua Mak, Bang Kapi, Bangkok 10240 Thailand", "lat": 13.74761, "lng": 100.62392, "ref_id": 11978938, "rating": 4, "num_reviews": 0, "website": null, "contact_phone": null, "contact_email": null, "status": 1, "source_type": 1, "numberReviews": 1}, {"name": "Small Elephant Hostel", "type": "hotel", "image": null, "address": "171 3131/85 Udom Suk 5 Alley Bang Na, Bangkok 10260 Thailand", "lat": 13.6783, "lng": 100.6403, "ref_id": 11779885, "rating": 4, "num_reviews": 0, "website": null, "contact_phone": "+66 63 395 8512", "contact_email": null, "status": 1, "source_type": 1, "numberReviews": 1}, {"name": "The Habitats at Ideo Mobi Sukhumvit Onnut", "type": "hotel", "image": null, "address": "2097 Sukhumvit Rd., between Soi 81 and 83 Prakhanong, Bangkok 10250 Thailand", "lat": 13.70352, "lng": 100.60227, "ref_id": 6578695, "rating": 3.5, "num_reviews": 0, "website": null, "contact_phone": null, "contact_email": null, "status": 1, "source_type": 1, "numberReviews": 3}, {"name": "BB Home Don Mueang", "type": "hotel", "image": "https://dynamic-media-cdn.tripadvisor.com/media/photo-o/10/f9/ea/cf/zimmer.jpg?w=1000&s=1", "address": "No. 504/4, Soi Phahonyothin 58, Junction 6, Bangkok 10220 Thailand", "lat": 13.93639, "lng": 100.627, "ref_id": 11291430, "rating": 4, "num_reviews": 0, "website": null, "contact_phone": "+66 92 535 4270", "contact_email": null, "status": 1, "source_type": 1, "numberReviews": 1}, {"name": "U-Night Hostel", "type": "hotel", "image": "https://dynamic-media-cdn.tripadvisor.com/media/photo-o/11/12/f8/00/photo9jpg.jpg?w=1000&s=1", "address": "40 Trok Watratchanadda, Dinso Road, Bangkok 10200 Thailand", "lat": 13.754714, "lng": 100.50246, "ref_id": 12364739, "rating": 3.5, "num_reviews": 0, "website": null, "contact_phone": null, "contact_email": null, "status": 1, "source_type": 1, "numberReviews": 2}, {"name": "Red Pin Inn", "type": "hotel", "image": "https://dynamic-media-cdn.tripadvisor.com/media/photo-o/14/62/a1/e3/red-pin-inn.jpg?w=1000&s=1", "address": "1091/222, Petchaburi 33 Alley Makkasan, Ratchathewi, Bangkok 10400 Thailand", "lat": 13.75081, "lng": 100.54563, "ref_id": 14111915, "rating": 3.5, "num_reviews": 0, "website": null, "contact_phone": "+66 89 181 5959", "contact_email": null, "status": 1, "source_type": 1, "numberReviews": 4}, {"name": "Nice Mansion 2 at Rama 9", "type": "hotel", "image": null, "address": "704 Prachauthit Rd, Bangkok Thailand", "lat": 13.76938, "lng": 100.58707, "ref_id": 11835604, "rating": 4, "num_reviews": 0, "website": null, "contact_phone": null, "contact_email": null, "status": 1, "source_type": 1, "numberReviews": 1}, {"name": "PB Place", "type": "hotel", "image": null, "address": "192 Soi Lat Phrao 71 Nacniwas 21 / C 28, Bangkok 10230 Thailand", "lat": 13.787, "lng": 100.62431, "ref_id": 2507992, "rating": 4, "num_reviews": 0, "website": "http://pbplace21.hong-pak.com/", "contact_phone": "+66 89 552 4515", "contact_email": "", "status": 1, "source_type": 1, "numberReviews": 1}, {"name": "Asia Resort Kaset Nawamin", "type": "hotel", "image": "https://dynamic-media-cdn.tripadvisor.com/media/photo-o/06/2f/2b/bb/asia-resort-kaset-nawamin.jpg?w=1000&s=1", "address": "24, 46 Chaem Chan Alley Khlong Kum, Bueng Kum, Bangkok 10230 Thailand", "lat": 13.816104, "lng": 100.63898, "ref_id": 3184305, "rating": 3, "num_reviews": 0, "website": "", "contact_phone": "+66 89 078 6655", "contact_email": "", "status": 1, "source_type": 1, "numberReviews": 7}, {"name": "Sira\u2019s House", "type": "hotel", "image": "https://dynamic-media-cdn.tripadvisor.com/media/partner/bookingcom/photo-o/19/af/d4/94/2229400.jpg?w=1000&s=1", "address": "109/59 Soi Lat Phrao 18 Yaek 14, Ratchada Road, Jompol, Chatuchak, Bangkok 10900 Thailand", "lat": 13.80197, "lng": 100.56956, "ref_id": 12257965, "rating": 4, "num_reviews": 0, "website": null, "contact_phone": null, "contact_email": null, "status": 1, "source_type": 1, "numberReviews": 1}, {"name": "Siam Court", "type": "hotel", "image": null, "address": "130 Sukhumvit soi 4 Road, Nana Tai, Klongtoey, Bangkok 10110 Thailand", "lat": 13.7416, "lng": 100.55346, "ref_id": 11729148, "rating": 3, "num_reviews": 0, "website": null, "contact_phone": "+66 2 255 0170", "contact_email": null, "status": 1, "source_type": 1, "numberReviews": 2}, {"name": "Small Room Bangkok", "type": "hotel", "image": null, "address": "Inthamara, Soi 9 Sutthisan Road,Saphan Kwai, Bangkok 10400 Thailand", "lat": 13.78863, "lng": 100.56387, "ref_id": 1519089, "rating": 4.5, "num_reviews": 0, "website": null, "contact_phone": "+66 84 377 3719", "contact_email": "smallroomguesthouse@gmail.com", "status": 1, "source_type": 1, "numberReviews": 2}, {"name": "Green House Apartment", "type": "hotel", "image": "https://dynamic-media-cdn.tripadvisor.com/media/partner/bookingcom/photo-o/19/b4/7a/f3/bedroom.jpg?w=1000&s=1", "address": "665 Lat Phrao 107 Alley, Lane 29 Klongchan, Bang Kapi, Bangkok 10240 Thailand", "lat": 13.771223, "lng": 100.63582, "ref_id": 11950482, "rating": 4, "num_reviews": 0, "website": "https://www.facebook.com/greenhouse.apartment665", "contact_phone": "+66 83 568 9980", "contact_email": "greenhouse.apartment665@gmail.com", "status": 1, "source_type": 1, "numberReviews": 1}, {"name": "Vijittada Hostel", "type": "hotel", "image": null, "address": "23 Samsen Rd., Sampraya, Phra Nakhon, Bangkok 10200 Thailand", "lat": 13.76323, "lng": 100.49871, "ref_id": 9701934, "rating": 4, "num_reviews": 0, "website": null, "contact_phone": null, "contact_email": null, "status": 1, "source_type": 1, "numberReviews": 1}, {"name": "Grannylla Residence Charoenkrung", "type": "hotel", "image": "https://dynamic-media-cdn.tripadvisor.com/media/photo-o/1b/5b/cc/65/grannylla-residence-charoenkru.jpg?w=1000&s=1", "address": "398/2 Charoen Krung Road, Soi 85 Yaek 6 Wat Prayakrai, Bangkholaem, Bangkok 10120 Thailand", "lat": 13.69283, "lng": 100.49236, "ref_id": 11705812, "rating": 3.5, "num_reviews": 0, "website": null, "contact_phone": "+66 86 360 0297", "contact_email": null, "status": 1, "source_type": 1, "numberReviews": 2}, {"name": "Napaville Huai Khwang", "type": "hotel", "image": "https://dynamic-media-cdn.tripadvisor.com/media/photo-o/0d/99/5e/66/napaville-huai-khwang.jpg?w=1000&s=1", "address": "601, 601/1-2 Pracha Rat Bumpen Road, Huai Khwang, Bangkok 10310 Thailand", "lat": 13.777597, "lng": 100.581894, "ref_id": 10035856, "rating": 3.5, "num_reviews": 0, "website": null, "contact_phone": null, "contact_email": null, "status": 1, "source_type": 1, "numberReviews": 4}, {"name": "Super Hostel", "type": "hotel", "image": "https://dynamic-media-cdn.tripadvisor.com/media/photo-o/0f/ca/39/a6/super-hostel.jpg?w=1000&s=1", "address": "Soi Chaeng Wattana-Parkkred 23 Pakkred, Bangkok 11120 Thailand", "lat": 13.89953, "lng": 100.54094, "ref_id": 11933989, "rating": 4, "num_reviews": 0, "website": null, "contact_phone": null, "contact_email": null, "status": 1, "source_type": 1, "numberReviews": 1}, {"name": "The President Boutique Apartments", "type": "hotel", "image": null, "address": "122 President Apartments Rama 6 Rd., Samsennai, Phayathai, Bangkok 10400 Thailand", "lat": 13.77978, "lng": 100.53258, "ref_id": 2648772, "rating": 5, "num_reviews": 0, "website": "http://www.presidentapartment.com", "contact_phone": "02-2783382-3", "contact_email": "presidentapartment@yahoo.com", "status": 1, "source_type": 1, "numberReviews": 1}, {"name": "Bkk Original Hotel Bangkok", "type": "hotel", "image": "https://dynamic-media-cdn.tripadvisor.com/media/photo-o/27/26/87/d4/nice.jpg?w=1000&s=1", "address": "2250/93-94 Charoen Krung Rd., Soi Charoen Krung 76/11, Bangkok Thailand", "lat": 13.69291, "lng": 100.49244, "ref_id": 10055423, "rating": 4, "num_reviews": 0, "website": null, "contact_phone": null, "contact_email": null, "status": 1, "source_type": 1, "numberReviews": 1}, {"name": "J House", "type": "hotel", "image": null, "address": "113 Soi Sukhumvit 57, Bangkok Thailand", "lat": 13.71399, "lng": 100.6452, "ref_id": 12387714, "rating": 3.5, "num_reviews": 0, "website": "http://www.jhousebkk.com", "contact_phone": "+66 2 714 7899", "contact_email": null, "status": 1, "source_type": 1, "numberReviews": 2}, {"name": "B-BED @Khaosan BKK", "type": "hotel", "image": null, "address": "28/7 Soi Rambuttri Pha Artit Road, Phra Nakhon, Bangkok 10200 Thailand", "lat": 13.75927, "lng": 100.493416, "ref_id": 12194291, "rating": 3.5, "num_reviews": 0, "website": null, "contact_phone": null, "contact_email": null, "status": 1, "source_type": 1, "numberReviews": 3}, {"name": "The Hostel", "type": "hotel", "image": "https://dynamic-media-cdn.tripadvisor.com/media/photo-o/18/f7/64/44/the-hostel.jpg?w=1000&s=1", "address": "417/7-11 Ratvitee Rd. Thung Phaya Thai, Ratchathewi, Bangkok 10400 Thailand", "lat": 13.765731, "lng": 100.537575, "ref_id": 12253643, "rating": 4, "num_reviews": 0, "website": "http://Www.thehostelthai.com", "contact_phone": "+66 2 354 8680", "contact_email": null, "status": 1, "source_type": 1, "numberReviews": 1}, {"name": "24 lh Hotel", "type": "hotel", "image": "https://dynamic-media-cdn.tripadvisor.com/media/photo-o/0e/ac/f3/a7/the-entrance-on-the-road.jpg?w=1000&s=1", "address": "629 Sukhumvit Soi 81, Bangkok 10250 Thailand", "lat": 13.710555, "lng": 100.60977, "ref_id": 11882868, "rating": 4, "num_reviews": 0, "website": null, "contact_phone": "66+2 3311217 -19", "contact_email": "LH24hostel@hotmail.com", "status": 1, "source_type": 1, "numberReviews": 1}, {"name": "Mde.Alice Hotel", "type": "hotel", "image": null, "address": "Juldis Tower room NO.21/18 Soi Petchburi 19 Petchaburi Rd Pratunam Phayatai, Bangkok 10400 Thailand", "lat": 13.752876, "lng": 100.53895, "ref_id": 6219559, "rating": 4, "num_reviews": 0, "website": null, "contact_phone": "+66 2 653 7824", "contact_email": null, "status": 1, "source_type": 1, "numberReviews": 1}, {"name": "Villa Siam & Spa", "type": "hotel", "image": "https://dynamic-media-cdn.tripadvisor.com/media/photo-o/16/13/12/ad/20190110-181339-largejpg.jpg?w=1000&s=1", "address": "35, Troksilp, Dinso Road Wat Bowon Niwet, Phra Nakhon, Bangkok 10200 Thailand", "lat": 13.759378, "lng": 100.50233, "ref_id": 15559662, "rating": 3, "num_reviews": 0, "website": "https://www.facebook.com/villasiamandspa/", "contact_phone": "+66 88 895 8219", "contact_email": "villasiamthara@gmail.com", "status": 1, "source_type": 1, "numberReviews": 9}, {"name": "Grand Sukhumvit Hotel Bangkok", "type": "hotel", "image": "https://dynamic-media-cdn.tripadvisor.com/media/photo-o/05/9c/12/15/grand-sukhumvit-hotel.jpg?w=1000&s=1", "address": "99 Sukhumvit Soi 6 Road, Khwaeng Khlong Tan, Khet Khlong Toei, Bangkok 10110 Thailand", "lat": 13.738858, "lng": 100.554596, "ref_id": 613026, "rating": 4, "num_reviews": 0, "website": "http://www.grandsukhumvithotel.com", "contact_phone": "+66 2 207 9999", "contact_email": "reservation@grandsukhumvit.com", "status": 1, "source_type": 1, "numberReviews": 2479}, {"name": "Baan Chantra", "type": "hotel", "image": "https://dynamic-media-cdn.tripadvisor.com/media/photo-o/17/6c/f6/6d/baan-chantra.jpg?w=1000&s=1", "address": "120/1 Samsen Road Bangkhunprom Phranakorn, Bangkok 10200 Thailand", "lat": 13.764569, "lng": 100.49983, "ref_id": 637541, "rating": 4.5, "num_reviews": 0, "website": "http://www.baanchantra.com", "contact_phone": "+66 2 628 6989", "contact_email": "sales@baanchantra.com", "status": 1, "source_type": 1, "numberReviews": 263}, {"name": "Analog Hostel", "type": "hotel", "image": "https://dynamic-media-cdn.tripadvisor.com/media/photo-o/16/87/b6/31/analog-hostel.jpg?w=1000&s=1", "address": "3/17-18 Soi Sawatdee 1, Sukhumvit 31, Sukhumvit Rd., Khlongtoei Nua, Wattana, Bangkok 10110 Thailand", "lat": 13.734459, "lng": 100.56601, "ref_id": 8376247, "rating": 5, "num_reviews": 0, "website": "http://www.analoghostel.com", "contact_phone": "+66 99 414 6364", "contact_email": "info@analoghostel.com", "status": 1, "source_type": 1, "numberReviews": 101}, {"name": "The Bhuthorn", "type": "hotel", "image": "https://dynamic-media-cdn.tripadvisor.com/media/photo-o/0f/e3/63/fb/salpasart--v16762665.jpg?w=1000&s=1", "address": "96-98 Phraeng Bhuthorn Rd., Phranakhorn,, Bangkok 10200 Thailand", "lat": 13.751643, "lng": 100.49754, "ref_id": 1490521, "rating": 5, "num_reviews": 0, "website": "http://www.thebhuthorn.com", "contact_phone": "+66 64 364 4595", "contact_email": "info@thebhuthorn.com", "status": 1, "source_type": 1, "numberReviews": 187}, {"name": "Atlanta Hotel", "type": "hotel", "image": "https://dynamic-media-cdn.tripadvisor.com/media/photo-s/00/13/d7/5e/the-pool-and-a-bit-of.jpg?w=1000&s=1", "address": "78 Soi 2 Sukhumvit Road, Bangkok, 10110, Bangkok 10110 Thailand", "lat": 13.737272, "lng": 100.55196, "ref_id": 308769, "rating": 4, "num_reviews": 0, "website": "http://www.theatlantahotelbangkok.com", "contact_phone": "+66 2 252 6069", "contact_email": "atlanta.reservations@yahoo.com", "status": 1, "source_type": 1, "numberReviews": 477}, {"name": "FAB House Bangkok", "type": "hotel", "image": "https://dynamic-media-cdn.tripadvisor.com/media/photo-o/0d/99/ee/55/outdoor-common-area.jpg?w=1000&s=1", "address": "45 Charoen Rat Soi 3, Sathorn, Soi Wat Prok Thung Wat Don, Sathon, Bangkok 10120 Thailand", "lat": 13.710922, "lng": 100.52127, "ref_id": 4298386, "rating": 4.5, "num_reviews": 0, "website": "http://m.me/fabhousebangkok", "contact_phone": "+66 80 565 1770", "contact_email": "fabhousebangkok@gmail.com", "status": 1, "source_type": 1, "numberReviews": 142}, {"name": "Lullaby Inn", "type": "hotel", "image": "https://dynamic-media-cdn.tripadvisor.com/media/photo-o/09/5a/69/86/deluxe-room--v8995541.jpg?w=1000&s=1", "address": "18 - 20 - 22 Decho- Silom Road Suriwong District, Bang-Rak Amphur, Bangkok 10500 Thailand", "lat": 13.725563, "lng": 100.525536, "ref_id": 1722071, "rating": 4.5, "num_reviews": 0, "website": null, "contact_phone": "+66 2 635 5984", "contact_email": "lullabyinnsilom@yahoo.com", "status": 1, "source_type": 1, "numberReviews": 254}, {"name": "Happy Monkey Hostel Bangkok", "type": "hotel", "image": "https://dynamic-media-cdn.tripadvisor.com/media/photo-o/11/75/38/ae/happy-monkey-hostel-bangkok.jpg?w=1000&s=1", "address": "39/9-10 Soi Patchburi 15, Petchburi Rd., Bangkok 10400 Thailand", "lat": 13.753358, "lng": 100.53733, "ref_id": 10785067, "rating": 4.5, "num_reviews": 0, "website": null, "contact_phone": "+66 2 252 2269", "contact_email": "info@happymonkeyhostel.com", "status": 1, "source_type": 1, "numberReviews": 108}, {"name": "Maven Stylish Hotel Bangkok", "type": "hotel", "image": "https://dynamic-media-cdn.tripadvisor.com/media/photo-o/1a/5e/a9/99/img-20191222-wa0005-largejpg.jpg?w=1000&s=1", "address": "1990 New Petchaburi Road Bang Kapi, Huai Khwang, Bangkok 10310 Thailand", "lat": 13.747525, "lng": 100.57165, "ref_id": 13392663, "rating": 4.5, "num_reviews": 0, "website": "http://www.mavenbangkok.com", "contact_phone": "+66 2 073 0999", "contact_email": "rsvn@mavenbangkok.com", "status": 1, "source_type": 1, "numberReviews": 119}, {"name": "The Tawana Bangkok", "type": "hotel", "image": "https://dynamic-media-cdn.tripadvisor.com/media/photo-s/02/2f/89/23/piscine.jpg?w=1000&s=1", "address": "80, Surawong Road Si Phraya, Bang Rak, Bangkok 10500 Thailand", "lat": 13.729493, "lng": 100.52994, "ref_id": 305512, "rating": 4, "num_reviews": 0, "website": "http://www.tawanabangkok.com/", "contact_phone": "+66 2 236 0361", "contact_email": "info@tawanabangkok.com", "status": 1, "source_type": 1, "numberReviews": 994}, {"name": "PIER 49 Hostel", "type": "hotel", "image": "https://dynamic-media-cdn.tripadvisor.com/media/photo-o/11/bd/d1/ed/49.jpg?w=1000&s=1", "address": "3/1 Soi Sukhumvit 49, Sukhumvit Road Khlong Tan Nuea, Watthana, Bangkok 10110 Thailand", "lat": 13.72736, "lng": 100.57542, "ref_id": 12153206, "rating": 5, "num_reviews": 0, "website": "http://www.facebook.com/pier49hostel/", "contact_phone": "+66 85 665 9263", "contact_email": "pier49hostel@gmail.com", "status": 1, "source_type": 1, "numberReviews": 63}, {"name": "HQ Hostel Silom", "type": "hotel", "image": "https://dynamic-media-cdn.tripadvisor.com/media/photo-o/15/7a/d0/85/photo0jpg.jpg?w=1000&s=1", "address": "5/3 - 4 Silom Road, Bangkok 10500 Thailand", "lat": 13.726385, "lng": 100.53103, "ref_id": 1100943, "rating": 4.5, "num_reviews": 0, "website": "http://www.hqhostel.com", "contact_phone": "+66 2 233 1598", "contact_email": "kampol@HQhostel.com", "status": 1, "source_type": 1, "numberReviews": 232}, {"name": "Vista Residence Bangkok", "type": "hotel", "image": "https://dynamic-media-cdn.tripadvisor.com/media/photo-s/02/29/6c/6c/standard-twin-room.jpg?w=1000&s=1", "address": "80 Soi Kasemsan 3, Rama 1 Road Patthumwan, Bangkok 10330 Thailand", "lat": 13.747986, "lng": 100.52721, "ref_id": 1717815, "rating": 4.5, "num_reviews": 0, "website": "http://vistaresidence.com/en/default.htm", "contact_phone": "00 66 2 612 3911-3", "contact_email": "vistaresidence@gmail.com", "status": 1, "source_type": 1, "numberReviews": 187}, {"name": "Everyday Bangkok Hostel @Khaosan", "type": "hotel", "image": "https://dynamic-media-cdn.tripadvisor.com/media/photo-o/11/b9/a1/8c/everyday-bangkok-hostel.jpg?w=1000&s=1", "address": "314/3, Soi Samsen 4 Ban Phan Thom, Phra Nakhon, Bangkok 10200 Thailand", "lat": 13.762718, "lng": 100.5015, "ref_id": 13347309, "rating": 4.5, "num_reviews": 0, "website": null, "contact_phone": "+66 2 043 8002", "contact_email": null, "status": 1, "source_type": 1, "numberReviews": 88}, {"name": "Au Bon Hostel", "type": "hotel", "image": "https://dynamic-media-cdn.tripadvisor.com/media/photo-o/0b/4b/de/a2/au-bon-hostel.jpg?w=1000&s=1", "address": "33-35 Boonsiri Road San Chao Por Sua, Phra Nakhon, Bangkok 10200 Thailand", "lat": 13.754744, "lng": 100.49722, "ref_id": 7384640, "rating": 4, "num_reviews": 0, "website": null, "contact_phone": "+66 2 622 2367", "contact_email": null, "status": 1, "source_type": 1, "numberReviews": 184}, {"name": "Gaam Hotel", "type": "hotel", "image": "https://dynamic-media-cdn.tripadvisor.com/media/photo-o/0c/cf/b5/4c/galaxy-king--v13021241.jpg?w=1000&s=1", "address": "39/33 Phetchaburi 15 Road Ratchathewi, Bangkok 10400 Thailand", "lat": 13.753637, "lng": 100.5374, "ref_id": 7380872, "rating": 4.5, "num_reviews": 0, "website": "http://www.gaamhotel.com", "contact_phone": "+66 85 917 1456", "contact_email": "gaamhotel@gmail.com", "status": 1, "source_type": 1, "numberReviews": 152}, {"name": "Mile Map Hostel", "type": "hotel", "image": "https://dynamic-media-cdn.tripadvisor.com/media/photo-o/0a/c9/49/31/common-area-and-reception.jpg?w=1000&s=1", "address": "36/4 Pan Road, Silom Bangrak, Bangkok 10500 Thailand", "lat": 13.723837, "lng": 100.52305, "ref_id": 3592431, "rating": 4.5, "num_reviews": 0, "website": null, "contact_phone": "+66 2 635 1212", "contact_email": null, "status": 1, "source_type": 1, "numberReviews": 205}, {"name": "Green House BKK", "type": "hotel", "image": "https://dynamic-media-cdn.tripadvisor.com/media/photo-o/1a/bc/87/f4/front-desk.jpg?w=1000&s=1", "address": "84 Soi Rambuttri Khwaeng Talat Yot, Bangkok 10200 Thailand", "lat": 13.760155, "lng": 100.49702, "ref_id": 1867940, "rating": 3.5, "num_reviews": 0, "website": "http://www.greenhousebkk.com", "contact_phone": "+66 2 281 4293", "contact_email": "greenhousereception@gmail.com", "status": 1, "source_type": 1, "numberReviews": 906}, {"name": "Sam's Lodge", "type": "hotel", "image": "https://dynamic-media-cdn.tripadvisor.com/media/photo-o/0f/e3/e1/6c/roof-terrace--v16762245.jpg?w=1000&s=1", "address": "28-28/1 Sukhumvit Soi-19 Soi Wattana, Bangkok 10110 Thailand", "lat": 13.739228, "lng": 100.56011, "ref_id": 648510, "rating": 4, "num_reviews": 0, "website": "http://www.samslodge.com/", "contact_phone": "+66 2 651 1702", "contact_email": "samslodge19@yahoo.com", "status": 1, "source_type": 1, "numberReviews": 481}, {"name": "Golden Mountain Hostel", "type": "hotel", "image": "https://dynamic-media-cdn.tripadvisor.com/media/photo-o/07/06/c9/d8/golden-mountain-hostel.jpg?w=1000&s=1", "address": "116 Boripat Rd Ban Bat, Wat Saket, Bangkok 10200 Thailand", "lat": 13.752531, "lng": 100.50546, "ref_id": 7270106, "rating": 4.5, "num_reviews": 0, "website": "https://www.facebook.com/goldenmountainhostel/", "contact_phone": "+66 2 001 6588", "contact_email": "info@goldenmountainhostel.com", "status": 1, "source_type": 1, "numberReviews": 104}, {"name": "Patumwan House", "type": "hotel", "image": "https://dynamic-media-cdn.tripadvisor.com/media/photo-o/05/12/89/81/pathumwan-house.jpg?w=1000&s=1", "address": "22, Soi Kasemsan 1, Rama 1 Rd. WangMai, Bangkok 10330 Thailand", "lat": 13.748991, "lng": 100.5293, "ref_id": 1137406, "rating": 4, "num_reviews": 0, "website": "http://www.patumwanhouse.com/", "contact_phone": "+66 2 612 3590", "contact_email": "info@patumwahouse.com", "status": 1, "source_type": 1, "numberReviews": 359}, {"name": "Sivarin Guesthouse", "type": "hotel", "image": "https://dynamic-media-cdn.tripadvisor.com/media/photo-o/05/60/c7/dc/sivarin-guesthouse.jpg?w=1000&s=1", "address": "11/1 Soi Samsen 3, Samsen Road Watsampraya, Phranakorn, Bangkok 10200 Thailand", "lat": 13.76332, "lng": 100.49912, "ref_id": 2090559, "rating": 4.5, "num_reviews": 0, "website": "http://www.sivaringuesthouse.com", "contact_phone": "+66 2 628 5659", "contact_email": "sivarin_guesthouse@hotmail.com", "status": 1, "source_type": 1, "numberReviews": 140}, {"name": "Ibrik Resort by the River", "type": "hotel", "image": "https://dynamic-media-cdn.tripadvisor.com/media/photo-o/0d/6d/95/39/sunshine--v14287509.jpg?w=1000&s=1", "address": "256 Soi Wat Rakang, Arunamarin Rd., Bangkoknoi, 10700 Arunamrin Rd, Bangkok 10700 Thailand", "lat": 13.75367, "lng": 100.48655, "ref_id": 564442, "rating": 4.5, "num_reviews": 0, "website": null, "contact_phone": "+66 86 008 5589", "contact_email": "", "status": 1, "source_type": 1, "numberReviews": 120}, {"name": "Samsen 360 Hostel", "type": "hotel", "image": "https://dynamic-media-cdn.tripadvisor.com/media/photo-o/08/ba/a1/01/living-area.jpg?w=1000&s=1", "address": "360 Samsen Ban Phan Thom, Phra Nakhon, Bangkok 10200 Thailand", "lat": 13.762877, "lng": 100.50095, "ref_id": 8523095, "rating": 4.5, "num_reviews": 0, "website": "https://www.facebook.com/samsen360", "contact_phone": "+66 83 092 2176", "contact_email": "samsen360hostel@gmail.com", "status": 1, "source_type": 1, "numberReviews": 116}, {"name": "K.T. Guest House", "type": "hotel", "image": "https://dynamic-media-cdn.tripadvisor.com/media/photo-o/12/19/03/6c/kt-guest-house.jpg?w=1000&s=1", "address": "Soi Inthamara 44, Din Daeng, Bangkok 10400 Thailand", "lat": 13.782039, "lng": 100.566536, "ref_id": 549713, "rating": 4.5, "num_reviews": 0, "website": "http://www.ktguesthouse.com/", "contact_phone": "+66 2 276 3462", "contact_email": "info@ktguesthouse.com", "status": 1, "source_type": 1, "numberReviews": 103}, {"name": "WH Hostel", "type": "hotel", "image": "https://dynamic-media-cdn.tripadvisor.com/media/photo-o/05/3f/cd/00/caption.jpg?w=1000&s=1", "address": "48 Sukhumvit Soi 4 , Sukhumvit Rd., Bangkok 10110 Thailand", "lat": 13.736118, "lng": 100.55172, "ref_id": 5987096, "rating": 4.5, "num_reviews": 0, "website": null, "contact_phone": "+66 2 656 9490", "contact_email": "info@whhostel.com", "status": 1, "source_type": 1, "numberReviews": 97}, {"name": "Baan Tepa", "type": "hotel", "image": "https://dynamic-media-cdn.tripadvisor.com/media/photo-s/02/c0/56/9b/baan-tepa.jpg?w=1000&s=1", "address": "245/1, Soi 9, Sri-Ayutthaya Rd., Bangkok 10300 Thailand", "lat": 13.769051, "lng": 100.50775, "ref_id": 2167268, "rating": 4.5, "num_reviews": 0, "website": "http://www.baantepa.com", "contact_phone": "+66 86 868 0685", "contact_email": "info@baantepa.com", "status": 1, "source_type": 1, "numberReviews": 63}, {"name": "The Myth - Sud Sathorn", "type": "hotel", "image": "https://dynamic-media-cdn.tripadvisor.com/media/photo-o/0d/41/41/a2/deluxe-twin-room.jpg?w=1000&s=1", "address": "235-239 Sathorn Tai Road Yannawa, Sathorn, Bangkok 10120 Thailand", "lat": 13.718122, "lng": 100.51573, "ref_id": 8808737, "rating": 4.5, "num_reviews": 0, "website": "http://www.themythbkk.com/", "contact_phone": "+66 89 127 6140", "contact_email": "themyth.sathorn@gmail.com", "status": 1, "source_type": 1, "numberReviews": 80}, {"name": "ThongLor Travellers Hostel and Cafe", "type": "hotel", "image": "https://dynamic-media-cdn.tripadvisor.com/media/photo-o/16/9e/d0/8e/thonglor-travellers-hostel.jpg?w=1000&s=1", "address": "1059, Sukhumvit Road Khlong Tan Nuea, Watthana, Bangkok 10260 Thailand", "lat": 13.723931, "lng": 100.57917, "ref_id": 10712742, "rating": 5, "num_reviews": 0, "website": "https://www.travellersbangkok.com/", "contact_phone": "+66 83 231 2230", "contact_email": "thonglortravellers@gmail.com", "status": 1, "source_type": 1, "numberReviews": 73}, {"name": "Baan Glang Soi", "type": "hotel", "image": "https://dynamic-media-cdn.tripadvisor.com/media/photo-o/05/38/5f/5b/baan-glang-soi.jpg?w=1000&s=1", "address": "23, Charoen Wiang Road Silom, Bang Rak, Bangkok 10500 Thailand", "lat": 13.719203, "lng": 100.51712, "ref_id": 5967472, "rating": 4.5, "num_reviews": 0, "website": "http://bgs.suc-gems.com/", "contact_phone": "+66 2 630 9015", "contact_email": "baanglangsoi@gmail.com", "status": 1, "source_type": 1, "numberReviews": 74}, {"name": "Gold Airport Suites", "type": "hotel", "image": "https://dynamic-media-cdn.tripadvisor.com/media/photo-o/0f/bc/94/76/caption.jpg?w=1000&s=1", "address": "1288/9 Ladkrabang Soi 40/2 Ladkrabang Road Lat Krabang, Bangkok 10520 Thailand", "lat": 13.718856, "lng": 100.76404, "ref_id": 12426337, "rating": 3.5, "num_reviews": 0, "website": null, "contact_phone": "+66 2 327 0121", "contact_email": "gold.airportsuites@gmail.com", "status": 1, "source_type": 1, "numberReviews": 182}, {"name": "Peace Land Khaosan", "type": "hotel", "image": "https://dynamic-media-cdn.tripadvisor.com/media/photo-o/1a/19/7d/07/peace-land-khaosan.jpg?w=1000&s=1", "address": "105 Witsutkasat, Bangkok 10200 Thailand", "lat": 13.765126, "lng": 100.50191, "ref_id": 15518128, "rating": 3.5, "num_reviews": 0, "website": "https://peace-land-khaosan-hotel.business.site/?utm_source=gmb&utm_medium=referral", "contact_phone": "+66 61 045 5577", "contact_email": null, "status": 1, "source_type": 1, "numberReviews": 44}, {"name": "Watana Mansion", "type": "hotel", "image": "https://dynamic-media-cdn.tripadvisor.com/media/photo-o/0d/b4/71/02/watana-mansion.jpg?w=1000&s=1", "address": "209 Ratchadapisek Rd Soi 17 Dindang, Bangkok 10110 Thailand", "lat": 13.786377, "lng": 100.57265, "ref_id": 557924, "rating": 3.5, "num_reviews": 0, "website": "http://www.staybangkok.com/watana.html", "contact_phone": "+66 2 275 0110", "contact_email": "watana@staybangkok.com", "status": 1, "source_type": 1, "numberReviews": 166}, {"name": "Boulevard Hotel Bangkok Sukhumvit", "type": "hotel", "image": "https://dynamic-media-cdn.tripadvisor.com/media/photo-o/2b/52/7a/06/corner-king-room.jpg?w=1000&s=1", "address": "2 Soi 5, Sukhumvit Road, Bangkok 10110 Thailand", "lat": 13.741999, "lng": 100.554245, "ref_id": 27126135, "rating": 5, "num_reviews": 0, "website": "https://www.facebook.com/boulevardhotelbangkok/", "contact_phone": "+66 2 255 2930", "contact_email": "reservations@boulevardbangkok.com", "status": 1, "source_type": 1, "numberReviews": 5}, {"name": "Park 19 Residence", "type": "hotel", "image": "https://dynamic-media-cdn.tripadvisor.com/media/photo-o/0b/a0/6a/99/19.jpg?w=1000&s=1", "address": "459 Soi Ekkamai 19 Wattana, Bangkok 10110 Thailand", "lat": 13.7362, "lng": 100.58687, "ref_id": 8118811, "rating": 3.5, "num_reviews": 0, "website": "https://www.park-19.com/home", "contact_phone": "+66 (0)2 381 2822-3", "contact_email": "info@park-19.com", "status": 1, "source_type": 1, "numberReviews": 57}, {"name": "Kamin Bird Hostel", "type": "hotel", "image": "https://dynamic-media-cdn.tripadvisor.com/media/photo-o/05/64/ef/7f/kamin-bird-hostel.jpg?w=1000&s=1", "address": "490/4 Nathong 6 Ratchada 7 Dindaeng Thanon Ratchada Phisek, Bangkok 10400 Thailand", "lat": 13.77293, "lng": 100.57185, "ref_id": 5928319, "rating": 4.5, "num_reviews": 0, "website": "http://www.kaminbirdhostel.com/", "contact_phone": "+66 81 618 0079", "contact_email": "ying2878@gmail.com", "status": 1, "source_type": 1, "numberReviews": 26}, {"name": "Tribe Living Bangkok Sukhumvit 39", "type": "hotel", "image": "https://dynamic-media-cdn.tripadvisor.com/media/photo-o/2b/dc/2f/c9/exterior.jpg?w=1000&s=1", "address": "122 Soi Sukhumvit 39, Sukhumvit Road, Bangkok 10110 Thailand", "lat": 13.73716, "lng": 100.5709, "ref_id": 26837574, "rating": 4.5, "num_reviews": 0, "website": "https://all.accor.com/hotel/C0G7/index.en.shtml", "contact_phone": "+66 2 261 3939", "contact_email": "HC0G7@mytribehotel.com", "status": 1, "source_type": 1, "numberReviews": 9}, {"name": "Honey House 2", "type": "hotel", "image": "https://dynamic-media-cdn.tripadvisor.com/media/photo-s/02/be/af/71/honey-house-2.jpg?w=1000&s=1", "address": "106/3-4 Sukhumwit Soi 22, Sukhumwit Road Klongtoey, Bangkok 10110 Thailand", "lat": 13.738165, "lng": 100.5584, "ref_id": 1224693, "rating": 3.5, "num_reviews": 0, "website": "http://www.honeyhouse.co.th", "contact_phone": "+66 2 663 7418", "contact_email": "honeyhousebkk@hotmail.com", "status": 1, "source_type": 1, "numberReviews": 70}, {"name": "B2 Bangna Premier Hotel", "type": "hotel", "image": "https://dynamic-media-cdn.tripadvisor.com/media/photo-o/0e/6a/a4/cb/photo1jpg.jpg?w=1000&s=1", "address": "9 Soi Srinakharin 65, Srinakharin Road, Bangkok 10250 Thailand", "lat": 13.674111, "lng": 100.64686, "ref_id": 10196424, "rating": 4, "num_reviews": 0, "website": null, "contact_phone": null, "contact_email": null, "status": 1, "source_type": 1, "numberReviews": 24}, {"name": "Best Western Ratchada Hotel", "type": "hotel", "image": "https://dynamic-media-cdn.tripadvisor.com/media/photo-o/2a/13/12/1f/exterior.jpg?w=1000&s=1", "address": "322/433 Ratchadaphisek 3, Bangkok 10400 Thailand", "lat": 13.762439, "lng": 100.56489, "ref_id": 25659135, "rating": 4.5, "num_reviews": 0, "website": "https://www.bestwestern.com/en_US/book/hotels-in-din-daeng/best-western-ratchada-hotel/propertyCode.99931.html", "contact_phone": "+66 2 248 4800", "contact_email": "info@bestwesternratchada.com", "status": 1, "source_type": 1, "numberReviews": 6}, {"name": "48 Ville - Donmuang Airport", "type": "hotel", "image": "https://dynamic-media-cdn.tripadvisor.com/media/daodao/photo-s/07/0e/ac/4a/caption.jpg?w=1000&s=1", "address": "94/1 Phaholyothin 48, Bangkok 10220 Thailand", "lat": 13.884446, "lng": 100.60636, "ref_id": 1202079, "rating": 3.5, "num_reviews": 0, "website": "https://www.facebook.com/48ville.donmuang/", "contact_phone": "+66 2 551 4377", "contact_email": null, "status": 1, "source_type": 1, "numberReviews": 130}, {"name": "19A Hostel", "type": "hotel", "image": "https://dynamic-media-cdn.tripadvisor.com/media/photo-o/17/35/c8/8c/photo4jpg.jpg?w=1000&s=1", "address": "268 Phahonyothin Rd, Khwaeng Samsen Nai Khet Phaya Thai, Bangkok 10400 Thailand", "lat": 13.78998, "lng": 100.54854, "ref_id": 15128459, "rating": 5, "num_reviews": 0, "website": null, "contact_phone": null, "contact_email": null, "status": 1, "source_type": 1, "numberReviews": 10}, {"name": "Rest Inn Dormitory", "type": "hotel", "image": "https://dynamic-media-cdn.tripadvisor.com/media/photo-o/15/e9/1b/81/img-20181231-151838-largejpg.jpg?w=1000&s=1", "address": "131-133 Charkraphong Road Talad Yod, Phranakorn, Bangkok 10200 Thailand", "lat": 13.761078, "lng": 100.49708, "ref_id": 6090953, "rating": 4, "num_reviews": 0, "website": null, "contact_phone": "+66 2 280 3287", "contact_email": null, "status": 1, "source_type": 1, "numberReviews": 49}, {"name": "S Bangkok Navamin", "type": "hotel", "image": "https://dynamic-media-cdn.tripadvisor.com/media/photo-o/1a/b9/dd/cd/photo0jpg.jpg?w=1000&s=1", "address": "1009/1 Navamin Road Nuanchan, Buengkum, Bangkok 10230 Thailand", "lat": 13.81555, "lng": 100.652084, "ref_id": 14985724, "rating": 4.5, "num_reviews": 0, "website": "http://www.sbangkokhotel.com", "contact_phone": "+66 2 509 3133", "contact_email": "rsvn.sbkk@gmail.com", "status": 1, "source_type": 1, "numberReviews": 10}, {"name": "Parkview Ratchaprarop", "type": "hotel", "image": "https://dynamic-media-cdn.tripadvisor.com/media/photo-o/0b/d6/38/b9/photo8jpg.jpg?w=1000&s=1", "address": "131/19 Ratchaprarop Soi 12, Bangkok 10400 Thailand", "lat": 13.76201, "lng": 100.54304, "ref_id": 9864594, "rating": 4.5, "num_reviews": 0, "website": null, "contact_phone": "+66 2 014 4880", "contact_email": null, "status": 1, "source_type": 1, "numberReviews": 23}, {"name": "Marigold Sukhumvit", "type": "hotel", "image": "https://dynamic-media-cdn.tripadvisor.com/media/photo-o/1a/e1/71/b7/marigold-sukhumvit.jpg?w=1000&s=1", "address": "Sukhumvit 107 2009 Bearing 4 Alley, Bangkok 10270 Thailand", "lat": 13.651934, "lng": 100.59956, "ref_id": 6000704, "rating": 4, "num_reviews": 0, "website": "http://www.marigoldsukhumvit.com", "contact_phone": "+66 81 649 3939", "contact_email": "marigoldsukhumvit107@gmail.com", "status": 1, "source_type": 1, "numberReviews": 23}, {"name": "Baansu Hostel", "type": "hotel", "image": "https://dynamic-media-cdn.tripadvisor.com/media/partner/bookingcom/photo-o/19/ad/7d/f4/communalkitchen.jpg?w=1000&s=1", "address": "576 Soi Phaya Nak 661 Soi Phayanak Bantadthong Rd., Bangkok 10400 Thailand", "lat": 13.75279, "lng": 100.52357, "ref_id": 13164888, "rating": 5, "num_reviews": 0, "website": null, "contact_phone": null, "contact_email": null, "status": 1, "source_type": 1, "numberReviews": 9}, {"name": "AK House", "type": "hotel", "image": "https://dynamic-media-cdn.tripadvisor.com/media/photo-o/06/f1/2b/4e/ak-house.jpg?w=1000&s=1", "address": "120 Sukhumvit Soi 81 Bangkok, Bangkok 10260 Thailand", "lat": 13.69323, "lng": 100.60768, "ref_id": 1676325, "rating": 4.5, "num_reviews": 0, "website": "http://akhouse.typ.net/", "contact_phone": "+66 85 837 7678", "contact_email": "akhousebkk@gmail.com", "status": 1, "source_type": 1, "numberReviews": 36}, {"name": "The Bloom Residence at Suvarnabhumi", "type": "hotel", "image": "https://dynamic-media-cdn.tripadvisor.com/media/photo-o/0d/cf/32/2a/photo1jpg.jpg?w=1000&s=1", "address": "848/6 Kingkeaw Road, Bangkok 10520 Thailand", "lat": 13.72244, "lng": 100.74004, "ref_id": 8777728, "rating": 4, "num_reviews": 0, "website": null, "contact_phone": "+66 92 929 9193", "contact_email": null, "status": 1, "source_type": 1, "numberReviews": 32}, {"name": "Sloth Hostel", "type": "hotel", "image": "https://dynamic-media-cdn.tripadvisor.com/media/photo-o/13/1a/68/6b/sloth-hostel.jpg?w=1000&s=1", "address": "188/10-11 Soi Kraisi, Khwaeng Talat Yot, Khet Phra Nakhon, Bangkok 10200 Thailand", "lat": 13.761208, "lng": 100.498116, "ref_id": 12545658, "rating": 4.5, "num_reviews": 0, "website": "http://www.slothhostel.com", "contact_phone": "+66 87 671 3169", "contact_email": "slothhostel@gmail.com", "status": 1, "source_type": 1, "numberReviews": 23}, {"name": "S44 Room", "type": "hotel", "image": "https://dynamic-media-cdn.tripadvisor.com/media/photo-o/1a/92/30/3b/s44-room.jpg?w=1000&s=1", "address": "1040/48 Sukhumvit Road Phra Khanong, Khlong Toei, Bangkok 10110 Thailand", "lat": 13.71613, "lng": 100.58956, "ref_id": 13370952, "rating": 4, "num_reviews": 0, "website": "https://www.facebook.com/S44ROOM/", "contact_phone": "+66636641459", "contact_email": "s44room@gmail.com", "status": 1, "source_type": 1, "numberReviews": 17}, {"name": "Myhotel CMYK @ Ratchada Hotel", "type": "hotel", "image": "https://dynamic-media-cdn.tripadvisor.com/media/photo-o/0a/59/03/88/executive-room--v9703522.jpg?w=1000&s=1", "address": "225/4 Pracharajbumpen Rd. Soi 5, Huai Khwang, Bangkok 10310 Thailand", "lat": 13.779149, "lng": 100.57585, "ref_id": 1991119, "rating": 3.5, "num_reviews": 0, "website": "http://www.myhotelratchada.com/", "contact_phone": "+66 2 692 8899", "contact_email": "gso@my.co.th", "status": 1, "source_type": 1, "numberReviews": 177}, {"name": "Suvarnabhumi Apartments", "type": "hotel", "image": "https://dynamic-media-cdn.tripadvisor.com/media/photo-o/13/35/5b/c9/suvarnabhumi-apartments.jpg?w=1000&s=1", "address": "25 Romklouh 36, Romklouh Road, Klongsamprawes, Ladkrabung, Bangkok Thailand", "lat": 13.759032, "lng": 100.74616, "ref_id": 4047600, "rating": 4.5, "num_reviews": 0, "website": null, "contact_phone": null, "contact_email": null, "status": 1, "source_type": 1, "numberReviews": 11}, {"name": "The Neighbor Hoot Hostel&Cafe'", "type": "hotel", "image": "https://dynamic-media-cdn.tripadvisor.com/media/photo-o/0d/3e/e4/60/getlstd-property-photo.jpg?w=1000&s=1", "address": "283 Ratchadapisek Soi 14/8, Ratchadapisek Road MRT Huai-Khwang, Bangkok 10310 Thailand", "lat": 13.781542, "lng": 100.57674, "ref_id": 11621093, "rating": 4.5, "num_reviews": 0, "website": "http://www.hoothostel.com", "contact_phone": "+66 81 622 2113", "contact_email": "hoothostel@gmail.com", "status": 1, "source_type": 1, "numberReviews": 14}, {"name": "Meet Up Hostel Bangkok", "type": "hotel", "image": "https://dynamic-media-cdn.tripadvisor.com/media/photo-o/12/c4/41/40/place-to-feed-turtles.jpg?w=1000&s=1", "address": "497/12-13 Petchaburi Road, Thung Phaya Thai, Ratchathewi, Bangkok 10400 Thailand", "lat": 13.757362, "lng": 100.53431, "ref_id": 12104029, "rating": 4.5, "num_reviews": 0, "website": null, "contact_phone": "+66 81 826 8437", "contact_email": "meetuphostelbangkok@gmail.com", "status": 1, "source_type": 1, "numberReviews": 16}, {"name": "Craftel", "type": "hotel", "image": "https://dynamic-media-cdn.tripadvisor.com/media/photo-o/12/33/b4/70/photo0jpg.jpg?w=1000&s=1", "address": "291/18 Soi Phayanak, Bangkok 10400 Thailand", "lat": 13.75215, "lng": 100.5282, "ref_id": 13519367, "rating": 4.5, "num_reviews": 0, "website": "https://www.craftelbangkok.com/", "contact_phone": "+66 2 116 4225", "contact_email": "craftelbangkok@gmail.com", "status": 1, "source_type": 1, "numberReviews": 16}, {"name": "Mr.2 Hostel & Cafe", "type": "hotel", "image": "https://dynamic-media-cdn.tripadvisor.com/media/photo-o/16/30/91/03/photo5jpg.jpg?w=1000&s=1", "address": "188-190 Samsen Rd Soi 2 Khwaeng Ban Phan Thom, Khet Phra Nakhon, Bangkok 10200 Thailand", "lat": 13.763277, "lng": 100.50009, "ref_id": 15278104, "rating": 5, "num_reviews": 0, "website": "http://www.mr2hostel.com/", "contact_phone": "+66 96 794 9250", "contact_email": "mister2hostel@gmail.com", "status": 1, "source_type": 1, "numberReviews": 10}, {"name": "Bangkok Rama Hotel", "type": "hotel", "image": "https://dynamic-media-cdn.tripadvisor.com/media/photo-o/04/07/4b/05/bangkok-rama-hotel.jpg?w=1000&s=1", "address": "1546 Pattanakarn Road between Pattanakarn 48 and 50, Bangkok 10250 Thailand", "lat": 13.735664, "lng": 100.63251, "ref_id": 429453, "rating": 4, "num_reviews": 0, "website": null, "contact_phone": "+66 2 722 6602", "contact_email": null, "status": 1, "source_type": 1, "numberReviews": 59}, {"name": "The Region Hostel", "type": "hotel", "image": "https://dynamic-media-cdn.tripadvisor.com/media/photo-o/07/33/8e/67/the-region-hostel.jpg?w=1000&s=1", "address": "152 Damrong Rak Road, Khlong Maha Nak, Pomprap Sattuphai, Bangkok 10100 Thailand", "lat": 13.75461, "lng": 100.5108, "ref_id": 5511135, "rating": 4, "num_reviews": 0, "website": null, "contact_phone": null, "contact_email": null, "status": 1, "source_type": 1, "numberReviews": 41}, {"name": "Hostel Na Nara", "type": "hotel", "image": "https://dynamic-media-cdn.tripadvisor.com/media/photo-s/01/1b/34/98/room.jpg?w=1000&s=1", "address": "72-74 Narathiwasratchanakarin Road Silom, Bangrak, Bangkok 10500 Thailand", "lat": 13.724471, "lng": 100.52859, "ref_id": 952163, "rating": 3.5, "num_reviews": 0, "website": null, "contact_phone": "+66 2 635 0169", "contact_email": null, "status": 1, "source_type": 1, "numberReviews": 100}, {"name": "All Night 24 Hours", "type": "hotel", "image": null, "address": "Sahakon 5 Alley Nakniwas Road, Bangkok 10230 Thailand", "lat": 13.810052, "lng": 100.61246, "ref_id": 26530050, "rating": -1, "num_reviews": 0, "website": "https://www.facebook.com/Allnight24Hour?locale=th_TH", "contact_phone": "+66 95 246 9155", "contact_email": null, "status": 1, "source_type": 1, "numberReviews": 0},