[{"name": "Ripailles", "type": "restaurant", "image": "https://dynamic-media-cdn.tripadvisor.com/media/photo-o/1d/8e/52/53/caption.jpg?w=1000&s=1", "address": "40 rue de Lyon, 29200, Brest France", "lat": 48.389847, "lng": -4.49099, "ref_id": 14788214, "rating": 5, "num_reviews": 0, "website": "https://www.facebook.com/Ripailles-601475086889065/", "contact_phone": "+33 2 98 00 75 18", "contact_email": null, "status": 1, "source_type": 1, "numberReviews": 189}, {"name": "La Belle Epoque", "type": "restaurant", "image": "https://dynamic-media-cdn.tripadvisor.com/media/photo-o/1b/fc/dc/95/la-belle-epoque-devant.jpg?w=1000&s=1", "address": "84 rue Auguste Kervern, 29200, Brest France", "lat": 48.403816, "lng": -4.489212, "ref_id": 2414952, "rating": 4.5, "num_reviews": 0, "website": "http://www.labelleepoque-brest.com", "contact_phone": "+33 6 11 04 12 37", "contact_email": "contact@labelleepoquebrest.com", "status": 1, "source_type": 1, "numberReviews": 324}, {"name": "Les Maraichers", "type": "restaurant", "image": "https://dynamic-media-cdn.tripadvisor.com/media/photo-o/0f/4b/0a/b4/photo0jpg.jpg?w=1000&s=1", "address": "56 Rue d'Aiguillon, 29200, Brest France", "lat": 48.387676, "lng": -4.488386, "ref_id": 11711171, "rating": 5, "num_reviews": 0, "website": "https://www.facebook.com/228869830848628", "contact_phone": "+33 2 29 62 79 23", "contact_email": null, "status": 1, "source_type": 1, "numberReviews": 189}, {"name": "Creperie La Chaumine", "type": "restaurant", "image": "https://dynamic-media-cdn.tripadvisor.com/media/photo-o/22/29/33/a2/nouvelle-exposition-harald.jpg?w=1000&s=1", "address": "16 Rue Jean Bart, 29200, Brest France", "lat": 48.385902, "lng": -4.500556, "ref_id": 1870165, "rating": 4.5, "num_reviews": 0, "website": "http://www.lachaumine.bzh/", "contact_phone": "+33 2 98 45 10 70", "contact_email": "", "status": 1, "source_type": 1, "numberReviews": 349}, {"name": "L'Embrun", "type": "restaurant", "image": "https://dynamic-media-cdn.tripadvisor.com/media/photo-o/19/48/de/90/l-embrun.jpg?w=1000&s=1", "address": "48 rue de Lyon, 29200, Brest France", "lat": 48.390087, "lng": -4.491337, "ref_id": 16875284, "rating": 5, "num_reviews": 0, "website": "http://www.lembrunrestaurant.fr", "contact_phone": "+33 2 98 43 08 52", "contact_email": "lembrunrestaurant@gmail.com", "status": 1, "source_type": 1, "numberReviews": 333}, {"name": "Cr\u00eaperie Restaurant Les Cocottes Brest", "type": "restaurant", "image": "https://dynamic-media-cdn.tripadvisor.com/media/photo-o/13/b9/d9/98/la-crepe-la-goinfre-accompagne.jpg?w=1000&s=1", "address": "34 rue Jean Mace, 29200, Brest France", "lat": 48.38695, "lng": -4.488715, "ref_id": 7732066, "rating": 4.5, "num_reviews": 0, "website": "http://www.lescocottes-brest.fr", "contact_phone": "+33 2 56 29 02 04", "contact_email": "lescocottesbrest@gmail.com", "status": 1, "source_type": 1, "numberReviews": 308}, {"name": "Le Coup de Fourchette", "type": "restaurant", "image": "https://dynamic-media-cdn.tripadvisor.com/media/photo-o/18/48/19/23/100-maison-maitre-restaurateur.jpg?w=1000&s=1", "address": "21 Rue de Lyon, 29200, Brest France", "lat": 48.388027, "lng": -4.487295, "ref_id": 7045766, "rating": 4.5, "num_reviews": 0, "website": null, "contact_phone": "+33 2 98 44 04 15", "contact_email": null, "status": 1, "source_type": 1, "numberReviews": 924}, {"name": "Paul Germain", "type": "restaurant", "image": "https://dynamic-media-cdn.tripadvisor.com/media/photo-o/17/1c/15/78/changement-d-adresse.jpg?w=1000&s=1", "address": "6 Rue Jean Baptiste Boussingault, 29200, Brest France", "lat": 48.387665, "lng": -4.488648, "ref_id": 5496208, "rating": 4.5, "num_reviews": 0, "website": "http://www.paul-germain.fr", "contact_phone": "+33 6 14 44 13 93", "contact_email": null, "status": 1, "source_type": 1, "numberReviews": 701}, {"name": "Le M", "type": "restaurant", "image": "https://dynamic-media-cdn.tripadvisor.com/media/photo-o/1b/5a/9f/11/st-pierre.jpg?w=1000&s=1", "address": "22 rue Commandant Drogou, 29200, Brest France", "lat": 48.40412, "lng": -4.49095, "ref_id": 2370453, "rating": 4.5, "num_reviews": 0, "website": "http://www.le-m.fr", "contact_phone": "+33 2 98 47 90 00", "contact_email": "contact@le-m.fr", "status": 1, "source_type": 1, "numberReviews": 500}, {"name": "Creperie du Roi Gradlon", "type": "restaurant", "image": "https://dynamic-media-cdn.tripadvisor.com/media/photo-o/13/ee/68/50/brest-creperie-du-roi.jpg?w=1000&s=1", "address": "19 rue Fautras -, 29200, Brest France", "lat": 48.39052, "lng": -4.491333, "ref_id": 2166193, "rating": 4.5, "num_reviews": 0, "website": "http://www.facebook.com/pages/La-creperie-du-Roi-GRADLON/74070607511", "contact_phone": "+33 2 98 80 17 28", "contact_email": "", "status": 1, "source_type": 1, "numberReviews": 602}, {"name": "L'Atelier Gourmand", "type": "restaurant", "image": "https://dynamic-media-cdn.tripadvisor.com/media/photo-o/1d/69/d3/c6/l-atelier-gourmand.jpg?w=1000&s=1", "address": "33 rue Navarin, 29200, Brest France", "lat": 48.397087, "lng": -4.479146, "ref_id": 3294145, "rating": 4.5, "num_reviews": 0, "website": "https://lateliergourmand.eatbu.com/?fbclid=IwZXh0bgNhZW0CMTAAAR1pATg7JaAgQVh2hpIdC5xYW5yMuWtNzx7m3EGLeRYDbGqXuO6-a6oQF44_aem_AVWNKqj0Ye44vHrOXy6r9YsefoilahSxN1JnjKByATySqq2On3ibIxSzSMWpD30g4x9l0vWuFNnd1ZajoJWID1t_&lang=en", "contact_phone": "+33 2 98 46 95 94", "contact_email": "latelier.gourmand@live.fr", "status": 1, "source_type": 1, "numberReviews": 327}, {"name": "Diwali", "type": "restaurant", "image": "https://dynamic-media-cdn.tripadvisor.com/media/photo-o/07/98/89/57/crepe-normande-et-coupe.jpg?w=1000&s=1", "address": "65 rue Auguste Kervern K\u00e9rinou, 29200, Brest France", "lat": 48.403183, "lng": -4.488889, "ref_id": 2149108, "rating": 4.5, "num_reviews": 0, "website": "http://diwali-brest.fr", "contact_phone": "+33 2 98 46 31 68", "contact_email": "contact@diwali-brest.fr", "status": 1, "source_type": 1, "numberReviews": 369}, {"name": "The Med's Cuisine Anatolienne", "type": "restaurant", "image": "https://dynamic-media-cdn.tripadvisor.com/media/photo-o/1a/de/de/ce/presentation-de-nos-vins.jpg?w=1000&s=1", "address": "40 rue Traverse, 29200, Brest France", "lat": 48.3865, "lng": -4.4919, "ref_id": 20070306, "rating": 5, "num_reviews": 0, "website": "http://www.themeds.fr", "contact_phone": "+33 2 98 80 11 70", "contact_email": "themeds29@gmail.com", "status": 1, "source_type": 1, "numberReviews": 103}, {"name": "La Crepe Flambee", "type": "restaurant", "image": "https://dynamic-media-cdn.tripadvisor.com/media/photo-o/0b/b4/ff/fe/photo1jpg.jpg?w=1000&s=1", "address": "3 rue Saint-Sa\u00ebns, 29200, Brest France", "lat": 48.39118, "lng": -4.482646, "ref_id": 2190788, "rating": 4.5, "num_reviews": 0, "website": "http://www.facebook.com/A-la-cr%C3%AApe-flamb%C3%A9e-578911858789767", "contact_phone": "+33 2 98 44 00 32", "contact_email": null, "status": 1, "source_type": 1, "numberReviews": 284}, {"name": "L'Auberge de la Crepe", "type": "restaurant", "image": "https://dynamic-media-cdn.tripadvisor.com/media/photo-o/0f/ef/64/35/l-auberge-de-la-crepe.jpg?w=1000&s=1", "address": "142 rue Jean Jaures, 29200, Brest France", "lat": 48.39647, "lng": -4.476583, "ref_id": 1511512, "rating": 4.5, "num_reviews": 0, "website": "http://www.facebook.com/pages/L-Auberge-de-La-Crepe/225734907442475", "contact_phone": "+33 2 98 46 47 30", "contact_email": "", "status": 1, "source_type": 1, "numberReviews": 285}, {"name": "Le Mont Liban", "type": "restaurant", "image": "https://dynamic-media-cdn.tripadvisor.com/media/photo-o/07/07/70/3b/depaysement-garanti-decor.jpg?w=1000&s=1", "address": "8 Place de la Liberte, 29200, Brest France", "lat": 48.39139, "lng": -4.485932, "ref_id": 1329208, "rating": 4.5, "num_reviews": 0, "website": "http://lemontliban.com/", "contact_phone": "+33 2 98 80 12 76", "contact_email": null, "status": 1, "source_type": 1, "numberReviews": 397}, {"name": "Jardin d'Hiver", "type": "restaurant", "image": "https://dynamic-media-cdn.tripadvisor.com/media/photo-o/19/f3/8a/7b/caption.jpg?w=1000&s=1", "address": "7 rue Amiral Linois, 29200, Brest France", "lat": 48.385868, "lng": -4.490418, "ref_id": 18940889, "rating": 4.5, "num_reviews": 0, "website": "http://jardin-hiver.fr/", "contact_phone": "+33 9 85 60 88 29", "contact_email": "contact@jardin-hiver.fr", "status": 1, "source_type": 1, "numberReviews": 222}, {"name": "Restaurant Les Ptites Recettes", "type": "restaurant", "image": "https://dynamic-media-cdn.tripadvisor.com/media/photo-o/11/ca/6b/9a/vue-de-la-grande-salle.jpg?w=1000&s=1", "address": "40 Rue du Ch\u00e2teau, 29200, Brest France", "lat": 48.38704, "lng": -4.486445, "ref_id": 4699880, "rating": 4.5, "num_reviews": 0, "website": "https://lesptitesrecettes-brest.fr/", "contact_phone": "+33 2 98 44 27 54", "contact_email": null, "status": 1, "source_type": 1, "numberReviews": 540}, {"name": "le crabe-marteau", "type": "restaurant", "image": "https://dynamic-media-cdn.tripadvisor.com/media/photo-o/0c/62/03/46/img-20160804-210111-largejpg.jpg?w=1000&s=1", "address": "8 quai de la Douane, 29200, Brest France", "lat": 48.381798, "lng": -4.487431, "ref_id": 982494, "rating": 4, "num_reviews": 0, "website": "http://crabemarteau.free.fr/", "contact_phone": "+33 2 98 33 38 57", "contact_email": "brest@crabemarteau.fr", "status": 1, "source_type": 1, "numberReviews": 1280}, {"name": "Signare", "type": "restaurant", "image": "https://dynamic-media-cdn.tripadvisor.com/media/photo-o/0e/a2/11/bc/photo0jpg.jpg?w=1000&s=1", "address": "1 rue Kerfautras, 29200, Brest France", "lat": 48.397095, "lng": -4.476112, "ref_id": 4542302, "rating": 4.5, "num_reviews": 0, "website": null, "contact_phone": null, "contact_email": null, "status": 1, "source_type": 1, "numberReviews": 211}, {"name": "Le Bouche A Oreille", "type": "restaurant", "image": "https://dynamic-media-cdn.tripadvisor.com/media/photo-o/2b/9f/59/b0/le-get-27-revisite-charlotte.jpg?w=1000&s=1", "address": "10 rue Massillon, 29200, Brest France", "lat": 48.396255, "lng": -4.480576, "ref_id": 1845502, "rating": 4.5, "num_reviews": 0, "website": "http://leboucheaoreillebrest.com", "contact_phone": "+33 9 51 80 62 68", "contact_email": "", "status": 1, "source_type": 1, "numberReviews": 393}, {"name": "Le Ruffe", "type": "restaurant", "image": "https://dynamic-media-cdn.tripadvisor.com/media/photo-o/25/21/d2/12/salle.jpg?w=1000&s=1", "address": "1 Bis rue Yves Collet, 29200, Brest France", "lat": 48.389004, "lng": -4.483609, "ref_id": 1329211, "rating": 4, "num_reviews": 0, "website": "http://www.le-ruffe.com/", "contact_phone": "+33 2 98 46 07 70", "contact_email": "le-ruffe@wanadoo.fr", "status": 1, "source_type": 1, "numberReviews": 900}, {"name": "Le Remorkeur", "type": "restaurant", "image": "https://dynamic-media-cdn.tripadvisor.com/media/photo-o/19/58/7a/60/img-20190907-235611-largejpg.jpg?w=1000&s=1", "address": "2 Bis Quai De La Douane, 29200, Brest France", "lat": 48.38144, "lng": -4.488315, "ref_id": 15053090, "rating": 4, "num_reviews": 0, "website": "http://leremorkeur.fr", "contact_phone": "+33 2 98 25 08 40", "contact_email": "leremorkeur@gmail.com", "status": 1, "source_type": 1, "numberReviews": 358}, {"name": "Tha\u00ef Phuket", "type": "restaurant", "image": "https://dynamic-media-cdn.tripadvisor.com/media/photo-o/0e/94/44/55/photo0jpg.jpg?w=1000&s=1", "address": "23 rue de la 2e Db, 29200, Brest France", "lat": 48.392605, "lng": -4.483714, "ref_id": 7356940, "rating": 4, "num_reviews": 0, "website": "http://www.thaiphuket.fr", "contact_phone": "+33 2 98 43 00 00", "contact_email": null, "status": 1, "source_type": 1, "numberReviews": 806}, {"name": "La Maison de l'Ocean", "type": "restaurant", "image": "https://dynamic-media-cdn.tripadvisor.com/media/photo-o/0f/83/3b/a5/gourmandise-de-homard.jpg?w=1000&s=1", "address": "2 Quai de La Douane, 29200, Brest France", "lat": 48.381584, "lng": -4.488078, "ref_id": 1788564, "rating": 4, "num_reviews": 0, "website": "https://www.restaurant-fruit-mer-brest.com/", "contact_phone": "+33 2 98 80 44 84", "contact_email": "", "status": 1, "source_type": 1, "numberReviews": 1943}, {"name": "Mac Guigan's", "type": "restaurant", "image": "https://dynamic-media-cdn.tripadvisor.com/media/photo-o/14/42/12/db/photo3jpg.jpg?w=1000&s=1", "address": "9 rue Jean Marie le Bris, 29200, Brest France", "lat": 48.382187, "lng": -4.487717, "ref_id": 1954590, "rating": 4.5, "num_reviews": 0, "website": "http://www.mcguigans.fr/", "contact_phone": "+33 2 98 44 41 69", "contact_email": null, "status": 1, "source_type": 1, "numberReviews": 188}, {"name": "Le Garde Manger", "type": "restaurant", "image": "https://dynamic-media-cdn.tripadvisor.com/media/photo-o/1d/6f/b9/0d/caption.jpg?w=1000&s=1", "address": "32 rue Jean Mace, 29200, Brest France", "lat": 48.389088, "lng": -4.487765, "ref_id": 23535701, "rating": 4.5, "num_reviews": 0, "website": "https://www.facebook.com/105181018255123", "contact_phone": "+33 6 67 92 65 31", "contact_email": "legardemangerbrest@gmail.com", "status": 1, "source_type": 1, "numberReviews": 86}, {"name": "Le Tripura", "type": "restaurant", "image": "https://dynamic-media-cdn.tripadvisor.com/media/photo-o/0e/a3/b7/1f/salle.jpg?w=1000&s=1", "address": "61 rue Louis Pasteur, 29200, Brest France", "lat": 48.389454, "lng": -4.488775, "ref_id": 8508347, "rating": 4.5, "num_reviews": 0, "website": "http://www.letripura.fr", "contact_phone": "+33 2 98 89 48 26", "contact_email": "guruclamart@yahoo.com", "status": 1, "source_type": 1, "numberReviews": 258}, {"name": "Le So Metiss'", "type": "restaurant", "image": "https://dynamic-media-cdn.tripadvisor.com/media/photo-o/1b/9d/5b/4a/voici-le-bougainvillier.jpg?w=1000&s=1", "address": "2 B rue Turenne, 29200, Brest France", "lat": 48.396477, "lng": -4.47702, "ref_id": 21131285, "rating": 5, "num_reviews": 0, "website": "http://www.sometiss.fr/", "contact_phone": "+33 2 98 43 37 30", "contact_email": null, "status": 1, "source_type": 1, "numberReviews": 48}, {"name": "Aux tours du Ch\u00e2teau", "type": "restaurant", "image": "https://dynamic-media-cdn.tripadvisor.com/media/photo-o/0e/dc/3c/b5/steak-de-thon-a-chair.jpg?w=1000&s=1", "address": "3 Boulevard Des Francais Libres, 29200, Brest France", "lat": 48.38378, "lng": -4.493869, "ref_id": 2632349, "rating": 4, "num_reviews": 0, "website": "https://www.restaurant-auxtoursduchateau.fr/", "contact_phone": "+33 2 98 80 43 47", "contact_email": "", "status": 1, "source_type": 1, "numberReviews": 624}, {"name": "La Casa de Joao", "type": "restaurant", "image": "https://dynamic-media-cdn.tripadvisor.com/media/photo-o/0e/7f/c2/86/filet-mignon-de-porc.jpg?w=1000&s=1", "address": "6 rue Claude Farrere, 29200, Brest France", "lat": 48.41622, "lng": -4.49172, "ref_id": 9604397, "rating": 4.5, "num_reviews": 0, "website": null, "contact_phone": "+33 9 83 28 43 88", "contact_email": null, "status": 1, "source_type": 1, "numberReviews": 33}, {"name": "La Mangeoire", "type": "restaurant", "image": "https://dynamic-media-cdn.tripadvisor.com/media/photo-o/19/db/c9/9e/la-mangeoire.jpg?w=1000&s=1", "address": "7 rue de l Eau Blanche, 29200, Brest France", "lat": 48.410984, "lng": -4.457082, "ref_id": 5801206, "rating": 4.5, "num_reviews": 0, "website": "https://www.facebook.com/620378717972640", "contact_phone": "+33 2 98 02 35 24", "contact_email": null, "status": 1, "source_type": 1, "numberReviews": 35}, {"name": "L'alvida", "type": "restaurant", "image": "https://dynamic-media-cdn.tripadvisor.com/media/photo-o/09/a0/c4/1f/photo0jpg.jpg?w=1000&s=1", "address": "6 quai de la Douane, 29200, Brest France", "lat": 48.38172, "lng": -4.487547, "ref_id": 7814961, "rating": 3.5, "num_reviews": 0, "website": "https://www.facebook.com/202553916561048", "contact_phone": "+33 2 98 41 64 55", "contact_email": "avilda@hotmail.fr", "status": 1, "source_type": 1, "numberReviews": 168}, {"name": "Restaurant Istanbul", "type": "restaurant", "image": "https://dynamic-media-cdn.tripadvisor.com/media/photo-o/0e/18/a2/02/20170108-124932-largejpg.jpg?w=1000&s=1", "address": "144 rue Jean Jaures, 29200, Brest France", "lat": 48.39653, "lng": -4.47647, "ref_id": 5798051, "rating": 4.5, "num_reviews": 0, "website": "http://www.facebook.com/musesen", "contact_phone": "+33 9 53 20 03 57", "contact_email": null, "status": 1, "source_type": 1, "numberReviews": 51}, {"name": "Meat Couture", "type": "restaurant", "image": "https://dynamic-media-cdn.tripadvisor.com/media/photo-o/0d/14/1c/95/20160818-130329-largejpg.jpg?w=1000&s=1", "address": "6 rue de la Porte, 29200, Brest France", "lat": 48.384045, "lng": -4.497944, "ref_id": 8363302, "rating": 4.5, "num_reviews": 0, "website": "https://www.facebook.com/pages/MeatCouture/555732847859487", "contact_phone": "+33 9 81 00 62 03", "contact_email": "meatcouture@gmail.com", "status": 1, "source_type": 1, "numberReviews": 90}, {"name": "Au Fil des Crepes", "type": "restaurant", "image": "https://dynamic-media-cdn.tripadvisor.com/media/photo-o/10/82/9f/36/entree-dans-une-crepe.jpg?w=1000&s=1", "address": "130 rue Amiral Jurien de la Graviere, 29200, Brest France", "lat": 48.385864, "lng": -4.479456, "ref_id": 4156171, "rating": 4, "num_reviews": 0, "website": "https://www.facebook.com/Au-fil-des-cr%C3%AApes-Brest-245319875576813/", "contact_phone": "+33 2 98 80 21 09", "contact_email": "aufildescrepes@live.fr", "status": 1, "source_type": 1, "numberReviews": 100}, {"name": "Restaurant Pizzeria Da Franco Grill", "type": "restaurant", "image": "https://dynamic-media-cdn.tripadvisor.com/media/photo-o/0b/f7/f8/b2/photo2jpg.jpg?w=1000&s=1", "address": "9 avenue Baron Lacrosse, 29200, Brest France", "lat": 48.42874, "lng": -4.461114, "ref_id": 825547, "rating": 4, "num_reviews": 0, "website": "http://www.restaurant-dafranco.fr/", "contact_phone": "+33 2 98 02 13 36", "contact_email": "dafrancobrest@hotmail.fr", "status": 1, "source_type": 1, "numberReviews": 132}, {"name": "Chez m\u00e9m\u00e9", "type": "restaurant", "image": "https://dynamic-media-cdn.tripadvisor.com/media/photo-o/2a/c9/26/3f/caption.jpg?w=1000&s=1", "address": "215 Rue De Gouesnou, 29200, Brest France", "lat": 48.389088, "lng": -4.487765, "ref_id": 25419287, "rating": 5, "num_reviews": 0, "website": null, "contact_phone": "+33 2 98 36 83 89", "contact_email": "creperiechezmeme@gmail.com", "status": 1, "source_type": 1, "numberReviews": 13}, {"name": "Fuxia", "type": "restaurant", "image": "https://dynamic-media-cdn.tripadvisor.com/media/photo-o/21/e7/cf/89/fuxia-brest-port-de-co.jpg?w=1000&s=1", "address": "42 quai de la Douane, 29200, Brest France", "lat": 48.383057, "lng": -4.483318, "ref_id": 2341661, "rating": 3.5, "num_reviews": 0, "website": "http://fuxia.fr/", "contact_phone": "+33 2 98 25 01 68", "contact_email": "brest@fuxia.fr", "status": 1, "source_type": 1, "numberReviews": 349}, {"name": "Au p\u2019ty Lyonnais", "type": "restaurant", "image": "https://dynamic-media-cdn.tripadvisor.com/media/photo-o/13/2b/7d/74/getlstd-property-photo.jpg?w=1000&s=1", "address": "44 rue de Lyon, 29200, Brest France", "lat": 48.38997, "lng": -4.4912, "ref_id": 14157552, "rating": 4, "num_reviews": 0, "website": "https://www.facebook.com/LeJardinpartageBrest/", "contact_phone": "+33 9 83 45 42 16", "contact_email": null, "status": 1, "source_type": 1, "numberReviews": 59}, {"name": "Annapurna", "type": "restaurant", "image": "https://dynamic-media-cdn.tripadvisor.com/media/photo-o/15/25/8a/e5/decoration-murale.jpg?w=1000&s=1", "address": "7 rue de l Eau Blanche, 29200, Brest France", "lat": 48.411068, "lng": -4.456954, "ref_id": 12967542, "rating": 4, "num_reviews": 0, "website": "http://www.annapurna-brest.fr", "contact_phone": "+33 2 98 48 70 34", "contact_email": "guruclamart@yahoo.com", "status": 1, "source_type": 1, "numberReviews": 92}, {"name": "Le Maroc", "type": "restaurant", "image": "https://dynamic-media-cdn.tripadvisor.com/media/photo-o/1c/1c/f8/26/le-maroc.jpg?w=1000&s=1", "address": "44 rue Amiral Linois, 29200, Brest France", "lat": 48.38602, "lng": -4.4905, "ref_id": 17712758, "rating": 4.5, "num_reviews": 0, "website": null, "contact_phone": "+33 2 98 46 63 62", "contact_email": null, "status": 1, "source_type": 1, "numberReviews": 32}, {"name": "Le Trimaran", "type": "restaurant", "image": "https://dynamic-media-cdn.tripadvisor.com/media/photo-o/1b/de/b1/5c/photo3jpg.jpg?w=1000&s=1", "address": "24 rue Eugene Berest, 29200, Brest France", "lat": 48.395657, "lng": -4.434772, "ref_id": 10247450, "rating": 4, "num_reviews": 0, "website": "https://www.facebook.com/Le-Trimaran-927107227342800/", "contact_phone": "+33 2 98 02 01 32", "contact_email": null, "status": 1, "source_type": 1, "numberReviews": 138}, {"name": "cr\u00eapes & cakes", "type": "restaurant", "image": "https://dynamic-media-cdn.tripadvisor.com/media/photo-o/0f/72/2d/ab/deco-branchee-originale.jpg?w=1000&s=1", "address": "7 rue Frezier, 29200, Brest France", "lat": 48.392117, "lng": -4.484844, "ref_id": 7114443, "rating": 3.5, "num_reviews": 0, "website": "http://Www.crepesandcakes.fr", "contact_phone": "+33 2 98 41 96 15", "contact_email": null, "status": 1, "source_type": 1, "numberReviews": 158}, {"name": "Maharaja Brest", "type": "restaurant", "image": "https://dynamic-media-cdn.tripadvisor.com/media/photo-o/28/38/73/1b/1.jpg?w=1000&s=1", "address": "2 Rue du 2\u00c9ME R.I.C., 29200, Brest France", "lat": 48.390415, "lng": -4.492935, "ref_id": 25277430, "rating": 5, "num_reviews": 0, "website": "www.maharaja-brest.fr", "contact_phone": "+33 2 98 43 00 91", "contact_email": "maharaja.brest@gmail.com", "status": 1, "source_type": 1, "numberReviews": 12}, {"name": "OFFSIDE BAY", "type": "restaurant", "image": "https://dynamic-media-cdn.tripadvisor.com/media/photo-o/1c/de/5c/de/country-burger.jpg?w=1000&s=1", "address": "4 rue de Siam, 29200, Brest France", "lat": 48.384884, "lng": -4.493884, "ref_id": 10323600, "rating": 3.5, "num_reviews": 0, "website": "http://www.offsidebay.com", "contact_phone": "+33 2 29 63 09 71", "contact_email": "offsidebay29@gmail.com", "status": 1, "source_type": 1, "numberReviews": 282}, {"name": "Creperie Ble Noir", "type": "restaurant", "image": "https://dynamic-media-cdn.tripadvisor.com/media/photo-o/13/59/70/44/photo-8.jpg?w=1000&s=1", "address": "40 Route du Stang alar Vallon du Stang Alar, 29200, Brest France", "lat": 48.40814, "lng": -4.449686, "ref_id": 2687812, "rating": 3.5, "num_reviews": 0, "website": "http://www.blenoirbrest.com", "contact_phone": "+33 2 98 41 84 67", "contact_email": "vallon@blenoir.com", "status": 1, "source_type": 1, "numberReviews": 359}, {"name": "Cocorico", "type": "restaurant", "image": "https://dynamic-media-cdn.tripadvisor.com/media/photo-o/21/ad/06/9d/cocorico.jpg?w=1000&s=1", "address": "1 rue Jean Marie le Bris, 29200, Brest France", "lat": 48.38177, "lng": -4.489027, "ref_id": 23805614, "rating": 4, "num_reviews": 0, "website": "http://cocorico.bar", "contact_phone": "+33 2 57 52 50 80", "contact_email": "contact@cocorico.bar", "status": 1, "source_type": 1, "numberReviews": 35}, {"name": "Le Marie Louise", "type": "restaurant", "image": "https://dynamic-media-cdn.tripadvisor.com/media/photo-o/2a/d1/09/60/la-terrasse-couverte.jpg?w=1000&s=1", "address": "Port du Moulin blanc, 29200, Brest France", "lat": 48.391613, "lng": -4.435704, "ref_id": 26836564, "rating": 4.5, "num_reviews": 0, "website": null, "contact_phone": "+33 2 98 42 49 21", "contact_email": null, "status": 1, "source_type": 1, "numberReviews": 19}, {"name": "New Delhi", "type": "restaurant", "image": "https://dynamic-media-cdn.tripadvisor.com/media/photo-o/19/0b/87/c9/photo0jpg.jpg?w=1000&s=1", "address": "18 rue de Siam, 29200, Brest France", "lat": 48.38541, "lng": -4.492824, "ref_id": 10293109, "rating": 4, "num_reviews": 0, "website": "https://www.facebook.com/315658832101633", "contact_phone": "+33 2 98 80 72 50", "contact_email": null, "status": 1, "source_type": 1, "numberReviews": 91}, {"name": "La Maison des mets", "type": "restaurant", "image": "https://dynamic-media-cdn.tripadvisor.com/media/photo-o/2b/b8/85/79/caption.jpg?w=1000&s=1", "address": "35 Place Des Fusill\u00e9s, 29850 Gouesnou, Brest France", "lat": 48.450985, "lng": -4.46623, "ref_id": 26167172, "rating": 5, "num_reviews": 0, "website": "http://www.la-maison-des-mets.com", "contact_phone": "+33 2 98 37 95 47", "contact_email": "lamaisondesmets29@gmail.com", "status": 1, "source_type": 1, "numberReviews": 11}, {"name": "La Maison Blanche", "type": "restaurant", "image": "https://dynamic-media-cdn.tripadvisor.com/media/photo-o/21/a2/cd/9b/caption.jpg?w=1000&s=1", "address": "2840 Route De Sainte-anne-du-portzic, 29200, Brest France", "lat": 48.36353, "lng": -4.53106, "ref_id": 10746901, "rating": 4.5, "num_reviews": 0, "website": "https://www.facebook.com/108202457337734", "contact_phone": "+33 2 98 28 46 54", "contact_email": "lmbrecrutement@hotmail.com", "status": 1, "source_type": 1, "numberReviews": 21}, {"name": "L'Etage RESTAURANT", "type": "restaurant", "image": "https://dynamic-media-cdn.tripadvisor.com/media/photo-o/19/18/1b/20/le-logo.jpg?w=1000&s=1", "address": "15 avenue Georges Clemenceau, 29200, Brest France", "lat": 48.389156, "lng": -4.483949, "ref_id": 18716594, "rating": 4, "num_reviews": 0, "website": "http://www.facebook.com/letagebyolivierbellin/", "contact_phone": "+33 2 98 80 25 73", "contact_email": "etage.restaurant.brest@gmail.com", "status": 1, "source_type": 1, "numberReviews": 77}, {"name": "L'Imp\u00e9riale", "type": "restaurant", "image": "https://dynamic-media-cdn.tripadvisor.com/media/photo-o/07/52/eb/8e/tres-belle-vitrine.jpg?w=1000&s=1", "address": "5 rue Comtesse de Carbonnieres, 29200, Brest France", "lat": 48.39031, "lng": -4.48435, "ref_id": 7368543, "rating": 4.5, "num_reviews": 0, "website": "https://www.facebook.com/LImp%C3%A9riale-BREST-270886010415691/?modal=admin_todo_tour", "contact_phone": "+33 2 98 46 55 36", "contact_email": null, "status": 1, "source_type": 1, "numberReviews": 36}, {"name": "Pizza Regal", "type": "restaurant", "image": "https://dynamic-media-cdn.tripadvisor.com/media/photo-o/06/dc/ec/ec/pizza-regal.jpg?w=1000&s=1", "address": "79 rue de la Porte 79 Rue De La Porte, 29200, Brest France", "lat": 48.38404, "lng": -4.50421, "ref_id": 4738503, "rating": 4.5, "num_reviews": 0, "website": "http://pizzaregalbrest.canalblog.com", "contact_phone": "+33 2 98 45 01 23", "contact_email": null, "status": 1, "source_type": 1, "numberReviews": 30}, {"name": "Les Trois Bonheurs", "type": "restaurant", "image": "https://dynamic-media-cdn.tripadvisor.com/media/photo-o/0e/a0/46/25/les-trois-bonheurs.jpg?w=1000&s=1", "address": "9 rue Benjamin Delessert, 29200, Brest France", "lat": 48.38672, "lng": -4.48617, "ref_id": 10696004, "rating": 4.5, "num_reviews": 0, "website": null, "contact_phone": "+33 2 98 44 87 70", "contact_email": null, "status": 1, "source_type": 1, "numberReviews": 34}, {"name": "La Poke Du Port", "type": "restaurant", "image": "https://dynamic-media-cdn.tripadvisor.com/media/photo-o/22/53/de/24/caption.jpg?w=1000&s=1", "address": "1 rue de Narvik, 29200, Brest France", "lat": 48.383194, "lng": -4.483804, "ref_id": 23649674, "rating": 5, "num_reviews": 0, "website": "http://www.lapoke.fr", "contact_phone": "+33 6 75 77 81 62", "contact_email": "lapokeduport@gmail.com", "status": 1, "source_type": 1, "numberReviews": 10}, {"name": "La Tentation Des Mets", "type": "restaurant", "image": null, "address": "2 Rue De L'observatoire, 29200, Brest France", "lat": 48.39239, "lng": -4.492, "ref_id": 27453944, "rating": 5, "num_reviews": 0, "website": "https://www.instagram.com/latentationdesmets", "contact_phone": "+33 2 98 85 22 72", "contact_email": null, "status": 1, "source_type": 1, "numberReviews": 9}, {"name": "L'Oustal", "type": "restaurant", "image": null, "address": "29 rue d Aiguillon, 29200, Brest France", "lat": 48.38642, "lng": -4.48982, "ref_id": 12862735, "rating": 5, "num_reviews": 0, "website": "https://www.facebook.com/loustalbrest/", "contact_phone": "+33 2 29 63 62 41", "contact_email": null, "status": 1, "source_type": 1, "numberReviews": 21}, {"name": "Restaurant Le Vauban", "type": "restaurant", "image": "https://dynamic-media-cdn.tripadvisor.com/media/photo-o/29/c2/75/10/salle-de-restaurant.jpg?w=1000&s=1", "address": "17 Av. Georges Clemenceau, 29200, Brest France", "lat": 48.39228, "lng": -4.49014, "ref_id": 18218436, "rating": 4, "num_reviews": 0, "website": "https://www.hotelvauban.fr/", "contact_phone": "+33 2 98 46 06 88", "contact_email": "resa@espacevauban.com", "status": 1, "source_type": 1, "numberReviews": 21}, {"name": "L'atelier Du Boucher", "type": "restaurant", "image": null, "address": "7 boulevard Leon Blum, 29200, Brest France", "lat": 48.40244, "lng": -4.483859, "ref_id": 23033636, "rating": 5, "num_reviews": 0, "website": "http://www.facebook.com/pages/category/Local-Business/Latelier-du-boucher-1907124032928604/", "contact_phone": "+33 2 98 41 78 54", "contact_email": null, "status": 1, "source_type": 1, "numberReviews": 4}, {"name": "Le Resto des Amis", "type": "restaurant", "image": "https://dynamic-media-cdn.tripadvisor.com/media/photo-o/18/60/f2/e7/photo2jpg.jpg?w=1000&s=1", "address": "119 rue de Gouesnou, 29200, Brest France", "lat": 48.41248, "lng": -4.46835, "ref_id": 5957258, "rating": 4.5, "num_reviews": 0, "website": "https://www.facebook.com/lerestodesamis", "contact_phone": "+33 2 98 41 41 59", "contact_email": null, "status": 1, "source_type": 1, "numberReviews": 9}, {"name": "Monument Cafe", "type": "restaurant", "image": "https://dynamic-media-cdn.tripadvisor.com/media/photo-o/12/34/4f/92/20180301-144824-largejpg.jpg?w=1000&s=1", "address": "50 rue des Mouettes, 29200, Brest France", "lat": 48.386047, "lng": -4.436324, "ref_id": 12321117, "rating": 3.5, "num_reviews": 0, "website": "https://www.mocafe-brest.com/", "contact_phone": "+33 2 98 01 04 27", "contact_email": "contact@mocafe-brest.com", "status": 1, "source_type": 1, "numberReviews": 80}, {"name": "La c\u00f4te et l'arete", "type": "restaurant", "image": "https://dynamic-media-cdn.tripadvisor.com/media/photo-o/2b/b2/52/5a/caption.jpg?w=1000&s=1", "address": "Route de Gouesnou, 29200, Brest France", "lat": 48.422523, "lng": -4.467765, "ref_id": 27183302, "rating": 4, "num_reviews": 0, "website": null, "contact_phone": null, "contact_email": null, "status": 1, "source_type": 1, "numberReviews": 15}, {"name": "Casa Havana", "type": "restaurant", "image": "https://dynamic-media-cdn.tripadvisor.com/media/photo-o/13/9c/a3/d1/brest-casa-havana-interior.jpg?w=1000&s=1", "address": "2 rue de Siam, 29200, Brest France", "lat": 48.384727, "lng": -4.49401, "ref_id": 1327999, "rating": 3.5, "num_reviews": 0, "website": "http://www.casa-havana.fr/", "contact_phone": "+33 2 98 80 42 87", "contact_email": "", "status": 1, "source_type": 1, "numberReviews": 126}, {"name": "Poutinebros Brest", "type": "restaurant", "image": "https://dynamic-media-cdn.tripadvisor.com/media/photo-o/2b/27/4a/b8/poutines-i-burgers-i.jpg?w=1000&s=1", "address": "6 rue de Siam, 29200, Brest France", "lat": 47.998566, "lng": -4.093255, "ref_id": 24999242, "rating": 4, "num_reviews": 0, "website": "www.poutinebros.com", "contact_phone": "+33 2 29 63 02 45", "contact_email": "christophe@poutinebros.com", "status": 1, "source_type": 1, "numberReviews": 12}, {"name": "Le Central", "type": "restaurant", "image": "https://dynamic-media-cdn.tripadvisor.com/media/photo-o/12/6b/62/84/le-central.jpg?w=1000&s=1", "address": "41 rue de Lyon, 29200, Brest France", "lat": 48.38898, "lng": -4.48904, "ref_id": 13864467, "rating": 4.5, "num_reviews": 0, "website": null, "contact_phone": "+33 2 98 44 38 67", "contact_email": null, "status": 1, "source_type": 1, "numberReviews": 6}, {"name": "Le Biorek Brestois", "type": "restaurant", "image": "https://dynamic-media-cdn.tripadvisor.com/media/photo-o/2a/d5/ea/e0/la-decoration-soignee.jpg?w=1000&s=1", "address": "20 rue Charles Berthelot, 29200, Brest France", "lat": 48.396667, "lng": -4.481353, "ref_id": 24097544, "rating": 5, "num_reviews": 0, "website": "http://lebiorekbrestois.webador.fr/", "contact_phone": "+33 2 21 74 84 58", "contact_email": null, "status": 1, "source_type": 1, "numberReviews": 3}, {"name": "Aux 3 Viandes", "type": "restaurant", "image": null, "address": "48 rue Robespierre, 29200, Brest France", "lat": 48.41103, "lng": -4.4909, "ref_id": 1327996, "rating": 4, "num_reviews": 0, "website": "https://www.facebook.com/aux3viandes/", "contact_phone": "+33 2 98 37 83 52", "contact_email": "", "status": 1, "source_type": 1, "numberReviews": 17}, {"name": "Miss Yu", "type": "restaurant", "image": null, "address": "27 rue d'Aiguillon, 29200 BREST, Brest France", "lat": 48.386364, "lng": -4.48946, "ref_id": 27102084, "rating": 4, "num_reviews": 0, "website": null, "contact_phone": null, "contact_email": null, "status": 1, "source_type": 1, "numberReviews": 5}, {"name": "Gringo's Cafe", "type": "restaurant", "image": "https://dynamic-media-cdn.tripadvisor.com/media/photo-o/1a/f9/ea/0e/20200222-204713-largejpg.jpg?w=1000&s=1", "address": "16 rue de Siam, 29200, Brest France", "lat": 48.385456, "lng": -4.493281, "ref_id": 19844867, "rating": 3.5, "num_reviews": 0, "website": "https://www.facebook.com/Gringos-Caf%C3%A9-104592377715956/", "contact_phone": "+33 2 21 09 10 77", "contact_email": null, "status": 1, "source_type": 1, "numberReviews": 25}, {"name": "Restaurant Le 247", "type": "restaurant", "image": "https://dynamic-media-cdn.tripadvisor.com/media/photo-o/1c/54/34/51/restaurant-le-247.jpg?w=1000&s=1", "address": "247 rue du General Paulet, 29200, Brest France", "lat": 48.425453, "lng": -4.476818, "ref_id": 4870837, "rating": 3.5, "num_reviews": 0, "website": "http://www.europe-hotel-brest.fr/", "contact_phone": "+33 2 98 20 05 00", "contact_email": "contact@europe-hotel-brest.fr", "status": 1, "source_type": 1, "numberReviews": 22}, {"name": "Roast It", "type": "restaurant", "image": "https://dynamic-media-cdn.tripadvisor.com/media/photo-o/23/b8/bb/75/le-restaurant.jpg?w=1000&s=1", "address": "25 rue Remy Coppin, 29200, Brest France", "lat": 48.39385, "lng": -4.493737, "ref_id": 24032544, "rating": 4.5, "num_reviews": 0, "website": "http://www.roastit.fr", "contact_phone": "+33 2 30 99 96 19", "contact_email": "brest@roastit.fr", "status": 1, "source_type": 1, "numberReviews": 3}, {"name": "Les Pissenlits par La Racine", "type": "restaurant", "image": "https://dynamic-media-cdn.tripadvisor.com/media/photo-o/13/c2/36/0f/brest-les-pissenlits.jpg?w=1000&s=1", "address": "30 rue Massillon A Cote du Fleuriste du Meme Nom, 29200, Brest France", "lat": 48.39703, "lng": -4.47944, "ref_id": 9788096, "rating": 4, "num_reviews": 0, "website": "http://www.lespissenlitsparlaracine.fr/", "contact_phone": "+33 2 98 44 20 11", "contact_email": null, "status": 1, "source_type": 1, "numberReviews": 12}, {"name": "Arena Brasserie Sportive", "type": "restaurant", "image": "https://dynamic-media-cdn.tripadvisor.com/media/photo-o/11/40/4d/93/burger-double-steak.jpg?w=1000&s=1", "address": "Port du Chateau 195 Quai Eric Tabarly, 29200, Brest France", "lat": 48.379887, "lng": -4.491324, "ref_id": 6616712, "rating": 3.5, "num_reviews": 0, "website": "http://www.facebook.com/larenacafe", "contact_phone": "+33 2 98 03 18 26", "contact_email": "reservation.arena@gmail.com", "status": 1, "source_type": 1, "numberReviews": 230}, {"name": "Bibim Cor\u00e9en", "type": "restaurant", "image": "https://dynamic-media-cdn.tripadvisor.com/media/photo-o/28/9f/9d/f7/ramen.jpg?w=1000&s=1", "address": "44 Rue Jean Mac\u00e9, 29200, Brest France", "lat": 48.38733, "lng": -4.48941, "ref_id": 25401983, "rating": 4, "num_reviews": 0, "website": "www.bibimcoreen.com", "contact_phone": "+33 9 88 31 33 79", "contact_email": "foodbibimbap@gmail.com", "status": 1, "source_type": 1, "numberReviews": 8}, {"name": "Chez Carmine", "type": "restaurant", "image": "https://dynamic-media-cdn.tripadvisor.com/media/photo-o/05/fd/78/7a/chez-carmine.jpg?w=1000&s=1", "address": "4 rue Louis Pasteur, 29200, Brest France", "lat": 48.3864, "lng": -4.4926, "ref_id": 6453821, "rating": 3.5, "num_reviews": 0, "website": null, "contact_phone": "+33 2 98 80 03 13", "contact_email": null, "status": 1, "source_type": 1, "numberReviews": 41}, {"name": "La mangeoire", "type": "restaurant", "image": null, "address": "Brest France", "lat": null, "lng": null, "ref_id": 4509050, "rating": 4.5, "num_reviews": 0, "website": null, "contact_phone": null, "contact_email": null, "status": 1, "source_type": 1, "numberReviews": 12}, {"name": "Homard & Co", "type": "restaurant", "image": "https://dynamic-media-cdn.tripadvisor.com/media/photo-o/2b/ed/1b/29/caption.jpg?w=1000&s=1", "address": "4 Rue Blaveau, 29200, Brest France", "lat": 48.382957, "lng": -4.485705, "ref_id": 27418010, "rating": 4, "num_reviews": 0, "website": "https://www.homard-and-co.com/", "contact_phone": "+33 2 98 00 67 33", "contact_email": "homardnco@gmail.com", "status": 1, "source_type": 1, "numberReviews": 6}, {"name": "Coq'inn", "type": "restaurant", "image": "https://dynamic-media-cdn.tripadvisor.com/media/photo-o/09/c3/c8/1b/coq-inn.jpg?w=1000&s=1", "address": "1 rue Victor Balanant ZI de l'Hermitage, 29200, Brest France", "lat": 48.426, "lng": -4.46869, "ref_id": 8115561, "rating": 3.5, "num_reviews": 0, "website": "http://www.coq-inn.com/", "contact_phone": "+33 2 98 41 41 50", "contact_email": "PAUL.CUADRADO@ORANDE.FR", "status": 1, "source_type": 1, "numberReviews": 18}, {"name": "Brioche Doree", "type": "restaurant", "image": "https://dynamic-media-cdn.tripadvisor.com/media/photo-o/0c/83/41/f5/photo0jpg.jpg?w=1000&s=1", "address": "53 rue de Siam, 29200, Brest France", "lat": 48.38707, "lng": -4.49019, "ref_id": 5873454, "rating": 3.5, "num_reviews": 0, "website": "http://www.briochedoree.fr", "contact_phone": "+33 2 98 44 25 78", "contact_email": null, "status": 1, "source_type": 1, "numberReviews": 30}, {"name": "El Pincho Loco Brest", "type": "restaurant", "image": "https://dynamic-media-cdn.tripadvisor.com/media/photo-o/1d/ba/15/3f/service-sur-tables-hautes.jpg?w=1000&s=1", "address": "3 rue Branda, 29200, Brest France", "lat": 48.38963, "lng": -4.48394, "ref_id": 21355693, "rating": 4, "num_reviews": 0, "website": null, "contact_phone": "+33 6 11 07 91 77", "contact_email": "elpincholocobrest@gmail.com", "status": 1, "source_type": 1, "numberReviews": 7}, {"name": "Le Relais Celton", "type": "restaurant", "image": "https://dynamic-media-cdn.tripadvisor.com/media/photo-o/10/f0/76/db/neat-and-tidy-enjoy-the.jpg?w=1000&s=1", "address": "3 rue Kleber, 29200, Brest France", "lat": 48.40217, "lng": -4.46515, "ref_id": 6541170, "rating": 3.5, "num_reviews": 0, "website": "https://www.facebook.com/relaiscelton/", "contact_phone": "+33 2 98 02 02 14", "contact_email": "ipetton@orange.fr", "status": 1, "source_type": 1, "numberReviews": 65}, {"name": "Le Clemenceau", "type": "restaurant", "image": "https://dynamic-media-cdn.tripadvisor.com/media/photo-o/2a/8a/fd/fe/caption.jpg?w=1000&s=1", "address": "39 Avenue Georges Clemenceau Intersection rue Yves collet 15, 29200, Brest France", "lat": 48.389088, "lng": -4.487765, "ref_id": 26340437, "rating": 3.5, "num_reviews": 0, "website": "http://www.lesrelaisdalsace.com/index.php?option", "contact_phone": "+33 2 98 80 25 73", "contact_email": null, "status": 1, "source_type": 1, "numberReviews": 16}, {"name": "Terre d'Embruns", "type": "restaurant", "image": "https://dynamic-media-cdn.tripadvisor.com/media/photo-o/1d/9b/06/e9/facade.jpg?w=1000&s=1", "address": "420 rue Alain Colas, 29200, Brest France", "lat": 48.39109, "lng": -4.444342, "ref_id": 23534691, "rating": 5, "num_reviews": 0, "website": "http://www.terredembruns.fr", "contact_phone": "+33 2 98 83 64 25", "contact_email": "contact@terredembruns.fr", "status": 1, "source_type": 1, "numberReviews": 2}, {"name": "Best of Grill", "type": "restaurant", "image": "https://dynamic-media-cdn.tripadvisor.com/media/photo-o/21/69/1b/db/best-of-grill.jpg?w=1000&s=1", "address": "2 B rue de Kerros, 29200, Brest France", "lat": 48.38803, "lng": -4.4825, "ref_id": 17380390, "rating": 4, "num_reviews": 0, "website": null, "contact_phone": "+33 7 81 19 95 42", "contact_email": null, "status": 1, "source_type": 1, "numberReviews": 8}, {"name": "Terre et mer", "type": "restaurant", "image": "https://dynamic-media-cdn.tripadvisor.com/media/photo-o/1a/bd/01/51/bienvenue-chez-terre.jpg?w=1000&s=1", "address": "Airport Niveau 1, 29490, Brest France", "lat": 48.44764, "lng": -4.417832, "ref_id": 4743840, "rating": 4, "num_reviews": 0, "website": "http://www.brest.aeroport.fr/bars-et-restaurants", "contact_phone": "+33 2 98 84 85 85", "contact_email": null, "status": 1, "source_type": 1, "numberReviews": 8}, {"name": "Restaurant Rajmahal Indien", "type": "restaurant", "image": null, "address": "20 rue Louis Blanc R D S, 29200, Brest France", "lat": 48.395676, "lng": -4.478992, "ref_id": 26828347, "rating": 4, "num_reviews": 0, "website": "www.rajmahalbrest.com", "contact_phone": "+33 9 52 52 65 80", "contact_email": "rajmahalbrest.info@gmail.com", "status": 1, "source_type": 1, "numberReviews": 5}, {"name": "Villa Saint Martin", "type": "restaurant", "image": "https://dynamic-media-cdn.tripadvisor.com/media/photo-o/1a/cf/29/cb/pates-aux-fruits-de-mer.jpg?w=1000&s=1", "address": "92 rue Jean Jaures, 29200, Brest France", "lat": 48.39426, "lng": -4.47996, "ref_id": 17424300, "rating": 3.5, "num_reviews": 0, "website": "http://www.villa-st-martin.fr", "contact_phone": "+33 9 62 11 68 98", "contact_email": "contact@villa-st-martin.fr", "status": 1, "source_type": 1, "numberReviews": 22}, {"name": "Piperno", "type": "restaurant", "image": "https://dynamic-media-cdn.tripadvisor.com/media/photo-o/2b/58/01/fe/pizza-blablablas-fusion.jpg?w=1000&s=1", "address": "14 Rue Ducouedic, 29200, Brest France", "lat": 48.389088, "lng": -4.487765, "ref_id": 26840481, "rating": 4, "num_reviews": 0, "website": "https://piperno.fr/restaurants", "contact_phone": "+33 2 52 56 70 29", "contact_email": null, "status": 1, "source_type": 1, "numberReviews": 3}, {"name": "IL Castello", "type": "restaurant", "image": "https://dynamic-media-cdn.tripadvisor.com/media/photo-o/1d/4b/f3/95/caption.jpg?w=1000&s=1", "address": "165 quai Eric Tabarly, 29200, Brest France", "lat": 48.38005, "lng": -4.49095, "ref_id": 21347147, "rating": 4.5, "num_reviews": 0, "website": "https://www.facebook.com/IL-Castello-101151768298445/?ref=page_internal", "contact_phone": "+33 2 29 62 79 29", "contact_email": "ilcastellobrest@gmail.com", "status": 1, "source_type": 1, "numberReviews": 61}, {"name": "Le F.A.P i due fratelli", "type": "restaurant", "image": "https://dynamic-media-cdn.tripadvisor.com/media/photo-o/15/f3/a9/d9/logo.jpg?w=1000&s=1", "address": "4 rue Jules Ferry, 29200, Brest France", "lat": 48.398125, "lng": -4.474221, "ref_id": 15647436, "rating": 4.5, "num_reviews": 0, "website": "https://www.facebook.com/Le-FAP-762366867209082/", "contact_phone": "+33 2 22 08 54 52", "contact_email": "pierretoullec@hotmail.fr", "status": 1, "source_type": 1, "numberReviews": 59}, {"name": "Spuntino", "type": "restaurant", "image": "https://dynamic-media-cdn.tripadvisor.com/media/photo-o/13/4e/e4/c2/photo0jpg.jpg?w=1000&s=1", "address": "44 rue de Lyon, 29200, Brest France", "lat": 48.390015, "lng": -4.491082, "ref_id": 6988473, "rating": 4, "num_reviews": 0, "website": "https://www.facebook.com/pages/Spuntino/681652491916734", "contact_phone": "+33 2 98 80 15 01", "contact_email": null, "status": 1, "source_type": 1, "numberReviews": 132}, {"name": "Baragwin", "type": "restaurant", "image": "https://dynamic-media-cdn.tripadvisor.com/media/photo-o/1b/b1/98/d4/20200804-202014-largejpg.jpg?w=1000&s=1", "address": "38 rue Algesiras, 29200, Brest France", "lat": 48.39084, "lng": -4.49068, "ref_id": 15184854, "rating": 5, "num_reviews": 0, "website": "https://www.facebook.com/Baragwin-brest-466329126900714/", "contact_phone": "+33 2 98 38 61 40", "contact_email": null, "status": 1, "source_type": 1, "numberReviews": 30}, {"name": "Kaf\u00e9 Kanggui", "type": "restaurant", "image": "https://dynamic-media-cdn.tripadvisor.com/media/photo-o/1c/85/c7/75/front.jpg?w=1000&s=1", "address": "3 rue Louis Pasteur, 29200, Brest France", "lat": 48.38622, "lng": -4.492602, "ref_id": 23065006, "rating": 5, "num_reviews": 0, "website": "www.facebook.com/1419317351419242", "contact_phone": "+33 2 30 82 50 55", "contact_email": "kafekanggui@gmail.com", "status": 1, "source_type": 1, "numberReviews": 27}, {"name": "Tir na n'og", "type": "restaurant", "image": "https://dynamic-media-cdn.tripadvisor.com/media/photo-o/1b/cf/a7/15/tir-na-n-og.jpg?w=1000&s=1", "address": "21 rue de Siam, 29200, Brest France", "lat": 48.38534, "lng": -4.49232, "ref_id": 4773915, "rating": 4.5, "num_reviews": 0, "website": null, "contact_phone": "+33 2 98 43 00 12", "contact_email": null, "status": 1, "source_type": 1, "numberReviews": 82}, {"name": "Le Kashmir", "type": "restaurant", "image": "https://dynamic-media-cdn.tripadvisor.com/media/photo-o/05/6d/73/23/assortiment-de-samoussa.jpg?w=1000&s=1", "address": "164 rue Jean Jaures, 29200, Brest France", "lat": 48.39738, "lng": -4.475238, "ref_id": 1972799, "rating": 4.5, "num_reviews": 0, "website": "https://www.facebook.com/Le-Kashmir-1659319304305077/", "contact_phone": "+33 2 98 44 14 07", "contact_email": "lekashmir@ymail.com", "status": 1, "source_type": 1, "numberReviews": 76}, {"name": "La Piazza", "type": "restaurant", "image": "https://dynamic-media-cdn.tripadvisor.com/media/photo-o/1b/c8/30/74/img-20200618-192420-01.jpg?w=1000&s=1", "address": "6 Place des Fusilles, 29850 Gouesnou, Brest France", "lat": 48.45098, "lng": -4.46554, "ref_id": 1332889, "rating": 4.5, "num_reviews": 0, "website": "http://www.piazza.fr/", "contact_phone": "+33 2 98 37 92 82", "contact_email": "", "status": 1, "source_type": 1, "numberReviews": 119}, {"name": "La poke", "type": "restaurant", "image": "https://dynamic-media-cdn.tripadvisor.com/media/photo-o/1c/d4/d2/d9/photo0jpg.jpg?w=1000&s=1", "address": "38 rue de Lyon, 29200, Brest France", "lat": 48.38982, "lng": -4.49093, "ref_id": 21042844, "rating": 4.5, "num_reviews": 0, "website": "http://www.lapoke.fr", "contact_phone": "+33 7 62 17 18 24", "contact_email": "contact@lapoke.fr", "status": 1, "source_type": 1, "numberReviews": 34}, {"name": "Les caudalies", "type": "restaurant", "image": "https://dynamic-media-cdn.tripadvisor.com/media/photo-o/14/4b/c9/b0/emince-de-pouvoir-au.jpg?w=1000&s=1", "address": "1 rue Malakoff 1, rue Malakoff, 29200, 29200, Brest France", "lat": 48.39548, "lng": -4.48131, "ref_id": 5787580, "rating": 4.5, "num_reviews": 0, "website": "http://www.facebook.com/Les-caudalies-60043732345", "contact_phone": "+33 2 98 44 95 22", "contact_email": null, "status": 1, "source_type": 1, "numberReviews": 68}, {"name": "Hot Pizza", "type": "restaurant", "image": "https://dynamic-media-cdn.tripadvisor.com/media/photo-o/1c/8f/72/b9/hot-pizza.jpg?w=1000&s=1", "address": "44 rue Albert Louppe, 29200, Brest France", "lat": 48.40354, "lng": -4.47292, "ref_id": 5927877, "rating": 4.5, "num_reviews": 0, "website": "https://www.hotpizza-brest.fr/", "contact_phone": "+33 2 98 41 50 40", "contact_email": null, "status": 1, "source_type": 1, "numberReviews": 66}, {"name": "Le Bistrot De P'tit Louis", "type": "restaurant", "image": "https://dynamic-media-cdn.tripadvisor.com/media/photo-o/1d/79/16/e5/caption.jpg?w=1000&s=1", "address": "2 B rue de Kerros, 29200, Brest France", "lat": 48.388058, "lng": -4.482328, "ref_id": 23216107, "rating": 4.5, "num_reviews": 0, "website": "http://www.lebistrotdeptitlouis.com", "contact_phone": "+33 2 98 80 22 75", "contact_email": "lebistrotdeptitlouis@gmail.com", "status": 1, "source_type": 1, "numberReviews": 32}, {"name": "La Base", "type": "restaurant", "image": "https://dynamic-media-cdn.tripadvisor.com/media/photo-o/0e/b9/e7/35/la-base.jpg?w=1000&s=1", "address": "Marina Port du Chateau, Brest France", "lat": 48.38046, "lng": -4.490208, "ref_id": 4457572, "rating": 3.5, "num_reviews": 0, "website": "https://www.facebook.com/pages/La-Base-Brest/165357766941051", "contact_phone": "+33 2 29 05 19 00", "contact_email": null, "status": 1, "source_type": 1, "numberReviews": 528}, {"name": "Creperie Moderne", "type": "restaurant", "image": "https://dynamic-media-cdn.tripadvisor.com/media/photo-o/0d/15/ee/f0/caption.jpg?w=1000&s=1", "address": "34 rue Algesiras, 29200, Brest France", "lat": 48.390835, "lng": -4.490314, "ref_id": 806169, "rating": 3.5, "num_reviews": 0, "website": "http://www.facebook.com/pages/Cr%C3%AAperie%20Moderne%20Brest/1988306904785023/", "contact_phone": "+33 2 98 44 44 36", "contact_email": "", "status": 1, "source_type": 1, "numberReviews": 407}, {"name": "Le Depanneur", "type": "restaurant", "image": "https://dynamic-media-cdn.tripadvisor.com/media/photo-o/1b/fc/1b/8c/photo1jpg.jpg?w=1000&s=1", "address": "14 rue Duret, 29200, Brest France", "lat": 48.3965, "lng": -4.478326, "ref_id": 20295216, "rating": 5, "num_reviews": 0, "website": "https://www.facebook.com/ledepanneur.brest/", "contact_phone": "+33 2 98 80 50 12", "contact_email": "ledepanneur29@gmail.com", "status": 1, "source_type": 1, "numberReviews": 23}, {"name": "L'ar\u00f4me Antique", "type": "restaurant", "image": "https://dynamic-media-cdn.tripadvisor.com/media/photo-o/27/89/ff/54/caption.jpg?w=1000&s=1", "address": "46 rue Emile Zola, 29200, Brest France", "lat": 48.38714, "lng": -4.488113, "ref_id": 24941732, "rating": 5, "num_reviews": 0, "website": "www.laromeantiquebrest.fr", "contact_phone": "+33 9 81 08 28 47", "contact_email": "laromeantiquebrest@gmail.com", "status": 1, "source_type": 1, "numberReviews": 19}, {"name": "The Cottage", "type": "restaurant", "image": "https://dynamic-media-cdn.tripadvisor.com/media/photo-o/1a/18/98/ae/lasagnes-de-poisson.jpg?w=1000&s=1", "address": "2 rue du Chateau, 29200, Brest France", "lat": 48.38331, "lng": -4.49126, "ref_id": 13314821, "rating": 4.5, "num_reviews": 0, "website": "https://www.facebook.com/Thecottagebrest/", "contact_phone": "+33 2 98 80 17 73", "contact_email": null, "status": 1, "source_type": 1, "numberReviews": 38}, {"name": "L'Amiraute Hotel restaurant", "type": "restaurant", "image": "https://dynamic-media-cdn.tripadvisor.com/media/photo-o/1b/23/39/bc/l-amiraute-hotel-restaurant.jpg?w=1000&s=1", "address": "41 rue Branda, 29200, Brest France", "lat": 48.39236, "lng": -4.480833, "ref_id": 3532910, "rating": 4, "num_reviews": 0, "website": "http://www.oceaniahotels.com/h/hotel-l-amiraute-brest/restauration-petit-dejeuner", "contact_phone": "+33 2 98 80 84 00", "contact_email": null, "status": 1, "source_type": 1, "numberReviews": 86}, {"name": "Le Tonkinois", "type": "restaurant", "image": "https://dynamic-media-cdn.tripadvisor.com/media/photo-o/17/3a/9f/85/img-20190420-202029-largejpg.jpg?w=1000&s=1", "address": "47 rue Traverse, 29200, Brest France", "lat": 48.386494, "lng": -4.491835, "ref_id": 1328637, "rating": 4, "num_reviews": 0, "website": "https://www.facebook.com/letonkinois29/", "contact_phone": "+33 2 98 80 47 32", "contact_email": "", "status": 1, "source_type": 1, "numberReviews": 282}, {"name": "Tandoori Brest", "type": "restaurant", "image": "https://dynamic-media-cdn.tripadvisor.com/media/photo-o/18/05/8b/e6/assortiment-de-plats.jpg?w=1000&s=1", "address": "171 rue Jean Jaures, 29200, Brest France", "lat": 48.397568, "lng": -4.474813, "ref_id": 13803890, "rating": 4.5, "num_reviews": 0, "website": "http://tandooribrest.fr/fr", "contact_phone": "+33 9 86 52 17 52", "contact_email": "rajhastan29.punjab@gmail.com", "status": 1, "source_type": 1, "numberReviews": 47}, {"name": "Le Caf\u00e9 Du Port", "type": "restaurant", "image": "https://dynamic-media-cdn.tripadvisor.com/media/photo-o/1d/b6/49/c2/le-cafe-du-port.jpg?w=1000&s=1", "address": "28 Quai De La Douane, 29200, Brest France", "lat": 48.38283, "lng": -4.4848, "ref_id": 23502332, "rating": 4, "num_reviews": 0, "website": "https://cafeduportbrest.wixsite.com/le-caf-du-port?fbclid=paaay7hzx7pen2tbgdvrjanwqrery4u8s6mj-_qtqb_4i2ruo_xxrjvxr9nsw", "contact_phone": "+33 2 98 44 44 45", "contact_email": "cafeduportbrest@gmail.com", "status": 1, "source_type": 1, "numberReviews": 64}, {"name": "Le Bistrot", "type": "restaurant", "image": "https://dynamic-media-cdn.tripadvisor.com/media/photo-o/1b/da/fe/0b/photo0jpg.jpg?w=1000&s=1", "address": "18 quai de la Douane, 29200, Brest France", "lat": 48.382484, "lng": -4.485736, "ref_id": 12971734, "rating": 4, "num_reviews": 0, "website": "https://www.facebook.com/lebistrot29/", "contact_phone": "+33 9 86 69 54 93", "contact_email": null, "status": 1, "source_type": 1, "numberReviews": 55}, {"name": "Chez Coco", "type": "restaurant", "image": "https://dynamic-media-cdn.tripadvisor.com/media/photo-o/11/b2/36/29/facade.jpg?w=1000&s=1", "address": "38 quai de la Douane, 29200, Brest France", "lat": 48.382996, "lng": -4.483654, "ref_id": 12408210, "rating": 4, "num_reviews": 0, "website": "https://www.facebook.com/resto.bistro.chezcoco/", "contact_phone": "+33 2 98 44 49 38", "contact_email": null, "status": 1, "source_type": 1, "numberReviews": 57}, {"name": "Quan Ngon", "type": "restaurant", "image": "https://dynamic-media-cdn.tripadvisor.com/media/photo-o/1b/cf/c3/bf/pho-au-boeuf-version.jpg?w=1000&s=1", "address": "13 rue de la Porte, 29200, Brest France", "lat": 48.384647, "lng": -4.498699, "ref_id": 20061871, "rating": 4.5, "num_reviews": 0, "website": null, "contact_phone": "+33 2 29 02 46 95", "contact_email": null, "status": 1, "source_type": 1, "numberReviews": 38}, {"name": "Le Grand Pavois", "type": "restaurant", "image": "https://dynamic-media-cdn.tripadvisor.com/media/photo-o/10/09/07/b8/20170726-140500-largejpg.jpg?w=1000&s=1", "address": "297 rue Eugene Berest Port de Plaisance du Moulin Blanc, 29200, Brest France", "lat": 48.393475, "lng": -4.433393, "ref_id": 3628401, "rating": 3.5, "num_reviews": 0, "website": "http://le-grand-pavois.zenchef.com/", "contact_phone": "+33 2 98 02 76 30", "contact_email": null, "status": 1, "source_type": 1, "numberReviews": 324}, {"name": "Jimida", "type": "restaurant", "image": "https://dynamic-media-cdn.tripadvisor.com/media/photo-o/15/81/e0/02/jimida-3.jpg?w=1000&s=1", "address": "5 rue Louis Pasteur, 29200, Brest France", "lat": 48.3862, "lng": -4.492661, "ref_id": 3164705, "rating": 4, "num_reviews": 0, "website": "http://www.jimida.fr/", "contact_phone": "+33 2 98 83 95 53", "contact_email": null, "status": 1, "source_type": 1, "numberReviews": 119}, {"name": "Le Jardin De Gwenn", "type": "restaurant", "image": "https://dynamic-media-cdn.tripadvisor.com/media/photo-o/2b/88/a7/57/brunch-a-volonte-fevrier.jpg?w=1000&s=1", "address": "14 rue Louis Pasteur, 29200, Brest France", "lat": 48.38701, "lng": -4.491624, "ref_id": 19413579, "rating": 4, "num_reviews": 0, "website": "http://lejardindegwenn.fr/", "contact_phone": "+33 2 30 82 46 87", "contact_email": null, "status": 1, "source_type": 1, "numberReviews": 61}, {"name": "La Fine Bouffe", "type": "restaurant", "image": "https://dynamic-media-cdn.tripadvisor.com/media/photo-o/1c/e6/1d/44/la-fine-bouffe.jpg?w=1000&s=1", "address": "50 rue Amiral Linois, 29200, Brest France", "lat": 48.38625, "lng": -4.490322, "ref_id": 23127849, "rating": 5, "num_reviews": 0, "website": "http://www.lafinebouffe.fr", "contact_phone": "+33 2 29 62 20 36", "contact_email": "contact@lafinebouffe.fr", "status": 1, "source_type": 1, "numberReviews": 17}, {"name": "La Petite Po\u00e9sie", "type": "restaurant", "image": "https://dynamic-media-cdn.tripadvisor.com/media/photo-o/16/ce/a2/8a/moyenne-planche-de-tapas.jpg?w=1000&s=1", "address": "3 Place de la Liberte, 29200, Brest France", "lat": 48.390213, "lng": -4.485637, "ref_id": 5893716, "rating": 4, "num_reviews": 0, "website": null, "contact_phone": "+33 2 98 80 21 27", "contact_email": null, "status": 1, "source_type": 1, "numberReviews": 106}, {"name": "Amour de Pomme de Terre", "type": "restaurant", "image": "https://dynamic-media-cdn.tripadvisor.com/media/photo-o/0f/eb/c6/bd/salle-de-restaurant.jpg?w=1000&s=1", "address": "23 Rue des Halles Saint Louis, 29200, Brest France", "lat": 48.38991, "lng": -4.489569, "ref_id": 5804694, "rating": 3.5, "num_reviews": 0, "website": "https://www.facebook.com/AmourDePommeDeTerreBrest/", "contact_phone": "+33 2 98 43 48 51", "contact_email": "apt-brest@orange.fr", "status": 1, "source_type": 1, "numberReviews": 196}, {"name": "Cr\u00eaperie de Cornouaille", "type": "restaurant", "image": "https://dynamic-media-cdn.tripadvisor.com/media/photo-o/12/39/a4/8f/photo0jpg.jpg?w=1000&s=1", "address": "9 rue Saint Marc, 29200, Brest France", "lat": 48.39656, "lng": -4.475231, "ref_id": 1501884, "rating": 4, "num_reviews": 0, "website": "http://www.creperiedecornouaille.fr", "contact_phone": "+33 2 98 80 01 91", "contact_email": "", "status": 1, "source_type": 1, "numberReviews": 419}, {"name": "La Coloc'", "type": "restaurant", "image": "https://dynamic-media-cdn.tripadvisor.com/media/photo-o/1b/b4/57/09/terrasse-vue-sur-la-marina.jpg?w=1000&s=1", "address": "95 Quai \u00c9ric Tabarly, 29200, Brest France", "lat": 48.38045, "lng": -4.4902, "ref_id": 12588895, "rating": 4.5, "num_reviews": 0, "website": "http://www.lacolocbrest.com", "contact_phone": "+33 2 29 63 34 89", "contact_email": "lacoloc.bar@gmail.com", "status": 1, "source_type": 1, "numberReviews": 129}, {"name": "Creperie Blev Hir", "type": "restaurant", "image": "https://dynamic-media-cdn.tripadvisor.com/media/photo-o/1a/9b/d4/c7/crepe-ble-noir-de-saison.jpg?w=1000&s=1", "address": "23 rue Emile Zola, 29200, Brest France", "lat": 48.38555, "lng": -4.489717, "ref_id": 19694265, "rating": 5, "num_reviews": 0, "website": "https://www.facebook.com/blevhir29/", "contact_phone": "+33 2 98 80 14 04", "contact_email": null, "status": 1, "source_type": 1, "numberReviews": 51}, {"name": "Globulle rouge", "type": "restaurant", "image": "https://dynamic-media-cdn.tripadvisor.com/media/photo-o/17/fe/ad/81/photo0jpg.jpg?w=1000&s=1", "address": "27 rue Emile Zola, 29200, Brest France", "lat": 48.38569, "lng": -4.489595, "ref_id": 5800984, "rating": 4, "num_reviews": 0, "website": null, "contact_phone": "+33 2 98 33 38 03", "contact_email": null, "status": 1, "source_type": 1, "numberReviews": 318}, {"name": "Le Nautilus", "type": "restaurant", "image": "https://dynamic-media-cdn.tripadvisor.com/media/photo-o/24/a0/d5/86/nautilus-brest.jpg?w=1000&s=1", "address": "82 rue de Siam, 29200, Brest France", "lat": 48.389168, "lng": -4.48789, "ref_id": 2212796, "rating": 4, "num_reviews": 0, "website": "http://www.oceaniahotels.com/fr/restaurants-et-bars/nos-restaurants/le-nautilus-brest", "contact_phone": "+33 2 98 80 90 67", "contact_email": null, "status": 1, "source_type": 1, "numberReviews": 398}, {"name": "Le Boeuf sur le Quai", "type": "restaurant", "image": "https://dynamic-media-cdn.tripadvisor.com/media/photo-o/0d/63/88/8b/agreable-ambiance.jpg?w=1000&s=1", "address": "2 rue Commandant Malbert, 29200, Brest France", "lat": 48.382004, "lng": -4.489739, "ref_id": 794169, "rating": 4, "num_reviews": 0, "website": "http://www.boeufsurlequai.com/", "contact_phone": "+33 2 98 43 91 34", "contact_email": "leboeufsurlequai@wanadoo.fr", "status": 1, "source_type": 1, "numberReviews": 758}, {"name": "Memes Tra", "type": "restaurant", "image": "https://dynamic-media-cdn.tripadvisor.com/media/photo-o/1b/c6/ad/4c/la-galette-saucisse-revisitee.jpg?w=1000&s=1", "address": "40 Quai De La Douane, 29200, Brest France", "lat": 48.383022, "lng": -4.483601, "ref_id": 21118947, "rating": 4.5, "num_reviews": 0, "website": "http://memestra.bzh", "contact_phone": "+33 2 29 62 90 32", "contact_email": "contact@memestra.bzh", "status": 1, "source_type": 1, "numberReviews": 132}, {"name": "Latitude Crepe", "type": "restaurant", "image": "https://dynamic-media-cdn.tripadvisor.com/media/photo-o/1a/40/cd/ed/latitude-crepe.jpg?w=1000&s=1", "address": "4 quai de la Douane, 29200, Brest France", "lat": 48.381687, "lng": -4.487621, "ref_id": 4019883, "rating": 4, "num_reviews": 0, "website": "http://www.blenoir.com/latitude-crepe.htm", "contact_phone": "+33 2 98 33 10 70", "contact_email": "infos@blenoir.com", "status": 1, "source_type": 1, "numberReviews": 354}, {"name": "Franchine", "type": "restaurant", "image": "https://dynamic-media-cdn.tripadvisor.com/media/photo-o/1b/86/dd/bd/ta-img-20200710-124811.jpg?w=1000&s=1", "address": "29 rue de Gouesnou, 29200, Brest France", "lat": 48.40757, "lng": -4.46774, "ref_id": 1328005, "rating": 4.5, "num_reviews": 0, "website": "https://www.la-galerie.com/le-phare-de-leurope/boutiques/franchine-franchine-le-phare-de-leurope#localisation", "contact_phone": "+33 2 98 02 58 08", "contact_email": "", "status": 1, "source_type": 1, "numberReviews": 244}, {"name": "Hinoki", "type": "restaurant", "image": "https://dynamic-media-cdn.tripadvisor.com/media/photo-o/0a/dc/7e/13/img-20160409-201840-largejpg.jpg?w=1000&s=1", "address": "6 rue des 11 Martyrs, 29200, Brest France", "lat": 48.390957, "lng": -4.48373, "ref_id": 2560492, "rating": 4.5, "num_reviews": 0, "website": "http://www.sushinoki.fr", "contact_phone": "+33 6 07 54 31 23", "contact_email": "", "status": 1, "source_type": 1, "numberReviews": 194}, {"name": "O'Local Restaurant Burgernome", "type": "restaurant", "image": "https://dynamic-media-cdn.tripadvisor.com/media/photo-o/12/ca/dc/97/le-lambert-fourme-aop.jpg?w=1000&s=1", "address": "5 rue de Madagascar, 29200, Brest France", "lat": 48.38573, "lng": -4.4792, "ref_id": 11995697, "rating": 4.5, "num_reviews": 0, "website": "https://www.facebook.com/OLocalBrest/", "contact_phone": "+33 9 67 54 97 11", "contact_email": null, "status": 1, "source_type": 1, "numberReviews": 125}, {"name": "L'Effet D\u00e9lice", "type": "restaurant", "image": "https://dynamic-media-cdn.tripadvisor.com/media/photo-o/0f/75/43/98/photo0jpg.jpg?w=1000&s=1", "address": "11 rue de la Gare Restaurant / Cr\u00eaperie / Epicerie fine, 29850 Gouesnou, Brest France", "lat": 48.452435, "lng": -4.464822, "ref_id": 12415472, "rating": 5, "num_reviews": 0, "website": "https://www.facebook.com/393084697471624", "contact_phone": "+33 2 98 32 47 29", "contact_email": "leffetdelice@orange.fr", "status": 1, "source_type": 1, "numberReviews": 57}, {"name": "Yokota Ramen", "type": "restaurant", "image": "https://dynamic-media-cdn.tripadvisor.com/media/photo-o/1b/6d/58/df/yokota-ramen.jpg?w=1000&s=1", "address": "27 rue Danton, 29200, Brest France", "lat": 48.397255, "lng": -4.482191, "ref_id": 19261288, "rating": 5, "num_reviews": 0, "website": "yokota-ramen.com", "contact_phone": null, "contact_email": null, "status": 1, "source_type": 1, "numberReviews": 48}, {"name": "The Tara Inn", "type": "restaurant", "image": "https://dynamic-media-cdn.tripadvisor.com/media/photo-o/17/31/2e/41/the-tara-inn.jpg?w=1000&s=1", "address": "1 Rue Blaveau, 29200, Brest France", "lat": 48.383133, "lng": -4.485481, "ref_id": 10335863, "rating": 4.5, "num_reviews": 0, "website": "http://tarainnbrest.gandi.ws", "contact_phone": "+33 2 98 80 36 07", "contact_email": null, "status": 1, "source_type": 1, "numberReviews": 95}, {"name": "Si Ristorante", "type": "restaurant", "image": "https://dynamic-media-cdn.tripadvisor.com/media/photo-o/1d/8c/47/18/caption.jpg?w=1000&s=1", "address": "19 Place de la Libert\u00e9, 29200, Brest France", "lat": 48.39053, "lng": -4.485257, "ref_id": 23530214, "rating": 4.5, "num_reviews": 0, "website": "http://www.si-ristorante.fr", "contact_phone": "+33 9 51 24 53 15", "contact_email": "brest-liberte@si-ristorante.fr", "status": 1, "source_type": 1, "numberReviews": 82}, {"name": "Chez Zaza", "type": "restaurant", "image": "https://dynamic-media-cdn.tripadvisor.com/media/photo-o/14/86/78/57/img-20180908-wa0003-largejpg.jpg?w=1000&s=1", "address": "5 Rue Coat Ar Gueven, 29200, Brest France", "lat": 48.39374, "lng": -4.482001, "ref_id": 10664009, "rating": 4, "num_reviews": 0, "website": "https://www.facebook.com/977695078992951", "contact_phone": "+33 2 30 82 55 40", "contact_email": null, "status": 1, "source_type": 1, "numberReviews": 117}, {"name": "Mandarino", "type": "restaurant", "image": "https://dynamic-media-cdn.tripadvisor.com/media/photo-o/19/dc/90/84/dolce-vita.jpg?w=1000&s=1", "address": "36 rue Traverse, 29200, Brest France", "lat": 48.38636, "lng": -4.491863, "ref_id": 12130170, "rating": 4.5, "num_reviews": 0, "website": null, "contact_phone": null, "contact_email": null, "status": 1, "source_type": 1, "numberReviews": 105}, {"name": "Le Tri Menn", "type": "restaurant", "image": "https://dynamic-media-cdn.tripadvisor.com/media/photo-o/28/af/49/0d/le-tri-menn.jpg?w=1000&s=1", "address": "13 Rue d'Aboville, 29200, Brest France", "lat": 48.391876, "lng": -4.478956, "ref_id": 25370881, "rating": 5, "num_reviews": 0, "website": null, "contact_phone": "+33 2 29 63 08 54", "contact_email": "letrimenn@gmail.com", "status": 1, "source_type": 1, "numberReviews": 29}, {"name": "Marcelle & Morris", "type": "restaurant", "image": "https://dynamic-media-cdn.tripadvisor.com/media/photo-o/18/6b/73/06/egg-burger-restaurant.jpg?w=1000&s=1", "address": "115 Quai \u00c9ric Tabarly, 29200, Brest France", "lat": 48.380142, "lng": -4.490558, "ref_id": 7612485, "rating": 3.5, "num_reviews": 0, "website": "http://www.marcelleetmorris.fr", "contact_phone": "+33 2 29 62 97 69", "contact_email": "marcelleetmorris@gmail.com", "status": 1, "source_type": 1, "numberReviews": 722}, {"name": "Cr\u00eaperie Saint Michel", "type": "restaurant", "image": "https://dynamic-media-cdn.tripadvisor.com/media/photo-o/19/38/3b/5c/l-entree-et-la-salle.jpg?w=1000&s=1", "address": "53 rue Yves Collet Behind the FNAC next to the Espace Collet, 29200, Brest France", "lat": 48.393017, "lng": -4.479126, "ref_id": 7158859, "rating": 4.5, "num_reviews": 0, "website": "https://creperie-saint-michel-mr-philippe-pasquier.business.site/", "contact_phone": "+33 2 98 44 55 79", "contact_email": null, "status": 1, "source_type": 1, "numberReviews": 69}, {"name": "Tour du Monde", "type": "restaurant", "image": "https://dynamic-media-cdn.tripadvisor.com/media/photo-o/16/98/14/83/frites-a-la-creme-marinieres.jpg?w=1000&s=1", "address": "Port Plaisance Moulin Blanc, 29200, Brest France", "lat": 48.392815, "lng": -4.433506, "ref_id": 2194054, "rating": 3.5, "num_reviews": 0, "website": "https://www.facebook.com/Tourdum29/", "contact_phone": "+33 2 98 41 93 65", "contact_email": "tourdum@orange.fr", "status": 1, "source_type": 1, "numberReviews": 714}, {"name": "Peck & co", "type": "restaurant", "image": "https://dynamic-media-cdn.tripadvisor.com/media/photo-o/2a/80/27/53/caption.jpg?w=1000&s=1", "address": "23 Rue Fautras, 29200, Brest France", "lat": 48.39062, "lng": -4.49108, "ref_id": 23575563, "rating": 5, "num_reviews": 0, "website": "http://peckandco.fr/", "contact_phone": "+33 2 98 43 30 13", "contact_email": null, "status": 1, "source_type": 1, "numberReviews": 29}, {"name": "le Plan B", "type": "restaurant", "image": "https://dynamic-media-cdn.tripadvisor.com/media/photo-o/07/c0/e4/0c/le-plan-b.jpg?w=1000&s=1", "address": "Centre de Brest 27 Rue Louis Pasteur, 29200, Brest France", "lat": 48.387352, "lng": -4.491173, "ref_id": 4690469, "rating": 4.5, "num_reviews": 0, "website": "http://www.facebook.com/leplanb.restomobile", "contact_phone": "+33 6 51 38 00 99", "contact_email": null, "status": 1, "source_type": 1, "numberReviews": 71}, {"name": "La Bouteille \u00e0 la Mer", "type": "restaurant", "image": "https://dynamic-media-cdn.tripadvisor.com/media/photo-o/09/93/98/ff/img-20151121-195244-largejpg.jpg?w=1000&s=1", "address": "66 Rue Jean Mac\u00e9, 29200, Brest France", "lat": 48.389442, "lng": -4.492822, "ref_id": 5857905, "rating": 4.5, "num_reviews": 0, "website": "https://www.facebook.com/313381435359373", "contact_phone": "+33 2 98 44 27 87", "contact_email": "labouteillealamer@ymail.com", "status": 1, "source_type": 1, "numberReviews": 62}, {"name": "Big Fernand Brest", "type": "restaurant", "image": "https://dynamic-media-cdn.tripadvisor.com/media/photo-o/16/8c/69/d2/big-fernand.jpg?w=1000&s=1", "address": "11 rue Jean Jaures, 29200, Brest France", "lat": 48.391407, "lng": -4.484314, "ref_id": 16708135, "rating": 4, "num_reviews": 0, "website": "http://bigfernand.com/restaurants/brest/", "contact_phone": "+33 2 98 43 55 61", "contact_email": "contact@biggroupe.com", "status": 1, "source_type": 1, "numberReviews": 120}, {"name": "Le Khyber", "type": "restaurant", "image": "https://dynamic-media-cdn.tripadvisor.com/media/photo-o/11/ed/23/48/ta-img-20180131-192822.jpg?w=1000&s=1", "address": "46 rue de la Porte, 29200, Brest France", "lat": 48.384155, "lng": -4.501679, "ref_id": 1329207, "rating": 4.5, "num_reviews": 0, "website": "http://www.lekhyber.fr/", "contact_phone": "+33 6 14 98 55 80", "contact_email": "lekhyber@gmail.com", "status": 1, "source_type": 1, "numberReviews": 202}, {"name": "CREPERIE LA FERMETTE", "type": "restaurant", "image": "https://dynamic-media-cdn.tripadvisor.com/media/photo-o/05/39/b1/d5/creperie-la-fermette.jpg?w=1000&s=1", "address": "245 rue Jean Jaures, 29200, Brest France", "lat": 48.400803, "lng": -4.470024, "ref_id": 5970362, "rating": 4.5, "num_reviews": 0, "website": "http://pajnewdamprdsta001.blob.core.windows.net/newdam/c4/d5/58/00/00/f6/e4/3b/fb/bb/5fd4c4d5580000f6e43bfbbb/5fd4c4d5580000f6e43bfbbc", "contact_phone": "+33 2 98 02 13 24", "contact_email": "georgesnehme@hotmail.com", "status": 1, "source_type": 1, "numberReviews": 123}, {"name": "Les Quatre Vents", "type": "restaurant", "image": "https://dynamic-media-cdn.tripadvisor.com/media/photo-o/1d/a2/4f/25/caption.jpg?w=1000&s=1", "address": "18 Quai De La Douane, 29200, Brest France", "lat": 48.382565, "lng": -4.485701, "ref_id": 6949384, "rating": 4, "num_reviews": 0, "website": "https://www.facebook.com/pages/Les-4-vents/208210062665369", "contact_phone": "+33 2 98 44 42 84", "contact_email": null, "status": 1, "source_type": 1, "numberReviews": 314}, {"name": "Le Merluberlu Brest", "type": "restaurant", "image": "https://dynamic-media-cdn.tripadvisor.com/media/photo-o/24/db/ac/8a/caption.jpg?w=1000&s=1", "address": "26 quai de la Douane, 29200, Brest France", "lat": 48.382866, "lng": -4.4849, "ref_id": 24109718, "rating": 4, "num_reviews": 0, "website": "https://www.merluberlu.fr/brest/brest", "contact_phone": "+33 2 29 61 10 00", "contact_email": "contact-br@merluberlu.com", "status": 1, "source_type": 1, "numberReviews": 89}, {"name": "Le Repaire", "type": "restaurant", "image": "https://dynamic-media-cdn.tripadvisor.com/media/photo-o/24/e4/da/00/caption.jpg?w=1000&s=1", "address": "25 Rue Emile Zola, 29200, Brest France", "lat": 48.385563, "lng": -4.489535, "ref_id": 23939863, "rating": 4.5, "num_reviews": 0, "website": "http://lerepaire-brest.fr/", "contact_phone": "+33 2 98 43 20 98", "contact_email": null, "status": 1, "source_type": 1, "numberReviews": 38}, {"name": "Chez Tonton \u00e0 La Marina", "type": "restaurant", "image": "https://dynamic-media-cdn.tripadvisor.com/media/photo-o/25/a6/da/ab/que-des-bons-produits.jpg?w=1000&s=1", "address": "155 Quai Eric Tabarly, 29200, Brest France", "lat": 48.38014, "lng": -4.490784, "ref_id": 23889802, "rating": 4, "num_reviews": 0, "website": "https://www.instagram.com/cheztontonbrest/", "contact_phone": "+33 2 98 46 85 25", "contact_email": null, "status": 1, "source_type": 1, "numberReviews": 28}, {"name": "Loco Loca Brest", "type": "restaurant", "image": "https://dynamic-media-cdn.tripadvisor.com/media/photo-o/24/4b/0a/9a/restaurant-latino.jpg?w=1000&s=1", "address": "207 rue Jean Jaures, 29200, Brest France", "lat": 48.389088, "lng": -4.487765, "ref_id": 23926394, "rating": 3.5, "num_reviews": 0, "website": "http://www.locoloca.com", "contact_phone": "+33 9 82 81 22 22", "contact_email": "brest@locoloca.com", "status": 1, "source_type": 1, "numberReviews": 69}, {"name": "Pozzi Pizza Napoletana", "type": "restaurant", "image": "https://dynamic-media-cdn.tripadvisor.com/media/photo-o/24/73/b9/a0/caption.jpg?w=1000&s=1", "address": "15 Rue Des Halles Saint-louis, 29200, Brest France", "lat": 48.389088, "lng": -4.487765, "ref_id": 23548246, "rating": 4, "num_reviews": 0, "website": "http://www.pozzi-pizzeria.com/", "contact_phone": "+33 7 67 74 70 01", "contact_email": "pozzi.brest@gmail.com", "status": 1, "source_type": 1, "numberReviews": 24}, {"name": "L'Atlantide", "type": "restaurant", "image": "https://dynamic-media-cdn.tripadvisor.com/media/photo-o/09/b9/47/bb/photo0jpg.jpg?w=1000&s=1", "address": "4 boulevard Leon Blum, 29200, Brest France", "lat": 48.40185, "lng": -4.484251, "ref_id": 6998744, "rating": 4, "num_reviews": 0, "website": "http://www.hotelcenter.com/reception-brest/restaurant-atlantide.html", "contact_phone": "+33 2 98 80 78 07", "contact_email": null, "status": 1, "source_type": 1, "numberReviews": 34}, {"name": "L'effet Mer", "type": "restaurant", "image": "https://dynamic-media-cdn.tripadvisor.com/media/photo-o/0d/ef/cd/1d/photo0jpg.jpg?w=1000&s=1", "address": "36 Quai De La Douane, 29200, Brest France", "lat": 48.38316, "lng": -4.48295, "ref_id": 8619515, "rating": 4, "num_reviews": 0, "website": "http://plage-effet-mer.com", "contact_phone": "+33 2 98 44 27 00", "contact_email": null, "status": 1, "source_type": 1, "numberReviews": 19}, {"name": "Bistoun", "type": "restaurant", "image": "https://dynamic-media-cdn.tripadvisor.com/media/photo-o/27/fb/73/d1/bistoun.jpg?w=1000&s=1", "address": "23 rue Anatole France, 29200, Brest France", "lat": null, "lng": null, "ref_id": 25198696, "rating": 4.5, "num_reviews": 0, "website": "https://www.facebook.com/106476541957270", "contact_phone": "+33 6 10 98 08 33", "contact_email": null, "status": 1, "source_type": 1, "numberReviews": 7}, {"name": "3 Brasseurs Brest", "type": "restaurant", "image": "https://dynamic-media-cdn.tripadvisor.com/media/photo-o/1d/75/94/dc/20210728-132429-largejpg.jpg?w=1000&s=1", "address": "2 rue Gaston Plante ZA de Kergaradec, 29850 Gouesnou, Brest France", "lat": 48.4275, "lng": -4.466453, "ref_id": 20156926, "rating": 3.5, "num_reviews": 0, "website": "http://restaurants.3brasseurs.com/fr/s/brasseurs/brest/911", "contact_phone": "+33 2 98 28 43 32", "contact_email": null, "status": 1, "source_type": 1, "numberReviews": 97}, {"name": "Chinois Gourmet", "type": "restaurant", "image": "https://dynamic-media-cdn.tripadvisor.com/media/photo-o/18/7d/14/92/20190723-193244-largejpg.jpg?w=1000&s=1", "address": "181 rue de Gouesnou, 29200, Brest France", "lat": 48.41782, "lng": -4.4678, "ref_id": 6954729, "rating": 3.5, "num_reviews": 0, "website": "http://www.facebook.com/wanshengbrest/?ref=page_internal", "contact_phone": "+33 2 98 32 53 51", "contact_email": "chinoisgourmetbrest@gmail.com", "status": 1, "source_type": 1, "numberReviews": 117}, {"name": "Les Ribines", "type": "restaurant", "image": "https://dynamic-media-cdn.tripadvisor.com/media/photo-o/1b/9c/7a/8c/les-ribines.jpg?w=1000&s=1", "address": "3 rue de Glasgow, 29200, Brest France", "lat": 48.39213, "lng": -4.48466, "ref_id": 21142550, "rating": 4, "num_reviews": 0, "website": null, "contact_phone": null, "contact_email": null, "status": 1, "source_type": 1, "numberReviews": 16}, {"name": "La Petite Fugue", "type": "restaurant", "image": null, "address": "3 rue Ducouedic, 29200, Brest France", "lat": 48.389088, "lng": -4.487765, "ref_id": 25182652, "rating": 5, "num_reviews": 0, "website": null, "contact_phone": "+33 9 83 82 26 05", "contact_email": "lapetitefugue29@gmail.com", "status": 1, "source_type": 1, "numberReviews": 5}, {"name": "Ristorante Del Arte", "type": "restaurant", "image": "https://dynamic-media-cdn.tripadvisor.com/media/photo-o/07/b6/b7/e0/pizzeria-del-arte.jpg?w=1000&s=1", "address": "14 Place de la Liberte, 29200, Brest France", "lat": 48.39098, "lng": -4.486334, "ref_id": 2489564, "rating": 3, "num_reviews": 0, "website": "www.delarte.fr/", "contact_phone": "+33 2 98 20 10 20", "contact_email": "", "status": 1, "source_type": 1, "numberReviews": 411}, {"name": "Bella Mamma (IZZO)", "type": "restaurant", "image": "https://dynamic-media-cdn.tripadvisor.com/media/photo-o/1d/87/8a/6e/caption.jpg?w=1000&s=1", "address": "6 rue de Siam, 29200, Brest France", "lat": 48.38508, "lng": -4.49378, "ref_id": 23436687, "rating": 3.5, "num_reviews": 0, "website": "http://bellamammabrest.com", "contact_phone": "+33 2 98 46 24 26", "contact_email": "bellamammabrest@gmail.com", "status": 1, "source_type": 1, "numberReviews": 43}, {"name": "Les Fauvettes", "type": "restaurant", "image": "https://dynamic-media-cdn.tripadvisor.com/media/photo-o/0e/31/20/7d/les-fauvettes.jpg?w=1000&s=1", "address": "27 rue Conseil, 29200, Brest France", "lat": 48.39512, "lng": -4.48122, "ref_id": 10027627, "rating": 4, "num_reviews": 0, "website": "http://www.lesfauvettes.fr", "contact_phone": "+33 2 98 44 46 67", "contact_email": null, "status": 1, "source_type": 1, "numberReviews": 31}, {"name": "Pokawa Brest", "type": "restaurant", "image": "https://dynamic-media-cdn.tripadvisor.com/media/photo-o/25/76/07/3d/pokawa-brest.jpg?w=1000&s=1", "address": "7 rue Jean Jaures, 29200, Brest France", "lat": 48.391094, "lng": -4.484329, "ref_id": 23652974, "rating": 4, "num_reviews": 0, "website": "http://restaurants.pokawa.com/poke-bowl-brest/?utm_source=tripadvisor.fr&utm_medium=referral&utm_campaign=directory", "contact_phone": "+33 2 98 00 08 68", "contact_email": "serviceclient@pokawa.com", "status": 1, "source_type": 1, "numberReviews": 9}, {"name": "Delirium", "type": "restaurant", "image": "https://dynamic-media-cdn.tripadvisor.com/media/photo-o/1d/90/f1/c2/delirium.jpg?w=1000&s=1", "address": "1 B rue Jean Marie le Bris, 29200, Brest France", "lat": 48.38197, "lng": -4.48843, "ref_id": 21133394, "rating": 4, "num_reviews": 0, "website": "https://www.facebook.com/112219396977375", "contact_phone": "+33 2 29 62 79 74", "contact_email": "Elmatador29200@hotmail.com", "status": 1, "source_type": 1, "numberReviews": 15}, {"name": "Les zouz", "type": "restaurant", "image": "https://dynamic-media-cdn.tripadvisor.com/media/photo-o/1a/df/27/5c/20200206-130232-largejpg.jpg?w=1000&s=1", "address": "1 rue K\u00e9r\u00e9on, 29200, Brest France", "lat": 48.38104, "lng": -4.5306, "ref_id": 19413571, "rating": 4, "num_reviews": 0, "website": "http://www.facebook.com/lesZouzdebrest/", "contact_phone": "+33 2 56 31 68 02", "contact_email": null, "status": 1, "source_type": 1, "numberReviews": 16}, {"name": "Shoko", "type": "restaurant", "image": "https://dynamic-media-cdn.tripadvisor.com/media/photo-o/1b/d5/e2/d2/p-20200212-172805-largejpg.jpg?w=1000&s=1", "address": "22 rue Jean Baptiste Boussingault, 29200, Brest France", "lat": 48.38867, "lng": -4.48751, "ref_id": 18717149, "rating": 5, "num_reviews": 0, "website": "https://www.facebook.com/shokobrest/", "contact_phone": "+33 9 87 73 84 22", "contact_email": "helloshokobrest@gmail.com", "status": 1, "source_type": 1, "numberReviews": 7}, {"name": "NouNours Caf\u00e9", "type": "restaurant", "image": null, "address": "2 rue de l Observatoire Angle de Rue, 29200, Brest France", "lat": 48.392452, "lng": -4.492119, "ref_id": 23465082, "rating": 5, "num_reviews": 0, "website": null, "contact_phone": null, "contact_email": "cfdt.metaux.finistere@orange.fr", "status": 1, "source_type": 1, "numberReviews": 6}, {"name": "Welli cheri", "type": "restaurant", "image": "https://dynamic-media-cdn.tripadvisor.com/media/photo-o/2a/e8/a6/8c/et-accueil-chaleureux.jpg?w=1000&s=1", "address": "149 rue Pierre S\u00e9mard, 29200, Brest France", "lat": 48.390602, "lng": -4.470392, "ref_id": 26861764, "rating": 5, "num_reviews": 0, "website": null, "contact_phone": "+33 6 79 66 11 07", "contact_email": "wellicheri@gmail.com", "status": 1, "source_type": 1, "numberReviews": 4}, {"name": "Pitaya Brest", "type": "restaurant", "image": "https://dynamic-media-cdn.tripadvisor.com/media/photo-o/1c/95/fe/be/photo0jpg.jpg?w=1000&s=1", "address": "82 Rue Jean Jaures, 29200, Brest France", "lat": 48.39394, "lng": -4.48045, "ref_id": 20314592, "rating": 4, "num_reviews": 0, "website": "https://pitaya-thaistreetfood.com/r/pitaya-brest/?utm_source=tripadvisor.fr&utm_medium=referral&utm_campaign=directory", "contact_phone": "+33 2 57 54 46 31", "contact_email": "", "status": 1, "source_type": 1, "numberReviews": 18}, {"name": "My sushi 29", "type": "restaurant", "image": "https://dynamic-media-cdn.tripadvisor.com/media/photo-o/29/a3/c0/6b/nos-menus-servi-avec.jpg?w=1000&s=1", "address": "14 Rue Victor Hugo, 29200, Brest France", "lat": 48.39217, "lng": -4.481265, "ref_id": 26313645, "rating": 5, "num_reviews": 0, "website": "https://mysushi29brest.com/", "contact_phone": "+33 9 83 36 55 41", "contact_email": "mysushi.brest@gmail.com", "status": 1, "source_type": 1, "numberReviews": 4}, {"name": "Saphir Thai Express", "type": "restaurant", "image": "https://dynamic-media-cdn.tripadvisor.com/media/photo-o/0f/c0/c2/ee/vitrine-chaude.jpg?w=1000&s=1", "address": "6 Rue De Porstrein, 29200, Brest France", "lat": 48.38222, "lng": -4.48751, "ref_id": 12429025, "rating": 3.5, "num_reviews": 0, "website": "http://www.saphirthaiexpress.fr", "contact_phone": "+33 2 90 91 10 43", "contact_email": "contact@saphirthaiexpress.fr", "status": 1, "source_type": 1, "numberReviews": 38}, {"name": "Allo Pizza", "type": "restaurant", "image": "https://dynamic-media-cdn.tripadvisor.com/media/photo-o/1c/53/24/b6/pizza-a-emporter-au-0298463278.jpg?w=1000&s=1", "address": "127 rue Jean Jaures, 29200, Brest France", "lat": 44.87002, "lng": 4.875909, "ref_id": 21391880, "rating": 4.5, "num_reviews": 0, "website": "http://www.allo-pizza-brest.fr/", "contact_phone": "+33 2 98 46 32 78", "contact_email": "Allopizzabrest@outlook.fr", "status": 1, "source_type": 1, "numberReviews": 10}, {"name": "Pizza Mamamia", "type": "restaurant", "image": "https://dynamic-media-cdn.tripadvisor.com/media/photo-o/29/e8/69/0f/the-staf-is-super-friendly.jpg?w=1000&s=1", "address": "53 boulevard Montaigne, 29200, Brest France", "lat": 48.40157, "lng": -4.48317, "ref_id": 19804850, "rating": 4.5, "num_reviews": 0, "website": "https://www.mamamia29.fr", "contact_phone": "+33 2 98 44 62 42", "contact_email": "mamamiabrest29@gmail.com", "status": 1, "source_type": 1, "numberReviews": 6}, {"name": "L'Alcyone", "type": "restaurant", "image": "https://dynamic-media-cdn.tripadvisor.com/media/photo-o/07/d8/ca/68/la-tarte-kebab-du-chef.jpg?w=1000&s=1", "address": "11 rue Amiral Troude, 29200, Brest France", "lat": 48.3863, "lng": -4.47942, "ref_id": 1329201, "rating": 4.5, "num_reviews": 0, "website": "http://www.alcyone-brest.com", "contact_phone": "+33 2 98 44 19 86", "contact_email": "", "status": 1, "source_type": 1, "numberReviews": 11}, {"name": "Ristorante Del Arte", "type": "restaurant", "image": "https://dynamic-media-cdn.tripadvisor.com/media/photo-o/0f/1c/da/73/ristorante-del-arte.jpg?w=1000&s=1", "address": "48 rue Amiral Romain Desfosses Zone Commerciale De Kergaradec, 29200, Brest France", "lat": 48.427895, "lng": -4.473749, "ref_id": 10787001, "rating": 3.5, "num_reviews": 0, "website": "http://www.delarte.fr/restaurant-italien-pizzeria-brest-kergaradec.html", "contact_phone": "+33 2 98 38 74 59", "contact_email": "info@delarte.fr", "status": 1, "source_type": 1, "numberReviews": 116}, {"name": "La Cale Brestoise", "type": "restaurant", "image": "https://dynamic-media-cdn.tripadvisor.com/media/photo-o/2b/62/5c/1d/dessert-maison.jpg?w=1000&s=1", "address": "38 quai de la douane 29200Brest, 29200, Brest France", "lat": 48.383152, "lng": -4.483707, "ref_id": 26093685, "rating": 5, "num_reviews": 0, "website": null, "contact_phone": null, "contact_email": null, "status": 1, "source_type": 1, "numberReviews": 4}, {"name": "Oyster Bar", "type": "restaurant", "image": "https://dynamic-media-cdn.tripadvisor.com/media/photo-o/1a/1e/89/35/photo0jpg.jpg?w=1000&s=1", "address": "2 quai de la Douane, 29200, Brest France", "lat": 48.381775, "lng": -4.488094, "ref_id": 17593545, "rating": 3.5, "num_reviews": 0, "website": "https://www.facebook.com/oysterbrest/", "contact_phone": "+33 2 98 46 29 48", "contact_email": null, "status": 1, "source_type": 1, "numberReviews": 46}, {"name": "Chez M\u00fcller", "type": "restaurant", "image": "https://dynamic-media-cdn.tripadvisor.com/media/photo-o/14/d5/d7/6a/brest-chez-mueller.jpg?w=1000&s=1", "address": "29 rue Navarin, 29200, Brest France", "lat": 48.3969, "lng": -4.4789, "ref_id": 12374488, "rating": 4, "num_reviews": 0, "website": "https://www.facebook.com/361139510698973", "contact_phone": "+33 2 90 91 18 13", "contact_email": "cavechezmuller@gmail.com", "status": 1, "source_type": 1, "numberReviews": 11}, {"name": "LES 3C Copains Comme Cochon", "type": "restaurant", "image": "https://dynamic-media-cdn.tripadvisor.com/media/photo-o/27/e2/74/04/entree-propose-en-entree.jpg?w=1000&s=1", "address": "33 avenue Georges Clemenceau, 29200, Brest France", "lat": 48.391354, "lng": -4.487716, "ref_id": 25251927, "rating": 5, "num_reviews": 0, "website": null, "contact_phone": "+33 2 29 63 80 56", "contact_email": "letallecles3c@hotmail.com", "status": 1, "source_type": 1, "numberReviews": 4}, {"name": "Le Charldann'", "type": "restaurant", "image": "https://dynamic-media-cdn.tripadvisor.com/media/photo-o/04/7c/81/8c/cote-veranda.jpg?w=1000&s=1", "address": "Route des Blancs Sablons Trebabu, 29217, Brest France", "lat": 48.35931, "lng": -4.76006, "ref_id": 3525425, "rating": 3, "num_reviews": 0, "website": "http://www.facebook.com/LeCharldann", "contact_phone": "+33 2 98 89 10 68", "contact_email": null, "status": 1, "source_type": 1, "numberReviews": 177}, {"name": "LA CAVE Ou MANGER", "type": "restaurant", "image": null, "address": "13 rue de la Villeneuve, 29200, Brest France", "lat": 48.41129, "lng": -4.45772, "ref_id": 20021347, "rating": 5, "num_reviews": 0, "website": "http://www.caviste-brest.fr/", "contact_phone": "+33 2 98 42 04 68", "contact_email": null, "status": 1, "source_type": 1, "numberReviews": 2}, {"name": "Les Brigantins", "type": "restaurant", "image": null, "address": "1 rue de la Croix ZAC de Kergardec, 29850 Gouesnou, Brest France", "lat": 48.42882, "lng": -4.46759, "ref_id": 13546538, "rating": 5, "num_reviews": 0, "website": "https://www.facebook.com/brigantins/", "contact_phone": "+33 2 98 02 16 04", "contact_email": null, "status": 1, "source_type": 1, "numberReviews": 2}, {"name": "Pizza et tradition", "type": "restaurant", "image": "https://dynamic-media-cdn.tripadvisor.com/media/photo-o/0d/08/81/25/pizza-et-tradition.jpg?w=1000&s=1", "address": "49 rue de Paris, 29200, Brest France", "lat": 48.40604, "lng": -4.46178, "ref_id": 10033264, "rating": 3.5, "num_reviews": 0, "website": "https://www.facebook.com/570484996421194", "contact_phone": "+33 2 98 02 20 00", "contact_email": null, "status": 1, "source_type": 1, "numberReviews": 21}, {"name": "Restaurant Les Gens de la Mer", "type": "restaurant", "image": "https://dynamic-media-cdn.tripadvisor.com/media/photo-o/04/a8/cc/0e/un-tanto-incomible-la.jpg?w=1000&s=1", "address": "44 quai de la Douane, 29200, Brest France", "lat": 48.38316, "lng": -4.48295, "ref_id": 2216448, "rating": 3.5, "num_reviews": 0, "website": "http://www.lesgensdemer.fr", "contact_phone": "+33 2 98 46 07 40", "contact_email": "agism.secretariat@agism.asso.fr", "status": 1, "source_type": 1, "numberReviews": 27}, {"name": "eat sushi brest", "type": "restaurant", "image": "https://dynamic-media-cdn.tripadvisor.com/media/photo-o/05/78/14/67/eat-sushi-brest.jpg?w=1000&s=1", "address": "17 rue de Siam, 29200, Brest France", "lat": 48.385387, "lng": -4.492477, "ref_id": 5559638, "rating": 3.5, "num_reviews": 0, "website": "http://www.eatsushi.fr", "contact_phone": "+33 2 98 80 36 65", "contact_email": "brest@eatsushi.fr", "status": 1, "source_type": 1, "numberReviews": 8}, {"name": "Le Rajasthan", "type": "restaurant", "image": "https://dynamic-media-cdn.tripadvisor.com/media/photo-o/12/46/ae/82/poulet-tandoori.jpg?w=1000&s=1", "address": "40 rue de la Porte Near Recouvrance, 29200, Brest France", "lat": 48.38405, "lng": -4.501326, "ref_id": 7832202, "rating": 4, "num_reviews": 0, "website": "https://le-rajasthan.business.site/", "contact_phone": "+33 2 98 05 07 46", "contact_email": null, "status": 1, "source_type": 1, "numberReviews": 9}, {"name": "Brioche Dor\u00e9e", "type": "restaurant", "image": "https://dynamic-media-cdn.tripadvisor.com/media/photo-o/18/61/6a/87/glace-italienne-nul-la.jpg?w=1000&s=1", "address": "29 Route de Gouesnou, 29200, Brest France", "lat": 48.40818, "lng": -4.46569, "ref_id": 12900021, "rating": 4, "num_reviews": 0, "website": "http://www.briochedoree.fr/", "contact_phone": "+33 2 98 02 50 15", "contact_email": null, "status": 1, "source_type": 1, "numberReviews": 5}, {"name": "La br\u00fblerie des capucins", "type": "restaurant", "image": null, "address": "88 rue Jean Jaures, 29200, Brest France", "lat": 48.39412, "lng": -4.48017, "ref_id": 18195727, "rating": 4.5, "num_reviews": 0, "website": "http://www.brulerieduleon.com/", "contact_phone": null, "contact_email": null, "status": 1, "source_type": 1, "numberReviews": 2}, {"name": "Satyr", "type": "restaurant", "image": null, "address": "1 Rue Ducouedic, Brest France", "lat": 48.389088, "lng": -4.487765, "ref_id": 26914193, "rating": 5, "num_reviews": 0, "website": null, "contact_phone": "+33 2 98 20 22 35", "contact_email": null, "status": 1, "source_type": 1, "numberReviews": 1}, {"name": "Au Bureau Brest", "type": "restaurant", "image": "https://dynamic-media-cdn.tripadvisor.com/media/photo-o/26/25/2a/52/caption.jpg?w=1000&s=1", "address": "145 quai Eric Tabarly, 29200, Brest France", "lat": 48.380257, "lng": -4.4907, "ref_id": 23925712, "rating": 3, "num_reviews": 0, "website": "https://www.aubureau.fr/restaurant/?ville=AB_Brest1&y_source=1_MzI1NDU1MDItNzY5LWxvY2F0aW9uLndlYnNpdGU%3D", "contact_phone": "+33 2 98 43 10 48", "contact_email": "brest@aubureau.fr", "status": 1, "source_type": 1, "numberReviews": 49}, {"name": "La Guarida", "type": "restaurant", "image": null, "address": "7 rue Mathieu Donnart, 29200, Brest France", "lat": 48.39807, "lng": -4.48285, "ref_id": 14109664, "rating": 4, "num_reviews": 0, "website": "https://www.facebook.com/La-Guarida-128406750579703/", "contact_phone": "+33 2 90 82 21 96", "contact_email": null, "status": 1, "source_type": 1, "numberReviews": 9}, {"name": "Chile Loco Mexicanfood", "type": "restaurant", "image": null, "address": "280 rue Alain Colas, 29200, Brest France", "lat": 48.39175, "lng": -4.44593, "ref_id": 17712826, "rating": 4.5, "num_reviews": 0, "website": null, "contact_phone": "+33 6 58 71 42 70", "contact_email": "chilelocobrest@gmail.com", "status": 1, "source_type": 1, "numberReviews": 2}, {"name": "Le Conti Bar & Restaurant", "type": "restaurant", "image": "https://dynamic-media-cdn.tripadvisor.com/media/photo-o/2b/f6/cc/41/tres-beau-bar-tres-chic.jpg?w=1000&s=1", "address": "41 rue Emile Zola Square de la Tour d'Auvergne, 29200, Brest France", "lat": 48.38757, "lng": -4.487193, "ref_id": 26554274, "rating": 3, "num_reviews": 0, "website": "https://www.oceaniahotels.com/fr/restaurants-et-bars/nos-restaurants/restaurant-bar-le-conti", "contact_phone": "+33 2 98 80 50 40", "contact_email": null, "status": 1, "source_type": 1, "numberReviews": 5}, {"name": "Speed Burger", "type": "restaurant", "image": null, "address": "27 rue Remy Coppin, 29200, Brest France", "lat": 48.39406, "lng": -4.49356, "ref_id": 6788523, "rating": 3.5, "num_reviews": 0, "website": "http://speedburger.com", "contact_phone": "+33 2 30 99 96 19", "contact_email": null, "status": 1, "source_type": 1, "numberReviews": 15}, {"name": "Restaurant Universitaire Armen", "type": "restaurant", "image": null, "address": "2 B avenue Victor le Gorgeu, 29200, Brest France", "lat": 48.397335, "lng": -4.494, "ref_id": 15335983, "rating": 5, "num_reviews": 0, "website": null, "contact_phone": "+33 2 98 03 39 21", "contact_email": null, "status": 1, "source_type": 1, "numberReviews": 1}, {"name": "Le Temple du Pharaon", "type": "restaurant", "image": "https://dynamic-media-cdn.tripadvisor.com/media/photo-o/0d/df/d4/5e/100-bio.jpg?w=1000&s=1", "address": "36 rue Jean Mace, 29200, Brest France", "lat": 48.38711, "lng": -4.48883, "ref_id": 5787895, "rating": 3.5, "num_reviews": 0, "website": "http://www.letemple-dupharaon.fr", "contact_phone": "+33 2 98 46 91 48", "contact_email": "letemple.dupharaon@numericable.fr", "status": 1, "source_type": 1, "numberReviews": 7}, {"name": "La Finette", "type": "restaurant", "image": "https://dynamic-media-cdn.tripadvisor.com/media/photo-o/0e/1b/4d/72/buffet-viandes-froides.jpg?w=1000&s=1", "address": "44 rue du Bois, 29850 Gouesnou, Brest France", "lat": 48.44942, "lng": -4.45516, "ref_id": 8783172, "rating": 3.5, "num_reviews": 0, "website": "http://www.facebook.com/lafinette.gouesnou/", "contact_phone": "+33 2 98 07 86 68", "contact_email": null, "status": 1, "source_type": 1, "numberReviews": 11}, {"name": "Chez Marine", "type": "restaurant", "image": null, "address": "Rue Jean Jaur\u00e8s, Brest France", "lat": 48.40406, "lng": -4.46602, "ref_id": 23117257, "rating": 5, "num_reviews": 0, "website": null, "contact_phone": null, "contact_email": null, "status": 1, "source_type": 1, "numberReviews": 1}, {"name": "LA Normandie", "type": "restaurant", "image": null, "address": "Sp11188 00100 hub arm\u00e9e, 29200, Brest France", "lat": null, "lng": null, "ref_id": 20177836, "rating": -1, "num_reviews": 0, "website": null, "contact_phone": "+33 6 18 34 02 21", "contact_email": null, "status": 1, "source_type": 1, "numberReviews": 0}, {"name": "L\u2019Esperluette", "type": "restaurant", "image": "https://dynamic-media-cdn.tripadvisor.com/media/photo-o/1b/6b/32/c5/photo0jpg.jpg?w=1000&s=1", "address": "Brest France", "lat": null, "lng": null, "ref_id": 21010613, "rating": 5, "num_reviews": 0, "website": "https://www.facebook.com/pages/category/Food-Truck/LEsperluette-Food-Truck-2185727475076755/", "contact_phone": "+33 6 19 34 52 57", "contact_email": null, "status": 1, "source_type": 1, "numberReviews": 1}, {"name": "Columbus Cafe & Co", "type": "restaurant", "image": "https://dynamic-media-cdn.tripadvisor.com/media/photo-o/1b/2d/5d/01/photo-de-profil.jpg?w=1000&s=1", "address": "64 Rue De Siam, 29200, Brest France", "lat": 48.38812, "lng": -4.489084, "ref_id": 10454131, "rating": 3, "num_reviews": 0, "website": "http://www.columbuscafe.com/boutique/brest-rue-de-siam/", "contact_phone": "+33 2 98 33 18 40", "contact_email": "serviceclient@columbuscafe.com", "status": 1, "source_type": 1, "numberReviews": 53}, {"name": "Compoz'eat", "type": "restaurant", "image": null, "address": "33 rue Monge, 29200, Brest France", "lat": 48.38503, "lng": -4.49256, "ref_id": 20047008, "rating": 5, "num_reviews": 0, "website": "https://www.facebook.com/Compozeat29/", "contact_phone": "+33 6 61 18 80 81", "contact_email": null, "status": 1, "source_type": 1, "numberReviews": 1}, {"name": "La Dolce Pizza", "type": "restaurant", "image": "https://dynamic-media-cdn.tripadvisor.com/media/photo-o/1c/ea/b1/f3/la-dolce-pizza.jpg?w=1000&s=1", "address": "33 rue Albert Louppe, 29200, Brest France", "lat": 48.40354, "lng": -4.47121, "ref_id": 12538731, "rating": 3.5, "num_reviews": 0, "website": "http://www.dolcepizza-brest.fr/", "contact_phone": "+33 2 98 20 02 02", "contact_email": null, "status": 1, "source_type": 1, "numberReviews": 8}, {"name": "La Bo\u00eete \u00e0 Pizza", "type": "restaurant", "image": null, "address": "10 avenue de Tarente, 29200, Brest France", "lat": 48.40343, "lng": -4.50833, "ref_id": 15549043, "rating": 3.5, "num_reviews": 0, "website": "http://www.laboiteapizza.com/restaurant/Brest", "contact_phone": "+33 2 98 40 03 33", "contact_email": null, "status": 1, "source_type": 1, "numberReviews": 5}, {"name": "L'Habit Fait le Moi", "type": "restaurant", "image": null, "address": "20 B rue de Siam, 29200, Brest France", "lat": 48.385475, "lng": -4.492436, "ref_id": 15057165, "rating": 5, "num_reviews": 0, "website": "http://www.lhabitfaitlemoi.com", "contact_phone": "+33 2 29 62 21 53", "contact_email": "lhabitfaitlemoi@gmail.com", "status": 1, "source_type": 1, "numberReviews": 1}, {"name": "Kous", "type": "restaurant", "image": null, "address": "27 Rue De Lyon, 29200, Brest France", "lat": 48.388214, "lng": -4.487663, "ref_id": 27723089, "rating": 4, "num_reviews": 0, "website": null, "contact_phone": null, "contact_email": null, "status": 1, "source_type": 1, "numberReviews": 1}, {"name": "L'annexe de la Base", "type": "restaurant", "image": "https://dynamic-media-cdn.tripadvisor.com/media/photo-o/1a/71/00/56/l-annexe-de-la-base-2.jpg?w=1000&s=1", "address": "95 quai Eric Tabarly, 29200, Brest France", "lat": 48.38045, "lng": -4.4902, "ref_id": 19754255, "rating": 3.5, "num_reviews": 0, "website": null, "contact_phone": "+33 2 98 45 56 15", "contact_email": null, "status": 1, "source_type": 1, "numberReviews": 11}, {"name": "Le Gros Quartz", "type": "restaurant", "image": "https://dynamic-media-cdn.tripadvisor.com/media/photo-o/2b/75/a9/53/une-assiette-plat-avec.jpg?w=1000&s=1", "address": "60 Rue Du Ch\u00e2teau, 29200, Brest France", "lat": 48.388893, "lng": -4.484611, "ref_id": 27397320, "rating": 3.5, "num_reviews": 0, "website": null, "contact_phone": null, "contact_email": null, "status": 1, "source_type": 1, "numberReviews": 2}, {"name": "La Raskette", "type": "restaurant", "image": "https://dynamic-media-cdn.tripadvisor.com/media/photo-o/1c/b0/1a/86/salle.jpg?w=1000&s=1", "address": "Rue de la Reunion, 29200, Brest France", "lat": 48.386024, "lng": -4.475229, "ref_id": 18926692, "rating": 3, "num_reviews": 0, "website": "http://www.laraskette.com", "contact_phone": "+33 2 98 80 31 99", "contact_email": "contact@laraskette.com", "status": 1, "source_type": 1, "numberReviews": 42}, {"name": "Pizza Six", "type": "restaurant", "image": "https://dynamic-media-cdn.tripadvisor.com/media/photo-o/2a/8a/55/b2/caption.jpg?w=1000&s=1", "address": "192 rue Jean Jaures, 29200, Brest France", "lat": 48.398647, "lng": -4.473422, "ref_id": 26695103, "rating": 4, "num_reviews": 0, "website": null, "contact_phone": null, "contact_email": null, "status": 1, "source_type": 1, "numberReviews": 1}, {"name": "Tourdu'm", "type": "restaurant", "image": null, "address": "Port de Plaisance, 29200, Brest France", "lat": 48.39161, "lng": -4.4357, "ref_id": 4844637, "rating": 3.5, "num_reviews": 0, "website": "http://www.tourdum.fr", "contact_phone": "+33 2 98 41 93 65", "contact_email": "tourdum@tourdum.fr", "status": 1, "source_type": 1, "numberReviews": 6}, {"name": "C\u00f4t\u00e9 Sushi Brest", "type": "restaurant", "image": "https://dynamic-media-cdn.tripadvisor.com/media/photo-o/2a/f3/ac/0f/cote-sushi-une-fusion.jpg?w=1000&s=1", "address": "14 Rue Ducouedic, 29200, Brest France", "lat": null, "lng": null, "ref_id": 24973517, "rating": 4, "num_reviews": 0, "website": null, "contact_phone": "+33 2 52 56 69 14", "contact_email": null, "status": 1, "source_type": 1, "numberReviews": 1}, {"name": "Marmaris Kebab", "type": "restaurant", "image": "https://dynamic-media-cdn.tripadvisor.com/media/photo-o/11/05/43/5c/getlstd-property-photo.jpg?w=1000&s=1", "address": "42 Place Napoleon III, 29200, Brest France", "lat": 48.40445, "lng": -4.50848, "ref_id": 12998942, "rating": 4, "num_reviews": 0, "website": null, "contact_phone": "+33 9 87 12 75 49", "contact_email": null, "status": 1, "source_type": 1, "numberReviews": 1},