[{"name": "K.cheapo Depo", "type": "restaurant", "image": null, "address": "Abesim-Nkrankrom road Closer To Ollister School, Sunyani Ghana", "lat": 7.286565, "lng": -2.277813, "ref_id": 26346032, "rating": 5, "num_reviews": 0, "website": null, "contact_phone": "+233 55 634 4002", "contact_email": "kkcheapodepo@gmail.com", "status": 1, "source_type": 1, "numberReviews": 3}, {"name": "Eusbett Restaurant", "type": "restaurant", "image": null, "address": "Sir Sam Bennett Street, Sunyani Ghana", "lat": 7.34243, "lng": -2.31764, "ref_id": 24133542, "rating": -1, "num_reviews": 0, "website": "http://www.eusbetthotel.com", "contact_phone": "+233 54 709 9003", "contact_email": null, "status": 1, "source_type": 1, "numberReviews": 0}, {"name": "Wooden Tower", "type": "restaurant", "image": "https://dynamic-media-cdn.tripadvisor.com/media/photo-o/27/c3/57/27/caption.jpg?w=1000&s=1", "address": "Kenyasi Bypass, Kenyasi Number 2 Ghana", "lat": 6.98272, "lng": -2.38331, "ref_id": 20032617, "rating": 3.5, "num_reviews": 0, "website": "http://thewoodentower.com/", "contact_phone": "+233 20 700 0555", "contact_email": "info@thewoodentower.com", "status": 1, "source_type": 1, "numberReviews": 3}, {"name": "Anansekrom Pub And Restaurant", "type": "restaurant", "image": null, "address": "Anansekrom, Goaso Ghana", "lat": 6.797868, "lng": -2.522499, "ref_id": 23002617, "rating": -1, "num_reviews": 0, "website": null, "contact_phone": "+233 24 352 7120", "contact_email": null, "status": 1, "source_type": 1, "numberReviews": 0}, {"name": "City Aroma", "type": "restaurant", "image": "https://dynamic-media-cdn.tripadvisor.com/media/photo-o/27/4d/4b/43/these-are-photos-of-city.jpg?w=1000&s=1", "address": "7r 6cvv9j4f, Fiapre Ghana", "lat": 7.355687, "lng": -2.375438, "ref_id": 25192460, "rating": -1, "num_reviews": 0, "website": null, "contact_phone": "+233 55 856 2102", "contact_email": null, "status": 1, "source_type": 1, "numberReviews": 0}, {"name": "De Capital Grille", "type": "restaurant", "image": "https://dynamic-media-cdn.tripadvisor.com/media/photo-o/2a/55/b4/13/eating-area.jpg?w=1000&s=1", "address": "Rf6j+r3 Gps: Ha-0012-9434, Goaso Ghana", "lat": 6.812062, "lng": -2.519999, "ref_id": 26637112, "rating": -1, "num_reviews": 0, "website": "https://www.decapitalgrille.com", "contact_phone": "+233 55 511 3115", "contact_email": "admin@decapitalgrille.com", "status": 1, "source_type": 1, "numberReviews": 0}, {"name": "Ole Bar and Restaurant", "type": "restaurant", "image": null, "address": "8MW2+W2W, Sunyani, Fiapre Ghana", "lat": 7.347362, "lng": -2.349922, "ref_id": 26807201, "rating": -1, "num_reviews": 0, "website": null, "contact_phone": null, "contact_email": null, "status": 1, "source_type": 1, "numberReviews": 0}, {"name": "Swift", "type": "restaurant", "image": null, "address": "9M23+8Q6 Sunyani, Fiapre Ghana", "lat": 7.350788, "lng": -2.345609, "ref_id": 26956041, "rating": -1, "num_reviews": 0, "website": null, "contact_phone": "+233 20 812 1606", "contact_email": null, "status": 1, "source_type": 1, "numberReviews": 0}, {"name": "Landon Sympathy Hotel", "type": "hotel", "image": null, "address": "Kumasi-Sunyani Road, Bechem Ghana", "lat": 7.08766, "lng": -2.02591, "ref_id": 13541372, "rating": -1, "num_reviews": 0, "website": null, "contact_phone": null, "contact_email": null, "status": 1, "source_type": 1, "numberReviews": 0}, {"name": "Orange Hotel", "type": "hotel", "image": null, "address": "Bechem Ghana", "lat": 7.051149, "lng": -2.037964, "ref_id": 13839125, "rating": -1, "num_reviews": 0, "website": null, "contact_phone": null, "contact_email": null, "status": 1, "source_type": 1, "numberReviews": 0}, {"name": "Fulmar Guest House", "type": "hotel", "image": null, "address": "Kumasi-Sunyani Road, Bechem Ghana", "lat": 7.18774, "lng": -2.09912, "ref_id": 13302626, "rating": -1, "num_reviews": 0, "website": null, "contact_phone": null, "contact_email": null, "status": 1, "source_type": 1, "numberReviews": 0}, {"name": "Mirikisi Guest House", "type": "hotel", "image": null, "address": "Nkoranza Ghana", "lat": 7.75, "lng": -1.5, "ref_id": 13136169, "rating": -1, "num_reviews": 0, "website": null, "contact_phone": null, "contact_email": null, "status": 1, "source_type": 1, "numberReviews": 0}, {"name": "Nana Adu's Lodge", "type": "hotel", "image": null, "address": "Nkoranza Ghana", "lat": 7.75, "lng": -1.5, "ref_id": 13136170, "rating": -1, "num_reviews": 0, "website": null, "contact_phone": null, "contact_email": null, "status": 1, "source_type": 1, "numberReviews": 0}, {"name": "Jusmoc Hotel", "type": "hotel", "image": null, "address": "Sessiman, Nkoranza Ghana", "lat": 7.75, "lng": -1.5, "ref_id": 13139824, "rating": -1, "num_reviews": 0, "website": null, "contact_phone": null, "contact_email": null, "status": 1, "source_type": 1, "numberReviews": 0}, {"name": "Wanchi Ija Eco Lodge By Ethiopian Skylight", "type": "hotel", "image": "https://dynamic-media-cdn.tripadvisor.com/media/photo-o/2b/e5/e9/5d/caption.jpg?w=1000&s=1", "address": "Wenchi Crater Lake, Wenchi Ghana", "lat": 8.789029, "lng": 37.87672, "ref_id": 27675181, "rating": -1, "num_reviews": 0, "website": "https://www.wanchi-ija.com", "contact_phone": "+251 97 849 7764", "contact_email": "connect@wanchi-ija.com", "status": 1, "source_type": 1, "numberReviews": 0}, {"name": "Anogee Guest House", "type": "hotel", "image": null, "address": "Wenchi - Bole Road, Wenchi Ghana", "lat": 7.89653, "lng": -2.06853, "ref_id": 13350673, "rating": -1, "num_reviews": 0, "website": null, "contact_phone": null, "contact_email": null, "status": 1, "source_type": 1, "numberReviews": 0}, {"name": "Ausbeng Hotel", "type": "hotel", "image": null, "address": "Sunyani-Sampa Road, Drobo Ghana", "lat": 7.36713, "lng": -2.34787, "ref_id": 15362778, "rating": -1, "num_reviews": 0, "website": null, "contact_phone": null, "contact_email": null, "status": 1, "source_type": 1, "numberReviews": 0}, {"name": "Adinkra Memorial Hotel", "type": "hotel", "image": null, "address": "Sunyani-Sampa Road, Drobo Ghana", "lat": 7.36713, "lng": -2.34787, "ref_id": 13546236, "rating": -1, "num_reviews": 0, "website": null, "contact_phone": null, "contact_email": null, "status": 1, "source_type": 1, "numberReviews": 0}, {"name": "Midway Hotel", "type": "hotel", "image": null, "address": "Kintampo Ghana", "lat": 8.056643, "lng": -1.728458, "ref_id": 13072908, "rating": -1, "num_reviews": 0, "website": null, "contact_phone": null, "contact_email": null, "status": 1, "source_type": 1, "numberReviews": 0}, {"name": "Falls Executive Guest House", "type": "hotel", "image": null, "address": "Off Techiman-Tamale Rd, Kintampo 00020 Ghana", "lat": 8.04509, "lng": -1.728858, "ref_id": 13072148, "rating": -1, "num_reviews": 0, "website": null, "contact_phone": null, "contact_email": null, "status": 1, "source_type": 1, "numberReviews": 0}, {"name": "Adom Guest House", "type": "hotel", "image": null, "address": "Techiman-Tamale Road, Kintampo Ghana", "lat": 8.05508, "lng": -1.72622, "ref_id": 13072144, "rating": -1, "num_reviews": 0, "website": null, "contact_phone": null, "contact_email": null, "status": 1, "source_type": 1, "numberReviews": 0}, {"name": "Toronto Guest House", "type": "hotel", "image": null, "address": "Techiman-Tamale Road, Kintampo Ghana", "lat": 8.05508, "lng": -1.72622, "ref_id": 13073067, "rating": -1, "num_reviews": 0, "website": null, "contact_phone": null, "contact_email": null, "status": 1, "source_type": 1, "numberReviews": 0}, {"name": "Hamasei Hotel", "type": "hotel", "image": null, "address": "Kintampo Ghana", "lat": 8.059022, "lng": -1.72348, "ref_id": 13072972, "rating": -1, "num_reviews": 0, "website": null, "contact_phone": null, "contact_email": null, "status": 1, "source_type": 1, "numberReviews": 0}, {"name": "Okumah Executive Lodge", "type": "hotel", "image": null, "address": "Techiman-Tamale Road, Kintampo Ghana", "lat": 8.05508, "lng": -1.72622, "ref_id": 13839150, "rating": -1, "num_reviews": 0, "website": null, "contact_phone": null, "contact_email": null, "status": 1, "source_type": 1, "numberReviews": 0}, {"name": "Wudis Hotel", "type": "hotel", "image": null, "address": "New Krobo Techiman, Tuobodum Ghana", "lat": 7.62143, "lng": -1.905785, "ref_id": 12848419, "rating": -1, "num_reviews": 0, "website": null, "contact_phone": null, "contact_email": null, "status": 1, "source_type": 1, "numberReviews": 0}, {"name": "Octagon Executive Hotel", "type": "hotel", "image": null, "address": "Eternity Road, Ntorosoro Ghana", "lat": 7.44135, "lng": -2.57505, "ref_id": 13320361, "rating": -1, "num_reviews": 0, "website": null, "contact_phone": null, "contact_email": null, "status": 1, "source_type": 1, "numberReviews": 0}, {"name": "Shanamir Cottage", "type": "hotel", "image": null, "address": "Obiri Yeboah New Town No-137 Block .C. Sector 9, Odumase Ghana", "lat": 6.85674, "lng": -2.27063, "ref_id": 27734061, "rating": -1, "num_reviews": 0, "website": null, "contact_phone": null, "contact_email": null, "status": 1, "source_type": 1, "numberReviews": 0}, {"name": "Friends Garden Hotel", "type": "hotel", "image": null, "address": "44 Street Dawen, Odumase Ghana", "lat": 7.38013, "lng": -2.314425, "ref_id": 12883464, "rating": -1, "num_reviews": 0, "website": null, "contact_phone": null, "contact_email": null, "status": 1, "source_type": 1, "numberReviews": 0}, {"name": "Fancy Lodge", "type": "hotel", "image": null, "address": "Odumase Road Near St. Mary's Prep / JSS, Odumase Ghana", "lat": 7.368118, "lng": -2.313995, "ref_id": 12989608, "rating": -1, "num_reviews": 0, "website": null, "contact_phone": null, "contact_email": null, "status": 1, "source_type": 1, "numberReviews": 0}, {"name": "Gefana Hotel", "type": "hotel", "image": null, "address": "Techiman - Nkoranza Road, Forikrom Ghana", "lat": 7.578669, "lng": -1.84845, "ref_id": 12848629, "rating": -1, "num_reviews": 0, "website": null, "contact_phone": null, "contact_email": null, "status": 1, "source_type": 1, "numberReviews": 0}, {"name": "Ramvis Lodge", "type": "hotel", "image": null, "address": "Sunyani - Berekum Road, Sunyani Ghana", "lat": 7.351505, "lng": -2.344323, "ref_id": 12938954, "rating": -1, "num_reviews": 0, "website": null, "contact_phone": null, "contact_email": null, "status": 1, "source_type": 1, "numberReviews": 0}, {"name": "K Holidays Hotel", "type": "hotel", "image": null, "address": "Mariarose High School Road, Sunyani Ghana", "lat": 7.31801, "lng": -2.3106, "ref_id": 12696944, "rating": -1, "num_reviews": 0, "website": null, "contact_phone": null, "contact_email": null, "status": 1, "source_type": 1, "numberReviews": 0}, {"name": "Morinest Guest House", "type": "hotel", "image": null, "address": "Boakuneaba, Sunyani Ghana", "lat": 7.333487, "lng": -2.34129, "ref_id": 12851065, "rating": -1, "num_reviews": 0, "website": null, "contact_phone": null, "contact_email": null, "status": 1, "source_type": 1, "numberReviews": 0}, {"name": "Tropical Hotel", "type": "hotel", "image": null, "address": "Near Jubilee Park, Sunyani Ghana", "lat": 7.325083, "lng": -2.318738, "ref_id": 13085710, "rating": -1, "num_reviews": 0, "website": null, "contact_phone": null, "contact_email": null, "status": 1, "source_type": 1, "numberReviews": 0}, {"name": "Mart Villa Lodge", "type": "hotel", "image": null, "address": "Berlintop, Sunyani Ghana", "lat": 7.29594, "lng": -2.28069, "ref_id": 12731109, "rating": -1, "num_reviews": 0, "website": null, "contact_phone": null, "contact_email": null, "status": 1, "source_type": 1, "numberReviews": 0}, {"name": "Maryland Guesthouse", "type": "hotel", "image": "https://dynamic-media-cdn.tripadvisor.com/media/photo-o/19/18/fe/5a/getlstd-property-photo.jpg?w=1000&s=1", "address": "Chiraa Road, Sunyani Ghana", "lat": 7.18774, "lng": -2.09912, "ref_id": 18930106, "rating": -1, "num_reviews": 0, "website": null, "contact_phone": null, "contact_email": null, "status": 1, "source_type": 1, "numberReviews": 0}, {"name": "Phimprev Hotel", "type": "hotel", "image": null, "address": "Sunyani Road, Sunyani Ghana", "lat": 7.2972, "lng": -2.29079, "ref_id": 12987484, "rating": -1, "num_reviews": 0, "website": null, "contact_phone": null, "contact_email": null, "status": 1, "source_type": 1, "numberReviews": 0}, {"name": "Big Apple", "type": "hotel", "image": null, "address": "Sunyani - Berekum Road, Sunyani Ghana", "lat": 7.351505, "lng": -2.344323, "ref_id": 13540354, "rating": -1, "num_reviews": 0, "website": null, "contact_phone": null, "contact_email": null, "status": 1, "source_type": 1, "numberReviews": 0}, {"name": "Premier Palace Hotel", "type": "hotel", "image": "https://dynamic-media-cdn.tripadvisor.com/media/photo-o/10/f8/85/6d/premier-palace-hotel.jpg?w=1000&s=1", "address": "Techiman Ghana", "lat": 7.573484, "lng": -1.96145, "ref_id": 639177, "rating": 3, "num_reviews": 0, "website": "", "contact_phone": "23365322085", "contact_email": "", "status": 1, "source_type": 1, "numberReviews": 20}, {"name": "Tyco City Hotel", "type": "hotel", "image": "https://dynamic-media-cdn.tripadvisor.com/media/photo-o/19/8b/5f/bd/a-relaxing-atmosphere.jpg?w=1000&s=1", "address": "Abesim-Sunyani Road, Sunyani 03520 Ghana", "lat": 7.36713, "lng": -2.34787, "ref_id": 7196326, "rating": 3, "num_reviews": 0, "website": "http://www.tycocityhotel.com", "contact_phone": "+233 35 202 8469", "contact_email": "info@tycocityhotel.com", "status": 1, "source_type": 1, "numberReviews": 16}, {"name": "D.K Agyemang Hostel", "type": "hotel", "image": null, "address": "Fiapre Ghana", "lat": 7.360211, "lng": -2.353906, "ref_id": 25171634, "rating": -1, "num_reviews": 0, "website": null, "contact_phone": "+233 55 356 5753", "contact_email": null, "status": 1, "source_type": 1, "numberReviews": 0}, {"name": "Golda Hotel", "type": "hotel", "image": null, "address": "Nkwaeso, Techiman Ghana", "lat": 7.55795, "lng": -1.99533, "ref_id": 13238605, "rating": 2, "num_reviews": 0, "website": null, "contact_phone": null, "contact_email": null, "status": 1, "source_type": 1, "numberReviews": 1}, {"name": "Prince of Peace Guest House", "type": "hotel", "image": null, "address": "Nwoase - kintampo, Kintampo Ghana", "lat": 8.059872, "lng": -1.730862, "ref_id": 13074385, "rating": 2, "num_reviews": 0, "website": null, "contact_phone": null, "contact_email": null, "status": 1, "source_type": 1, "numberReviews": 1}, {"name": "Swiss Life Guest House", "type": "hotel", "image": null, "address": "Odumase Road, Sunyani Ghana", "lat": 7.18774, "lng": -2.09912, "ref_id": 12683538, "rating": 1, "num_reviews": 0, "website": null, "contact_phone": null, "contact_email": null, "status": 1, "source_type": 1, "numberReviews": 1}, {"name": "Falls Palace Holel", "type": "hotel", "image": "https://dynamic-media-cdn.tripadvisor.com/media/photo-o/2c/d7/02/d7/tres-bon-sejour-l-hotel.jpg?w=1000&s=1", "address": "5 Km From the Kintampo Township, Kintampo Ghana", "lat": null, "lng": null, "ref_id": 16639142, "rating": 2.5, "num_reviews": 0, "website": "http://www.fallspalace.com/", "contact_phone": "+233 20 679 4295", "contact_email": "info@fallspalace.com", "status": 1, "source_type": 1, "numberReviews": 6}, {"name": "Nbangba Hotel", "type": "hotel", "image": null, "address": "Trofwi Ghana", "lat": 7.946527, "lng": -1.023194, "ref_id": 13811605, "rating": -1, "num_reviews": 0, "website": null, "contact_phone": null, "contact_email": null, "status": 1, "source_type": 1, "numberReviews": 0}, {"name": "Peace Royal Hotel", "type": "hotel", "image": null, "address": "Rescue Point, Sowutuom, Trofwi Ghana", "lat": 7.946527, "lng": -1.023194, "ref_id": 15229270, "rating": -1, "num_reviews": 0, "website": null, "contact_phone": null, "contact_email": null, "status": 1, "source_type": 1, "numberReviews": 0}, {"name": "Oye Inn", "type": "hotel", "image": null, "address": "Opp science Taxi rank Building, Trofwi Ghana", "lat": null, "lng": null, "ref_id": 23780045, "rating": -1, "num_reviews": 0, "website": null, "contact_phone": null, "contact_email": null, "status": 1, "source_type": 1, "numberReviews": 0}, {"name": "Eno Fuwaa Memorial Hotel", "type": "hotel", "image": null, "address": "Goaso Nkaseim Road, Goaso Ghana", "lat": 6.843387, "lng": -2.47385, "ref_id": 15242694, "rating": -1, "num_reviews": 0, "website": null, "contact_phone": null, "contact_email": null, "status": 1, "source_type": 1, "numberReviews": 0}, {"name": "De Capital Hotels & Restaurants", "type": "hotel", "image": null, "address": "Behind Goaso Nursing and Midwifery Training College, Goaso Ghana", "lat": 6.809949, "lng": -2.520798, "ref_id": 27141418, "rating": -1, "num_reviews": 0, "website": "https://decapitalhr.com", "contact_phone": "+233 55 511 3115", "contact_email": "info@capitalhotels.com", "status": 1, "source_type": 1, "numberReviews": 0}, {"name": "De Capital Hotels & Restaurant", "type": "hotel", "image": null, "address": "Behind Goaso Nursing and Midwifery Training College. Same building with De Capital Grille Restaurant, Goaso Ghana", "lat": 6.812378, "lng": -2.519145, "ref_id": 27506261, "rating": -1, "num_reviews": 0, "website": "https://decapitalhr.com", "contact_phone": "+233 55 511 3115", "contact_email": "info@capitalhotels.com", "status": 1, "source_type": 1, "numberReviews": 0}, {"name": "Executive Rooms Self Contain With King and Queen Size Bed and Also With Air Condition", "type": "hotel", "image": null, "address": "Goaso Municipsl Assembly Street Near Apostolic Church, Goaso Ghana", "lat": 6.801811, "lng": -2.514842, "ref_id": 23385442, "rating": -1, "num_reviews": 0, "website": null, "contact_phone": null, "contact_email": null, "status": 1, "source_type": 1, "numberReviews": 0}, {"name": "Hotel De Baps", "type": "hotel", "image": null, "address": "Tepa - Goaso Road, Hwidiem Ghana", "lat": 7.44135, "lng": -2.57505, "ref_id": 13320058, "rating": -1, "num_reviews": 0, "website": null, "contact_phone": null, "contact_email": null, "status": 1, "source_type": 1, "numberReviews": 0}, {"name": "Nana Boama Hotel", "type": "hotel", "image": null, "address": "Tanoso - Yamfo Road, Yamfo Ghana", "lat": 7.226218, "lng": -2.240525, "ref_id": 12977312, "rating": -1, "num_reviews": 0, "website": null, "contact_phone": null, "contact_email": null, "status": 1, "source_type": 1, "numberReviews": 0}, {"name": "Felirich Guest House", "type": "hotel", "image": null, "address": "Berekum - Dormaa Ahenkro Road, Dormaa Ghana", "lat": 7.31183, "lng": -2.70037, "ref_id": 13309897, "rating": -1, "num_reviews": 0, "website": null, "contact_phone": null, "contact_email": null, "status": 1, "source_type": 1, "numberReviews": 0}, {"name": "Off-Town Lodge", "type": "hotel", "image": null, "address": "Berekum - Dormaa Ahenkro Road, Dormaa Ghana", "lat": 7.26381, "lng": -2.72448, "ref_id": 13537566, "rating": -1, "num_reviews": 0, "website": null, "contact_phone": null, "contact_email": null, "status": 1, "source_type": 1, "numberReviews": 0}, {"name": "Pokuaa Guest House", "type": "hotel", "image": null, "address": "Aboabo Road, Dormaa Ghana", "lat": 7.270165, "lng": -2.851971, "ref_id": 13284468, "rating": -1, "num_reviews": 0, "website": null, "contact_phone": null, "contact_email": null, "status": 1, "source_type": 1, "numberReviews": 0}, {"name": "Dormaa Hotel", "type": "hotel", "image": null, "address": "Dormaa Ghana", "lat": 7.270109, "lng": -2.867088, "ref_id": 13309903, "rating": -1, "num_reviews": 0, "website": null, "contact_phone": null, "contact_email": null, "status": 1, "source_type": 1, "numberReviews": 0}, {"name": "Royal Nicole's Guest House", "type": "hotel", "image": null, "address": "Aboabo Road, Dormaa Ghana", "lat": 7.31183, "lng": -2.70037, "ref_id": 13284805, "rating": -1, "num_reviews": 0, "website": null, "contact_phone": null, "contact_email": null, "status": 1, "source_type": 1, "numberReviews": 0}, {"name": "Beckgeo Hotels", "type": "hotel", "image": null, "address": "Berekum - Dormaa Ahenkro Road, Dormaa Ghana", "lat": 7.43784, "lng": -2.57208, "ref_id": 13308816, "rating": -1, "num_reviews": 0, "website": null, "contact_phone": null, "contact_email": null, "status": 1, "source_type": 1, "numberReviews": 0}, {"name": "Seko Lodge", "type": "hotel", "image": null, "address": "Sunyani - Berekum Road, Berekum Ghana", "lat": 7.44834, "lng": -2.58262, "ref_id": 13541659, "rating": -1, "num_reviews": 0, "website": null, "contact_phone": null, "contact_email": null, "status": 1, "source_type": 1, "numberReviews": 0}, {"name": "Nhyira Hotel", "type": "hotel", "image": null, "address": "Berekum - Sekwai Road, Berekum Ghana", "lat": 7.461991, "lng": -2.577127, "ref_id": 13355727, "rating": -1, "num_reviews": 0, "website": null, "contact_phone": null, "contact_email": null, "status": 1, "source_type": 1, "numberReviews": 0}, {"name": "Vicmanuel Guest House", "type": "hotel", "image": null, "address": "Berekum Ghana", "lat": 7.454013, "lng": -2.580414, "ref_id": 12902830, "rating": -1, "num_reviews": 0, "website": null, "contact_phone": null, "contact_email": null, "status": 1, "source_type": 1, "numberReviews": 0}, {"name": "Royale Unity Lodge - Ahenfie", "type": "hotel", "image": null, "address": "Off Berekum-Sunyani Highway Apraku Quaters, Berekum Ghana", "lat": 7.30356, "lng": -2.342342, "ref_id": 25562944, "rating": -1, "num_reviews": 0, "website": "www.royaleunitylodge.com", "contact_phone": "+233 50 138 6268", "contact_email": "info@RoyaleUnityLodge.com", "status": 1, "source_type": 1, "numberReviews": 0}, {"name": "Nbangba Hotel", "type": "hotel", "image": null, "address": "Hansoa-Brigade near SDA church Techiman off the Techiman-Kumasi Road, Techiman Ghana", "lat": 7.555663, "lng": -1.936799, "ref_id": 17497800, "rating": -1, "num_reviews": 0, "website": "http://www.nbangbahotel.com/", "contact_phone": null, "contact_email": null, "status": 1, "source_type": 1, "numberReviews": 0}, {"name": "Cedach Lodge", "type": "hotel", "image": null, "address": "New Onyinase, off Kintampo Road, Techiman Ghana", "lat": 7.618612, "lng": -1.926126, "ref_id": 10801913, "rating": -1, "num_reviews": 0, "website": null, "contact_phone": null, "contact_email": null, "status": 1, "source_type": 1, "numberReviews": 0}, {"name": "Macrita Guest House", "type": "hotel", "image": null, "address": "Sunyani-Techiman Road, Techiman Ghana", "lat": 7.51077, "lng": -1.96244, "ref_id": 12851037, "rating": -1, "num_reviews": 0, "website": null, "contact_phone": null, "contact_email": null, "status": 1, "source_type": 1, "numberReviews": 0}, {"name": "Dellagio LMX HOTEL", "type": "hotel", "image": "https://dynamic-media-cdn.tripadvisor.com/media/photo-o/2a/61/5d/74/executive-room-ghs-690.jpg?w=1000&s=1", "address": "TT-0011-6992 Behind Hide-Out, Techiman Ghana", "lat": 7.589212, "lng": -1.928203, "ref_id": 26626976, "rating": -1, "num_reviews": 0, "website": "https://dellagiohotel.com/", "contact_phone": "+233 20 458 8231", "contact_email": "dellagiohotel.frontdesk@gmail.com", "status": 1, "source_type": 1, "numberReviews": 0}, {"name": "Anima Lodge", "type": "hotel", "image": null, "address": "Sunyani - Wenchi Road, Sunyani Ghana", "lat": 7.37539, "lng": -2.20669, "ref_id": 13133430, "rating": -1, "num_reviews": 0, "website": null, "contact_phone": null, "contact_email": null, "status": 1, "source_type": 1, "numberReviews": 0}, {"name": "Oti Yeboah Guest House", "type": "hotel", "image": null, "address": "Odumase Road, Sunyani Ghana", "lat": 7.36661, "lng": -2.31662, "ref_id": 12977611, "rating": -1, "num_reviews": 0, "website": null, "contact_phone": null, "contact_email": null, "status": 1, "source_type": 1, "numberReviews": 0}, {"name": "Pinnacle Guest House", "type": "hotel", "image": null, "address": "Odumase Road, Sunyani Ghana", "lat": 7.36661, "lng": -2.31662, "ref_id": 12696685, "rating": -1, "num_reviews": 0, "website": null, "contact_phone": null, "contact_email": null, "status": 1, "source_type": 1, "numberReviews": 0}, {"name": "Victory Guest House", "type": "hotel", "image": null, "address": "Sunyani - Wenchi Road, Sunyani Ghana", "lat": 7.37539, "lng": -2.20669, "ref_id": 12863540, "rating": -1, "num_reviews": 0, "website": null, "contact_phone": null, "contact_email": null, "status": 1, "source_type": 1, "numberReviews": 0}, {"name": "Geokwats Hotel", "type": "hotel", "image": null, "address": "Sunyani - Berekum Road, Sunyani Ghana", "lat": 7.351505, "lng": -2.344323, "ref_id": 12989613, "rating": -1, "num_reviews": 0, "website": null, "contact_phone": null, "contact_email": null, "status": 1, "source_type": 1, "numberReviews": 0}, {"name": "Nat Vision Hotel", "type": "hotel", "image": null, "address": "Kumasi-Sunyani Road, Sunyani Ghana", "lat": 7.34181, "lng": -2.33872, "ref_id": 12863330, "rating": -1, "num_reviews": 0, "website": null, "contact_phone": null, "contact_email": null, "status": 1, "source_type": 1, "numberReviews": 0}, {"name": "The Young Guest House", "type": "hotel", "image": null, "address": "Sunyani Ghana", "lat": 7.31183, "lng": -2.70037, "ref_id": 12900861, "rating": -1, "num_reviews": 0, "website": null, "contact_phone": null, "contact_email": null, "status": 1, "source_type": 1, "numberReviews": 0}, {"name": "The Young Guest House", "type": "hotel", "image": null, "address": "Off kumai sunyani road, Sunyani Ghana", "lat": 7.4023, "lng": -2.43415, "ref_id": 12977386, "rating": -1, "num_reviews": 0, "website": null, "contact_phone": null, "contact_email": null, "status": 1, "source_type": 1, "numberReviews": 0}, {"name": "Candice Serviced Apartment", "type": "hotel", "image": "https://dynamic-media-cdn.tripadvisor.com/media/photo-o/1b/58/55/6e/candice-serviced-apartments.jpg?w=1000&s=1", "address": "Sunyani Road, Sunyani BC0111 Ghana", "lat": 7.36062, "lng": -2.34709, "ref_id": 17650759, "rating": -1, "num_reviews": 0, "website": "http://www.candiceservicedapartments.com/index.html", "contact_phone": "+233 24 897 9346", "contact_email": null, "status": 1, "source_type": 1, "numberReviews": 0}, {"name": "Privacy Guest House", "type": "hotel", "image": null, "address": "Sunyani - Wenchi Road, Sunyani Ghana", "lat": 7.18774, "lng": -2.09912, "ref_id": 13133013, "rating": -1, "num_reviews": 0, "website": null, "contact_phone": null, "contact_email": null, "status": 1, "source_type": 1, "numberReviews": 0}, {"name": "Virgin Kourt Hotel", "type": "hotel", "image": null, "address": "Sunyani BS-0006-2814 Ghana", "lat": 7.33991, "lng": -2.32676, "ref_id": 27523752, "rating": -1, "num_reviews": 0, "website": "https://virginkourthotel.com/", "contact_phone": "+0248226672", "contact_email": "info@virginkourthotel.com", "status": 1, "source_type": 1, "numberReviews": 0}, {"name": "St. Thomas Lodge", "type": "hotel", "image": null, "address": "Ampenkro - Dumasua, Sunyani Ghana", "lat": 7.35907, "lng": -2.34684, "ref_id": 12690351, "rating": -1, "num_reviews": 0, "website": null, "contact_phone": null, "contact_email": null, "status": 1, "source_type": 1, "numberReviews": 0}, {"name": "Mandani Royal Guest House", "type": "hotel", "image": null, "address": "Box 77 Keyanse, Kenyasi Number 2 Ghana", "lat": 6.98564, "lng": -2.430725, "ref_id": 16710269, "rating": -1, "num_reviews": 0, "website": null, "contact_phone": null, "contact_email": null, "status": 1, "source_type": 1, "numberReviews": 0}, {"name": "Georgina Benewaa Memorial", "type": "hotel", "image": null, "address": "Kenyasi Number 2 Ghana", "lat": 6.9761, "lng": -2.392924, "ref_id": 13490904, "rating": -1, "num_reviews": 0, "website": null, "contact_phone": null, "contact_email": null, "status": 1, "source_type": 1, "numberReviews": 0}, {"name": "Regent Resort Hotel", "type": "hotel", "image": null, "address": "Kumasi-Sunyani Road Abesem, Kontrajeso Ghana", "lat": 7.34181, "lng": -2.33872, "ref_id": 12975343, "rating": -1, "num_reviews": 0, "website": null, "contact_phone": null, "contact_email": null, "status": 1, "source_type": 1, "numberReviews": 0}, {"name": "Tano River Lodge", "type": "hotel", "image": null, "address": "Aborsu Off Kumasi Road, Kontrajeso Ghana", "lat": 7.237919, "lng": -2.319633, "ref_id": 12940768, "rating": -1, "num_reviews": 0, "website": null, "contact_phone": null, "contact_email": null, "status": 1, "source_type": 1, "numberReviews": 0}, {"name": "Dellagio Hotel", "type": "hotel", "image": null, "address": "Daako Road Opposite SSNIT Residence, Techiman Ghana", "lat": 7.589212, "lng": -1.928203, "ref_id": 26613543, "rating": -1, "num_reviews": 0, "website": "https://dellagiohotel.com/", "contact_phone": "+233 24 621 1449", "contact_email": "dellagiohotel@gmail.com", "status": 1, "source_type": 1, "numberReviews": 0}, {"name": "Kontinental Lodge", "type": "hotel", "image": "https://dynamic-media-cdn.tripadvisor.com/media/photo-o/18/e6/fa/47/room-4.jpg?w=1000&s=1", "address": "Blue Cross Opposite SDA Church, Techiman Ghana", "lat": 7.591315, "lng": -1.93018, "ref_id": 18344429, "rating": -1, "num_reviews": 0, "website": null, "contact_phone": "+233 35 219 5340", "contact_email": "kontinentallodge@yahoo.com", "status": 1, "source_type": 1, "numberReviews": 0}, {"name": "Dery Hotel", "type": "hotel", "image": null, "address": "Techiman-Tamale Road, Techiman Ghana", "lat": 7.60275, "lng": -1.95595, "ref_id": 13372400, "rating": -1, "num_reviews": 0, "website": null, "contact_phone": null, "contact_email": null, "status": 1, "source_type": 1, "numberReviews": 0}, {"name": "Eno Serwaa Lodge", "type": "hotel", "image": null, "address": "Techiman Tuobodom road, Techiman Ghana", "lat": 7.591873, "lng": -1.937796, "ref_id": 13346791, "rating": -1, "num_reviews": 0, "website": null, "contact_phone": null, "contact_email": null, "status": 1, "source_type": 1, "numberReviews": 0}, {"name": "Trinity Guest House", "type": "hotel", "image": null, "address": "Wenchi-Techiman Road, Techiman Ghana", "lat": 7.18774, "lng": -2.09912, "ref_id": 13346787, "rating": -1, "num_reviews": 0, "website": null, "contact_phone": null, "contact_email": null, "status": 1, "source_type": 1, "numberReviews": 0}, {"name": "Queens lodge", "type": "hotel", "image": null, "address": "Wenchi Road, Techiman Ghana", "lat": 7.73052, "lng": -2.10911, "ref_id": 12929991, "rating": -1, "num_reviews": 0, "website": null, "contact_phone": null, "contact_email": null, "status": 1, "source_type": 1, "numberReviews": 0}, {"name": "Great Abrafi Hotel", "type": "hotel", "image": null, "address": "Unnamed Road, Techiman Ghana", "lat": 8.02464, "lng": -1.73171, "ref_id": 13346103, "rating": -1, "num_reviews": 0, "website": null, "contact_phone": null, "contact_email": null, "status": 1, "source_type": 1, "numberReviews": 0}, {"name": "Simple Lind Guest House", "type": "hotel", "image": null, "address": "Techiman-Tamale Road, Techiman Ghana", "lat": 7.59665, "lng": -1.93546, "ref_id": 12839664, "rating": -1, "num_reviews": 0, "website": null, "contact_phone": null, "contact_email": null, "status": 1, "source_type": 1, "numberReviews": 0}, {"name": "Fire Guest House", "type": "hotel", "image": null, "address": "Techiman Ghana", "lat": 7.577605, "lng": -1.933594, "ref_id": 13314962, "rating": -1, "num_reviews": 0, "website": null, "contact_phone": null, "contact_email": null, "status": 1, "source_type": 1, "numberReviews": 0}, {"name": "Nana Serwaa Lodge", "type": "hotel", "image": null, "address": "New Onyinase, Techiman Ghana", "lat": 7.602635, "lng": -1.931464, "ref_id": 13083511, "rating": -1, "num_reviews": 0, "website": null, "contact_phone": null, "contact_email": null, "status": 1, "source_type": 1, "numberReviews": 0}, {"name": "Mmabatho Sun Hotel", "type": "hotel", "image": null, "address": "Sunyani Road, Techiman Ghana", "lat": null, "lng": null, "ref_id": 21187390, "rating": -1, "num_reviews": 0, "website": null, "contact_phone": null, "contact_email": null, "status": 1, "source_type": 1, "numberReviews": 0}, {"name": "Essafec Lodge", "type": "hotel", "image": null, "address": "Techiman - Nkoranza Road, Techiman Ghana", "lat": 7.58161, "lng": -1.9354, "ref_id": 13347639, "rating": -1, "num_reviews": 0, "website": null, "contact_phone": null, "contact_email": null, "status": 1, "source_type": 1, "numberReviews": 0}, {"name": "Thomelia", "type": "hotel", "image": null, "address": "Jam-Techiman Rd Off Wenchi Road, Techiman Ghana", "lat": 7.686198, "lng": -2.068176, "ref_id": 12847700, "rating": -1, "num_reviews": 0, "website": null, "contact_phone": null, "contact_email": null, "status": 1, "source_type": 1, "numberReviews": 0}, {"name": "Peejoy Guest House", "type": "hotel", "image": null, "address": "Techiman - Kumasi Road, Techiman Ghana", "lat": 7.59665, "lng": -1.93546, "ref_id": 12790757, "rating": -1, "num_reviews": 0, "website": null, "contact_phone": null, "contact_email": null, "status": 1, "source_type": 1, "numberReviews": 0}, {"name": "Mahanain", "type": "hotel", "image": null, "address": "Behind Calvary Baptist Church, Techiman Ghana", "lat": 7.570044, "lng": -1.924324, "ref_id": 12790752, "rating": -1, "num_reviews": 0, "website": null, "contact_phone": null, "contact_email": null, "status": 1, "source_type": 1, "numberReviews": 0}, {"name": "Nyame Nnae Hotel", "type": "hotel", "image": null, "address": "Techiman-Tamale Road, Techiman Ghana", "lat": 7.59665, "lng": -1.93546, "ref_id": 12849819, "rating": -1, "num_reviews": 0, "website": null, "contact_phone": null, "contact_email": null, "status": 1, "source_type": 1, "numberReviews": 0}, {"name": "Tony's Lodge", "type": "hotel", "image": null, "address": "Techiman-Tamale Road, Techiman Ghana", "lat": 7.59665, "lng": -1.93546, "ref_id": 12940799, "rating": -1, "num_reviews": 0, "website": null, "contact_phone": null, "contact_email": null, "status": 1, "source_type": 1, "numberReviews": 0}, {"name": "Agyeiwa Hotel", "type": "hotel", "image": null, "address": "Techiman Brong Ahafo region, Techiman Ghana", "lat": 7.75, "lng": -1.5, "ref_id": 9882093, "rating": -1, "num_reviews": 0, "website": null, "contact_phone": null, "contact_email": null, "status": 1, "source_type": 1, "numberReviews": 0}, {"name": "Dellagio LMX Hotel", "type": "hotel", "image": "https://dynamic-media-cdn.tripadvisor.com/media/photo-o/2a/61/5f/c6/standard-room-ghs-425.jpg?w=1000&s=1", "address": "Behind Hide-Out, Techiman Ghana", "lat": 7.589212, "lng": -1.928203, "ref_id": 26627589, "rating": -1, "num_reviews": 0, "website": null, "contact_phone": "+233 20 458 8231", "contact_email": null, "status": 1, "source_type": 1, "numberReviews": 0}, {"name": "Frandun Hotel", "type": "hotel", "image": null, "address": "New Krobo Junction, Techiman Ghana", "lat": 7.585882, "lng": -1.945602, "ref_id": 9873186, "rating": -1, "num_reviews": 0, "website": null, "contact_phone": null, "contact_email": null, "status": 1, "source_type": 1, "numberReviews": 0}, {"name": "Metro Gold Hotel", "type": "hotel", "image": null, "address": "Kumasi-Techiman Road, Techiman Ghana", "lat": 8.02464, "lng": -1.73171, "ref_id": 13345757, "rating": -1, "num_reviews": 0, "website": null, "contact_phone": null, "contact_email": null, "status": 1, "source_type": 1, "numberReviews": 0}, {"name": "Commander Hotel", "type": "hotel", "image": null, "address": "Sunyani Techiman Road, Techiman Ghana", "lat": 7.57468, "lng": -1.95898, "ref_id": 13363313, "rating": -1, "num_reviews": 0, "website": null, "contact_phone": null, "contact_email": null, "status": 1, "source_type": 1, "numberReviews": 0}, {"name": "Mandela Executive Lodge", "type": "hotel", "image": null, "address": "Abesim, Sunyani, Techiman Ghana", "lat": 7.281954, "lng": -2.27211, "ref_id": 13085795, "rating": -1, "num_reviews": 0, "website": null, "contact_phone": null, "contact_email": null, "status": 1, "source_type": 1, "numberReviews": 0}, {"name": "Emmanuel Inn", "type": "hotel", "image": null, "address": "Techiman Ghana", "lat": 7.577398, "lng": -1.929989, "ref_id": 12902651, "rating": -1, "num_reviews": 0, "website": null, "contact_phone": null, "contact_email": null, "status": 1, "source_type": 1, "numberReviews": 0}, {"name": "Golda Hotel", "type": "hotel", "image": null, "address": "Techiman - Sunyani Road, Techiman Ghana", "lat": 7.59088, "lng": -1.934356, "ref_id": 20124214, "rating": -1, "num_reviews": 0, "website": null, "contact_phone": null, "contact_email": null, "status": 1, "source_type": 1, "numberReviews": 0}, {"name": "Royal Land Hotel", "type": "hotel", "image": null, "address": "Kumasi Sunyani Road, Duayaw Nkwanta Ghana", "lat": 7.17717, "lng": -2.09884, "ref_id": 13302482, "rating": -1, "num_reviews": 0, "website": null, "contact_phone": null, "contact_email": null, "status": 1, "source_type": 1, "numberReviews": 0}, {"name": "Respong Guest House", "type": "hotel", "image": null, "address": "Kumasi-Sunyani Road, Duayaw Nkwanta Ghana", "lat": 7.17717, "lng": -2.09884, "ref_id": 13302745, "rating": -1, "num_reviews": 0, "website": null, "contact_phone": null, "contact_email": null, "status": 1, "source_type": 1, "numberReviews": 0}, {"name": "Glovita Hotel", "type": "hotel", "image": "https://dynamic-media-cdn.tripadvisor.com/media/photo-o/2a/fc/09/f8/best.jpg?w=1000&s=1", "address": "Fiapre Market Street Close To Twilight Hostel, Fiapre Ghana", "lat": 7.365813, "lng": -2.351984, "ref_id": 26810695, "rating": -1, "num_reviews": 0, "website": "glovitahotel.com", "contact_phone": "+233 20 065 0684", "contact_email": "info@GlovitaHotel.com", "status": 1, "source_type": 1, "numberReviews": 0}, {"name": "Thesyl Hotel", "type": "hotel", "image": "https://dynamic-media-cdn.tripadvisor.com/media/photo-o/1b/63/c2/13/thesyl-hotel.jpg?w=1000&s=1", "address": "Catholic University Road, Fiapre Ghana", "lat": 7.334913, "lng": -2.312314, "ref_id": 20083240, "rating": -1, "num_reviews": 0, "website": "https://www.facebook.com/Thesyl-Hotel-115454126678846/", "contact_phone": "+233 24 752 3493", "contact_email": "thesylhotelltd@gmail.com", "status": 1, "source_type": 1, "numberReviews": 0}, {"name": "God's Grace Guest House", "type": "hotel", "image": null, "address": "Kumasi-Sunyani Road, Bechem Ghana", "lat": 7.18774, "lng": -2.09912, "ref_id": 13541336, "rating": -1, "num_reviews": 0, "website": null, "contact_phone": null, "contact_email": null, "status": 1, "source_type": 1, "numberReviews": 0}, {"name": "Blue Mirage Hotel", "type": "hotel", "image": null, "address": "Sunyani-Kumasi Road Abesim, Sunyani Ghana", "lat": 7.286565, "lng": -2.277813, "ref_id": 24975146, "rating": -1, "num_reviews": 0, "website": "https://www.bluemiragehotel.com", "contact_phone": "+233 32 249 7460", "contact_email": "bluemiragehotel@gmail.com", "status": 1, "source_type": 1, "numberReviews": 0}, {"name": "Ellenda Guest House", "type": "hotel", "image": null, "address": "Sunyani Ghana", "lat": 7.343101, "lng": -2.333221, "ref_id": 12905019, "rating": -1, "num_reviews": 0, "website": null, "contact_phone": null, "contact_email": null, "status": 1, "source_type": 1, "numberReviews": 0}, {"name": "Ebenezer Hotel", "type": "hotel", "image": null, "address": "Asiapre Avenue, Sunyani Ghana", "lat": 7.302238, "lng": -2.357941, "ref_id": 12687241, "rating": -1, "num_reviews": 0, "website": null, "contact_phone": null, "contact_email": null, "status": 1, "source_type": 1, "numberReviews": 0}, {"name": "Sochi Guest House", "type": "hotel", "image": null, "address": "Around Kingdom Hall, Sunyani Ghana", "lat": 7.284769, "lng": -2.293581, "ref_id": 12864616, "rating": -1, "num_reviews": 0, "website": null, "contact_phone": null, "contact_email": null, "status": 1, "source_type": 1, "numberReviews": 0}, {"name": "Suncity Imperial Lodge", "type": "hotel", "image": null, "address": "Kumasi-Sunyani Road, Sunyani Ghana", "lat": 7.34181, "lng": -2.33872, "ref_id": 12847673, "rating": -1, "num_reviews": 0, "website": null, "contact_phone": null, "contact_email": null, "status": 1, "source_type": 1, "numberReviews": 0}, {"name": "Adaagye Garden and Guest House", "type": "hotel", "image": null, "address": "Odumase Road, Sunyani Ghana", "lat": 7.36661, "lng": -2.31662, "ref_id": 12717257, "rating": -1, "num_reviews": 0, "website": null, "contact_phone": null, "contact_email": null, "status": 1, "source_type": 1, "numberReviews": 0}, {"name": "Cost Cutters Lodge", "type": "hotel", "image": null, "address": "Sunyani - Berekum Road, Sunyani Ghana", "lat": 7.351505, "lng": -2.344323, "ref_id": 12864808, "rating": -1, "num_reviews": 0, "website": null, "contact_phone": null, "contact_email": null, "status": 1, "source_type": 1, "numberReviews": 0}, {"name": "Supriem Lodge", "type": "hotel", "image": null, "address": "Kotokrom, Sunyani Ghana", "lat": 7.344, "lng": -2.28038, "ref_id": 12864807, "rating": -1, "num_reviews": 0, "website": null, "contact_phone": null, "contact_email": null, "status": 1, "source_type": 1, "numberReviews": 0}, {"name": "Danwood Hotel", "type": "hotel", "image": null, "address": "Kumasi - Sunyani Rd, Sunyani Ghana", "lat": 7.34181, "lng": -2.33872, "ref_id": 12838997, "rating": -1, "num_reviews": 0, "website": null, "contact_phone": null, "contact_email": null, "status": 1, "source_type": 1, "numberReviews": 0}, {"name": "Ahenfie Palace", "type": "hotel", "image": "https://dynamic-media-cdn.tripadvisor.com/media/photo-o/18/83/8e/a3/car-park.jpg?w=1000&s=1", "address": "Sunyani Avenue Sunyani Airport, Sunyani Ghana", "lat": 7.36023, "lng": -2.32595, "ref_id": 13499926, "rating": -1, "num_reviews": 0, "website": null, "contact_phone": null, "contact_email": null, "status": 1, "source_type": 1, "numberReviews": 0}, {"name": "Batavia Lodge", "type": "hotel", "image": null, "address": "Odumasi Road, Sunyani 2102 Ghana", "lat": 7.36661, "lng": -2.31662, "ref_id": 15247510, "rating": -1, "num_reviews": 0, "website": null, "contact_phone": "+233 54 648 0006", "contact_email": null, "status": 1, "source_type": 1, "numberReviews": 0}, {"name": "Palaceway Hotel", "type": "hotel", "image": null, "address": "Sunyani Road, Sunyani Ghana", "lat": 7.19424, "lng": -2.1032, "ref_id": 12694980, "rating": -1, "num_reviews": 0, "website": null, "contact_phone": null, "contact_email": null, "status": 1, "source_type": 1, "numberReviews": 0}, {"name": "Tandoras Inn", "type": "hotel", "image": null, "address": "Behind District Police Station, Sunyani Ghana", "lat": 7.364292, "lng": -2.319145, "ref_id": 12978067, "rating": -1, "num_reviews": 0, "website": null, "contact_phone": null, "contact_email": null, "status": 1, "source_type": 1, "numberReviews": 0}, {"name": "Osvano Hotel Ltd", "type": "hotel", "image": null, "address": "Sunyani - Wenchi Road, Sunyani Ghana", "lat": 7.37539, "lng": -2.20669, "ref_id": 12986536, "rating": -1, "num_reviews": 0, "website": null, "contact_phone": null, "contact_email": null, "status": 1, "source_type": 1, "numberReviews": 0}, {"name": "Victor Lodge", "type": "hotel", "image": null, "address": "Sunyani - Wenchi Road, Sunyani Ghana", "lat": 7.37539, "lng": -2.20669, "ref_id": 12864985, "rating": -1, "num_reviews": 0, "website": null, "contact_phone": null, "contact_email": null, "status": 1, "source_type": 1, "numberReviews": 0}, {"name": "Samaritan Guest House", "type": "hotel", "image": null, "address": "Sunyani Ghana", "lat": 7.28428, "lng": -2.272968, "ref_id": 12790715, "rating": -1, "num_reviews": 0, "website": null, "contact_phone": null, "contact_email": null, "status": 1, "source_type": 1, "numberReviews": 0}, {"name": "Ideas Hotel", "type": "hotel", "image": "https://dynamic-media-cdn.tripadvisor.com/media/photo-o/2a/fc/0b/db/best.jpg?w=1000&s=1", "address": "Sunyani - Berekum Road, Sunyani Ghana", "lat": 7.351505, "lng": -2.344323, "ref_id": 12696942, "rating": -1, "num_reviews": 0, "website": null, "contact_phone": null, "contact_email": null, "status": 1, "source_type": 1, "numberReviews": 0}, {"name": "Nana's Lodge", "type": "hotel", "image": null, "address": "Sunyani - Wenchi Road, Sunyani Ghana", "lat": 7.37539, "lng": -2.20669, "ref_id": 12864785, "rating": -1, "num_reviews": 0, "website": null, "contact_phone": null, "contact_email": null, "status": 1, "source_type": 1, "numberReviews": 0}, {"name": "Maryland Guest House", "type": "hotel", "image": "https://dynamic-media-cdn.tripadvisor.com/media/photo-o/19/18/fb/7d/maryland-guesthouse-entrance.jpg?w=1000&s=1", "address": "Sunyani kotokrom Aviation juction, Sunyani Ghana", "lat": 7.349711, "lng": -2.269481, "ref_id": 12864783, "rating": -1, "num_reviews": 0, "website": null, "contact_phone": null, "contact_email": null, "status": 1, "source_type": 1, "numberReviews": 0}, {"name": "Boston Lodge", "type": "hotel", "image": null, "address": "Sunyani - Mim Road, Sunyani Ghana", "lat": 7.22919, "lng": -2.37784, "ref_id": 13310199, "rating": -1, "num_reviews": 0, "website": null, "contact_phone": null, "contact_email": null, "status": 1, "source_type": 1, "numberReviews": 0}, {"name": "Chesville Hotel", "type": "hotel", "image": null, "address": "Berekum Road, Sunyani Ghana", "lat": 7.457676, "lng": -2.584206, "ref_id": 25192448, "rating": -1, "num_reviews": 0, "website": "http://chesvillehotelgh.com/", "contact_phone": "+233 24 442 8556", "contact_email": "info@chesvillehotelgh.com", "status": 1, "source_type": 1, "numberReviews": 0}, {"name": "Aboah Lodge", "type": "hotel", "image": null, "address": "P o box 687, Sunyani Ghana", "lat": 7.75, "lng": -1.5, "ref_id": 12696941, "rating": -1, "num_reviews": 0, "website": null, "contact_phone": null, "contact_email": null, "status": 1, "source_type": 1, "numberReviews": 0}, {"name": "Tyco City Hotel", "type": "hotel", "image": null, "address": "Off the Kumasi-Sunyani Road Alaska Junction, Sunyani Ghana", "lat": 7.309823, "lng": -2.300969, "ref_id": 24135513, "rating": -1, "num_reviews": 0, "website": "https://tycocityhotel.com/live/", "contact_phone": "+233 54 012 2324", "contact_email": "info@tycocityhotel.com", "status": 1, "source_type": 1, "numberReviews": 0}, {"name": "Noah's Barracks Company Guest House", "type": "hotel", "image": null, "address": "Sunyani - Wenchi Road, Sunyani Ghana", "lat": 7.37539, "lng": -2.20669, "ref_id": 13133677, "rating": -1, "num_reviews": 0, "website": null, "contact_phone": null, "contact_email": null, "status": 1, "source_type": 1, "numberReviews": 0}, {"name": "Tony Lodge Hotel Annex", "type": "hotel", "image": null, "address": "Penkwaase Road, Sunyani Ghana", "lat": 7.34038, "lng": -2.314916, "ref_id": 13310381, "rating": -1, "num_reviews": 0, "website": null, "contact_phone": null, "contact_email": null, "status": 1, "source_type": 1, "numberReviews": 0}, {"name": "Excellent Roses Lodge Sunyani", "type": "hotel", "image": null, "address": "0207-0007 Catholic Secretariat Road, Abesim Dominase BS-, Sunyani Ghana", "lat": 7.304978, "lng": -2.297999, "ref_id": 23346151, "rating": -1, "num_reviews": 0, "website": null, "contact_phone": null, "contact_email": null, "status": 1, "source_type": 1, "numberReviews": 0}, {"name": "Money Goes Hotel", "type": "hotel", "image": null, "address": "Brekum road, Sunyani Ghana", "lat": 7.43657, "lng": -2.55332, "ref_id": 13083428, "rating": -1, "num_reviews": 0, "website": null, "contact_phone": null, "contact_email": null, "status": 1, "source_type": 1, "numberReviews": 0}, {"name": "Adwinsa Hotel", "type": "hotel", "image": null, "address": "Sunyani - Berekum Road, Sunyani Ghana", "lat": 7.351505, "lng": -2.344323, "ref_id": 13394685, "rating": -1, "num_reviews": 0, "website": null, "contact_phone": null, "contact_email": null, "status": 1, "source_type": 1, "numberReviews": 0}, {"name": "Stagasons Guest House", "type": "hotel", "image": null, "address": "Susuaso Main Road, Sunyani Ghana", "lat": 7.261255, "lng": -2.228508, "ref_id": 12975861, "rating": -1, "num_reviews": 0, "website": null, "contact_phone": null, "contact_email": null, "status": 1, "source_type": 1, "numberReviews": 0}, {"name": "Evachap Guest House", "type": "hotel", "image": null, "address": "Sunyani - Mim Road, Sunyani Ghana", "lat": 7.22919, "lng": -2.37784, "ref_id": 13375964, "rating": -1, "num_reviews": 0, "website": null, "contact_phone": null, "contact_email": null, "status": 1, "source_type": 1, "numberReviews": 0}, {"name": "Eusbett Hotel", "type": "hotel", "image": "https://dynamic-media-cdn.tripadvisor.com/media/photo-o/0f/7d/08/68/eusbett-hotel.jpg?w=1000&s=1", "address": "Berekum Road opposite The Regional Coordinating Council, Sunyani Ghana", "lat": 7.34025, "lng": -2.336988, "ref_id": 2399149, "rating": 4, "num_reviews": 0, "website": "http://eusbetthotel.com/", "contact_phone": "+233 54 709 9002", "contact_email": "reservations@eusbetthotel.com", "status": 1, "source_type": 1, "numberReviews": 133}, {"name": "Villa Kam Boutique Hotel", "type": "hotel", "image": "https://dynamic-media-cdn.tripadvisor.com/media/photo-o/1d/3a/a1/5c/rooms-at-villa-kam-boutique.jpg?w=1000&s=1", "address": "Techiman - Kumasi Road, Techiman Ghana", "lat": 8.02464, "lng": -1.73171, "ref_id": 12730359, "rating": 5, "num_reviews": 0, "website": "www.villakamhotel.com", "contact_phone": "+233 20 386 8067", "contact_email": "conniegyan@gmail.com", "status": 1, "source_type": 1, "numberReviews": 7}, {"name": "Glamossay Hotel", "type": "hotel", "image": "https://dynamic-media-cdn.tripadvisor.com/media/photo-o/0c/47/7e/f4/glamossay-hotel.jpg?w=1000&s=1", "address": "Kumasi-Sunyani Ave, Sunyani 2200 Ghana", "lat": 7.294813, "lng": -2.279657, "ref_id": 10592444, "rating": 4, "num_reviews": 0, "website": "http://www.glamossayhotel.com", "contact_phone": "+233 35 219 5058", "contact_email": "glamossayhotel@gmail.com", "status": 1, "source_type": 1, "numberReviews": 10}, {"name": "Sheilas Executive Hotel & Lodge", "type": "hotel", "image": "https://dynamic-media-cdn.tripadvisor.com/media/photo-o/11/ab/18/d0/the-hotel-view.jpg?w=1000&s=1", "address": "Sunyani - Berekum Rd Fiapire, Opp. Regional Coordinating Council, Sunyani 00233 Ghana", "lat": 7.38619, "lng": -2.36609, "ref_id": 10058503, "rating": 5, "num_reviews": 0, "website": "https://www.facebook.com/sheilashospitalitygh/", "contact_phone": "+233 35 219 5524", "contact_email": null, "status": 1, "source_type": 1, "numberReviews": 6}, {"name": "Hotel De Geogio", "type": "hotel", "image": "https://dynamic-media-cdn.tripadvisor.com/media/photo-o/1c/30/7d/f9/hotel-de-geogio.jpg?w=1000&s=1", "address": "Kumasi -Techiman Road, Techiman Ghana", "lat": 8.02464, "lng": -1.73171, "ref_id": 12732476, "rating": 4, "num_reviews": 0, "website": "http://hoteldegeogio.com/", "contact_phone": null, "contact_email": null, "status": 1, "source_type": 1, "numberReviews": 2}, {"name": "Chesville Hotel", "type": "hotel", "image": "https://dynamic-media-cdn.tripadvisor.com/media/photo-o/27/3c/fe/bf/supermarket-gym-rooms.jpg?w=1000&s=1", "address": "Sunyani - Berekum Rd, Sunyani Ghana", "lat": null, "lng": null, "ref_id": 21139156, "rating": 5, "num_reviews": 0, "website": null, "contact_phone": null, "contact_email": null, "status": 1, "source_type": 1, "numberReviews": 1}, {"name": "Kastle Rock Executive Lodge", "type": "hotel", "image": null, "address": "No. C68 Kastle Rock Street Wurompo Junction, Wenchi Ghana", "lat": 7.768926, "lng": -2.093869, "ref_id": 23169308, "rating": 5, "num_reviews": 0, "website": "https://kastle-rock-executive-lodge.business.site/?utm_source=gmb&utm_medium=referral", "contact_phone": "+233 54 795 6783", "contact_email": null, "status": 1, "source_type": 1, "numberReviews": 1}, {"name": "Paykus Guest House", "type": "hotel", "image": null, "address": "Sunyani, Ghana, Sunyani Ghana", "lat": 7.18774, "lng": -2.09912, "ref_id": 12693470, "rating": 5, "num_reviews": 0, "website": null, "contact_phone": null, "contact_email": null, "status": 1, "source_type": 1, "numberReviews": 1}, {"name": "58 Juliderm Guest House", "type": "hotel", "image": "https://dynamic-media-cdn.tripadvisor.com/media/photo-o/1c/a1/e4/49/58-juliderm-guest-house.jpg?w=1000&s=1", "address": "Kumasi-Sunyani Road, Duayaw Nkwanta Ghana", "lat": 7.17717, "lng": -2.09884, "ref_id": 13302722, "rating": 5, "num_reviews": 0, "website": null, "contact_phone": null, "contact_email": null, "status": 1, "source_type": 1, "numberReviews": 1}, {"name": "Yakam Hotel & Restaurant", "type": "hotel", "image": "https://dynamic-media-cdn.tripadvisor.com/media/photo-o/0f/e0/33/cc/img-20170701-wa0011-largejpg.jpg?w=1000&s=1", "address": "Kintampo Ghana", "lat": 8.024457, "lng": -1.731883, "ref_id": 2195561, "rating": 3.5, "num_reviews": 0, "website": "", "contact_phone": "", "contact_email": "", "status": 1, "source_type": 1, "numberReviews": 13}, {"name": "Green Gate Hotel", "type": "hotel", "image": null, "address": "Berekum Ghana", "lat": 7.430182, "lng": -2.570286, "ref_id": 12730319, "rating": 5, "num_reviews": 0, "website": null, "contact_phone": null, "contact_email": null, "status": 1, "source_type": 1, "numberReviews": 1}, {"name": "Bizay Hotel", "type": "hotel", "image": null, "address": "Fiapre, behind frimps filling station, Sunyani Ghana", "lat": 7.338557, "lng": -2.346954, "ref_id": 12687112, "rating": 4, "num_reviews": 0, "website": null, "contact_phone": null, "contact_email": null, "status": 1, "source_type": 1, "numberReviews": 1}, {"name": "Micas Executive Lodge", "type": "hotel", "image": null, "address": "Techiman - Nkoranza Road, Techiman Ghana", "lat": 7.58161, "lng": -1.9354, "ref_id": 12839668, "rating": 5, "num_reviews": 0, "website": null, "contact_phone": null, "contact_email": null, "status": 1, "source_type": 1, "numberReviews": 1}, {"name": "Batavia Lodge", "type": "hotel", "image": "https://dynamic-media-cdn.tripadvisor.com/media/photo-o/14/f4/75/b4/this-is-infront-to-fthe.jpg?w=1000&s=1", "address": "Odumase Low Cost Extension Road, Odumase Ghana", "lat": 7.361662, "lng": -2.309506, "ref_id": 11697783, "rating": 5, "num_reviews": 0, "website": null, "contact_phone": null, "contact_email": null, "status": 1, "source_type": 1, "numberReviews": 1}, {"name": "Dery Hotel Limited", "type": "hotel", "image": null, "address": "Off Techiman Wenchi Road, Techiman Ghana", "lat": 7.600729, "lng": -1.953966, "ref_id": 9872745, "rating": 5, "num_reviews": 0, "website": null, "contact_phone": null, "contact_email": null, "status": 1, "source_type": 1, "numberReviews": 1}, {"name": "Dery Yire Hotel", "type": "hotel", "image": "https://dynamic-media-cdn.tripadvisor.com/media/photo-s/01/09/ad/da/dery-s-swimming-pool.jpg?w=1000&s=1", "address": "Sunyani - Wenchi Road, Techiman Ghana", "lat": 7.598679, "lng": -1.940515, "ref_id": 878320, "rating": 3.5, "num_reviews": 0, "website": null, "contact_phone": "0653-22705", "contact_email": "", "status": 1, "source_type": 1, "numberReviews": 4}, {"name": "Royale Unity Lodge - Ahenfie", "type": "hotel", "image": "https://dynamic-media-cdn.tripadvisor.com/media/photo-o/15/89/ee/6a/royale-unity-lodge-ahenfie.jpg?w=1000&s=1", "address": "Berekum Ghana", "lat": 7.457676, "lng": -2.584206, "ref_id": 15068556, "rating": 3.5, "num_reviews": 0, "website": null, "contact_phone": null, "contact_email": null, "status": 1, "source_type": 1, "numberReviews": 4}, {"name": "Ben Rose Hotel", "type": "hotel", "image": null, "address": "Behind Kato D/C School Berekum, Kato Ghana", "lat": 7.438693, "lng": -2.558956, "ref_id": 12722458, "rating": 4, "num_reviews": 0, "website": null, "contact_phone": null, "contact_email": null, "status": 1, "source_type": 1, "numberReviews": 1}, {"name": "Royal Diamond Hotel", "type": "hotel", "image": "https://dynamic-media-cdn.tripadvisor.com/media/photo-o/19/0a/6f/e8/ta-img-20190829-203953.jpg?w=1000&s=1", "address": "Techiman-Tamale Road, Kintampo Ghana", "lat": 8.05508, "lng": -1.72622, "ref_id": 12865290, "rating": 4, "num_reviews": 0, "website": null, "contact_phone": null, "contact_email": null, "status": 1, "source_type": 1, "numberReviews": 1}, {"name": "Hotel Sanbra", "type": "hotel", "image": "https://dynamic-media-cdn.tripadvisor.com/media/photo-s/02/38/54/97/enough-space-for-a-party.jpg?w=1000&s=1", "address": "Tepa-Goaso Road, Hwidiem Ghana", "lat": 6.88715, "lng": -2.41472, "ref_id": 2181562, "rating": 4, "num_reviews": 0, "website": "http://www.hotelsanbra.com/index.html", "contact_phone": "+233 24 442 9529", "contact_email": "info@hotelsanbra.com", "status": 1, "source_type": 1, "numberReviews": 2}, {"name": "Nobel Hotel", "type": "hotel", "image": "https://dynamic-media-cdn.tripadvisor.com/media/photo-o/16/28/87/69/img-20190119-092003153.jpg?w=1000&s=1", "address": "MCE Residential Road, Kintampo Ghana", "lat": 8.02464, "lng": -1.73171, "ref_id": 13072253, "rating": 4, "num_reviews": 0, "website": null, "contact_phone": null, "contact_email": null, "status": 1, "source_type": 1, "numberReviews": 1}, {"name": "Viglosam Lodge", "type": "hotel", "image": "https://dynamic-media-cdn.tripadvisor.com/media/photo-o/11/d6/d0/94/20180121-091503-largejpg.jpg?w=1000&s=1", "address": "Off Techiman - Upper West Road, Wenchi 00233 Ghana", "lat": 7.584169, "lng": -1.434891, "ref_id": 12000126, "rating": 3.5, "num_reviews": 0, "website": "http://viglosamlodge.com/", "contact_phone": "+233 20 806 2230", "contact_email": "info@viglosamlodge.com", "status": 1, "source_type": 1, "numberReviews": 2}, {"name": "Falls Executive Guest Lodge", "type": "hotel", "image": "https://dynamic-media-cdn.tripadvisor.com/media/photo-o/03/b0/04/16/falls-executive-guest.jpg?w=1000&s=1", "address": "Kintampo Ghana", "lat": null, "lng": null, "ref_id": 3643445, "rating": 4, "num_reviews": 0, "website": null, "contact_phone": null, "contact_email": null, "status": 1, "source_type": 1, "numberReviews": 1}, {"name": "Ginaat Hotel", "type": "hotel", "image": null, "address": "Ginat Hotel Road, Berekum Ghana", "lat": 7.44135, "lng": -2.57505, "ref_id": 12731172, "rating": 3, "num_reviews": 0, "website": null, "contact_phone": null, "contact_email": null, "status": 1, "source_type": 1, "numberReviews": 1}, {"name": "Tony Lodge Hotel", "type": "hotel", "image": null, "address": "Business School Road, Sunyani Ghana", "lat": 7.340158, "lng": -2.307003, "ref_id": 13310190, "rating": 3, "num_reviews": 0, "website": null, "contact_phone": null, "contact_email": null, "status": 1, "source_type": 1, "numberReviews": 1}, {"name": "Encom Hotel", "type": "hotel", "image": "https://dynamic-media-cdn.tripadvisor.com/media/photo-o/0a/d6/bd/97/bar-teras.jpg?w=1000&s=1", "address": "Sunyani Wenchi Rd, Techiman Ghana", "lat": 7.73052, "lng": -2.10911, "ref_id": 2300193, "rating": 3, "num_reviews": 0, "website": "http://encomhotel.com/", "contact_phone": "+233 (0)3535", "contact_email": "info@encomhotel.com", "status": 1, "source_type": 1, "numberReviews": 18}, {"name": "AJ Plaza Hotel", "type": "hotel", "image": null, "address": "Techiman Kumasi Road, Techiman Ghana", "lat": 8.02464, "lng": -1.73171, "ref_id": 13541328, "rating": 2.5, "num_reviews": 0, "website": null, "contact_phone": null, "contact_email": null, "status": 1, "source_type": 1, "numberReviews": 2}, {"name": "Nass Lodge", "type": "hotel", "image": "https://dynamic-media-cdn.tripadvisor.com/media/photo-o/17/b7/12/1f/20190528-163612-largejpg.jpg?w=1000&s=1", "address": "Sunyani Plt. 94, Berlin Top Sunyani 200M Away From Living Grace Chapel P. O. Box 1392, Sunyani Ghana", "lat": 7.349837, "lng": -2.321311, "ref_id": 12682638, "rating": 1.5, "num_reviews": 0, "website": null, "contact_phone": null, "contact_email": null, "status": 1, "source_type": 1, "numberReviews": 2}, {"name": "Moonlite Hotel Sunyani Airport", "type": "hotel", "image": null, "address": "Sunyani - Odumasi Road Opposite St. Mary's School, Sunyani Ghana", "lat": 7.36661, "lng": -2.31662, "ref_id": 10259827, "rating": 2, "num_reviews": 0, "website": "http://www.moonlitehotel.com/", "contact_phone": "+233 35 202 5690", "contact_email": null, "status": 1, "source_type": 1, "numberReviews": 1}, {"name": "Adomaa Memorial Hotel", "type": "hotel", "image": null, "address": "Techiman-Tamale Road, Kintampo Ghana", "lat": 8.02464, "lng": -1.73171, "ref_id": 13877675, "rating": 2, "num_reviews": 0, "website": null, "contact_phone": null, "contact_email": null, "status": 1, "source_type": 1, "numberReviews": 1}, {"name": "Boabeng Fiema Monkey Sanctuary", "type": "attraction", "image": "https://dynamic-media-cdn.tripadvisor.com/media/photo-o/16/28/ae/12/cercopitechi.jpg?w=1000&s=1", "address": "Nkoranza Ghana", "lat": 7.559313, "lng": -1.710095, "ref_id": 478878, "rating": 4.5, "num_reviews": 0, "website": "http://www.boabengfms.org", "contact_phone": "+233 20 930 5033", "contact_email": "boabeng.fiema@yahoo.com", "status": 1, "source_type": 1, "numberReviews": "36"}, {"name": "Kintampo Falls", "type": "attraction", "image": "https://dynamic-media-cdn.tripadvisor.com/media/photo-o/05/3b/e5/7f/kintampo-falls.jpg?w=1000&s=1", "address": "Kintampo Ghana", "lat": 8.088967, "lng": -1.696391, "ref_id": 1792850, "rating": 4, "num_reviews": 0, "website": "", "contact_phone": "", "contact_email": "", "status": 1, "source_type": 1, "numberReviews": "36"}, {"name": "Fuller Falls", "type": "attraction", "image": "https://dynamic-media-cdn.tripadvisor.com/media/photo-o/0b/25/05/12/fuller-falls.jpg?w=1000&s=1", "address": "Yabraso - west of of Kintampo, Kintampo Ghana", "lat": 8.076905, "lng": -1.83197, "ref_id": 10197884, "rating": 4.5, "num_reviews": 0, "website": null, "contact_phone": null, "contact_email": null, "status": 1, "source_type": 1, "numberReviews": "4"}, {"name": "Christ The King Cathedral", "type": "attraction", "image": null, "address": "Sunyani Ghana", "lat": null, "lng": null, "ref_id": 8375289, "rating": 0, "num_reviews": 0, "website": "http://www.cdsunyani.org", "contact_phone": null, "contact_email": null, "status": 1, "source_type": 1}, {"name": "Tano Sacred Grove", "type": "attraction", "image": null, "address": "Tanoboase Ghana", "lat": null, "lng": null, "ref_id": 10731206, "rating": 0, "num_reviews": 0, "website": null, "contact_phone": null, "contact_email": null, "status": 1, "source_type": 1}, {"name": "Jubilee park", "type": "attraction", "image": null, "address": "6cvv8mgh+8x, Sunyani Ghana", "lat": 7.325812, "lng": -2.320062, "ref_id": 26956214, "rating": 0, "num_reviews": 0, "website": null, "contact_phone": "+233 55 320 9455", "contact_email": null, "status": 1, "source_type": 1}, {"name": "Melcom", "type": "attraction", "image": null, "address": "8MJG+V3G, Sunyani Ghana", "lat": 7.332188, "lng": -2.324797, "ref_id": 26956212, "rating": 0, "num_reviews": 0, "website": "melcom.com", "contact_phone": "+233 56 111 2777", "contact_email": null, "status": 1, "source_type": 1}, {"name": "Methodist Church", "type": "attraction", "image": null, "address": "Goaso Ghana", "lat": null, "lng": null, "ref_id": 23007125, "rating": 0, "num_reviews": 0, "website": null, "contact_phone": null, "contact_email": null, "status": 1, "source_type": 1}, {"name": "Saint Thomas Fiapre Park", "type": "attraction", "image": null, "address": "9m53+R98, Berekum Road, Fiapre, Fiapre Ghana", "lat": 7.359538, "lng": -2.346547, "ref_id": 25194655, "rating": 0, "num_reviews": 0, "website": null, "contact_phone": "+233 24 417 7654", "contact_email": null, "status": 1, "source_type": 1}, {"name": "Sunyani regional court", "type": "attraction", "image": null, "address": "8MJG+C47, Sunyani Ghana", "lat": 7.331038, "lng": -2.324703, "ref_id": 26956423, "rating": 0, "num_reviews": 0, "website": null, "contact_phone": null, "contact_email": null, "status": 1, "source_type": 1}, {"name": "D.k Agyemang Company Limited", "type": "attraction", "image": null, "address": "9m63+V5 Sunyani, Fiapre Ghana", "lat": 7.362188, "lng": -2.347062, "ref_id": 25195524, "rating": 0, "num_reviews": 0, "website": null, "contact_phone": "+233 55 356 5753", "contact_email": "dkagyemangcompanylimited@gmail.com", "status": 1, "source_type": 1}, {"name": "Fiapre Park", "type": "attraction", "image": null, "address": "9m53+R98, Berekum Road, Fiapre 6cvv9m53+r9, Fiapre Ghana", "lat": 7.359538, "lng": -2.346547, "ref_id": 25195516, "rating": 0, "num_reviews": 0, "website": null, "contact_phone": "+233 55 356 5753", "contact_email": null, "status": 1, "source_type": 1}, {"name": "Kintampo Walking Tours", "type": "attraction", "image": "https://dynamic-media-cdn.tripadvisor.com/media/photo-o/18/59/ee/24/getlstd-property-photo.jpg?w=1000&s=1", "address": "Kintampo Ghana", "lat": 8.053555, "lng": -1.72671, "ref_id": 17759902, "rating": 5, "num_reviews": 0, "website": "http://visitkintampo.wordpress.com/walking-tour/", "contact_phone": "+233 55 146 9666", "contact_email": "bungalow3kintampo@gmail.com", "status": 1, "source_type": 1, "numberReviews": "6"}, {"name": "Roundtrip Safaris", "type": "attraction", "image": "https://dynamic-media-cdn.tripadvisor.com/media/photo-o/2d/06/3d/95/caption.jpg?w=1000&s=1", "address": "555 Republic Drive Suite 235, Kenyasi Number 2 75074 Ghana", "lat": null, "lng": null, "ref_id": 28068977, "rating": 0, "num_reviews": 0, "website": "https://roundtripsafaris.com/", "contact_phone": "+1 202-883-9907", "contact_email": "info@roundtripsafaris.com", "status": 1, "source_type": 1}]