[{"name": "Mr. House Italian Restaurant & Resort", "type": "restaurant", "image": "https://dynamic-media-cdn.tripadvisor.com/media/photo-o/08/b9/f1/a6/mr-house-resort-and-restaurant.jpg?w=1000&s=1", "address": "85 Moo 6 Pak Khat Subdistrict, Pak Khat 38100 Thailand", "lat": 18.311037, "lng": 103.30091, "ref_id": 8059388, "rating": 4.5, "num_reviews": 0, "website": "https://www.facebook.com/pages/Mr-House-Resort/1454240058127905", "contact_phone": "+66 84 448 4229", "contact_email": null, "status": 1, "source_type": 1, "numberReviews": 40}, {"name": "S\u0304umh\u0304\u1ea1w \u1e46.Sek\u0101", "type": "restaurant", "image": "https://dynamic-media-cdn.tripadvisor.com/media/photo-o/2b/0f/09/d7/ww-has-great-food-at.jpg?w=1000&s=1", "address": "355 Seka-Bueng Khong Long Road, Seka 38150 Thailand", "lat": 18.011396, "lng": 104.054344, "ref_id": 27079137, "rating": 5, "num_reviews": 0, "website": "https://www.facebook.com/profile.php?id=100068994573694", "contact_phone": "+66 80 180 0055", "contact_email": null, "status": 1, "source_type": 1, "numberReviews": 3}, {"name": "Le Dragon Bleu Restaurant & Bar", "type": "restaurant", "image": "https://dynamic-media-cdn.tripadvisor.com/media/photo-o/1a/ce/a5/10/pizza-margarita-265-thb.jpg?w=1000&s=1", "address": "182 Moo 5 Nonsila, Pak Khat 38190 Thailand", "lat": 18.29513, "lng": 103.29852, "ref_id": 11506281, "rating": 4.5, "num_reviews": 0, "website": "http://www.facebook.com/Le-Dragon-Bleu-RestaurantBar-253698454976828/about/?entry_point=page_nav_about_item&tab=overview", "contact_phone": "+66 97 086 0366", "contact_email": null, "status": 1, "source_type": 1, "numberReviews": 6}, {"name": "SteakDeknaew Buengkonlong", "type": "restaurant", "image": "https://dynamic-media-cdn.tripadvisor.com/media/photo-o/2a/f6/9c/02/caption.jpg?w=1000&s=1", "address": "SteakDeknaew Buengkonglong Buengkonglong district, Buengkan province, Bueng Khong Long 38220 Thailand", "lat": 17.958855, "lng": 104.04519, "ref_id": 26874166, "rating": 4.5, "num_reviews": 0, "website": "https://www.facebook.com/profile.php?id=61552478519149&mibextid=zlopmf", "contact_phone": "+66 61 857 4555", "contact_email": "strongnet2553@gmail.com", "status": 1, "source_type": 1, "numberReviews": 2}, {"name": "Mk suki", "type": "restaurant", "image": "https://dynamic-media-cdn.tripadvisor.com/media/photo-o/12/a1/59/24/duck-i-like-all-their.jpg?w=1000&s=1", "address": "Tesco lotus, Bueng Kan City Thailand", "lat": null, "lng": null, "ref_id": 4283530, "rating": 4, "num_reviews": 0, "website": null, "contact_phone": null, "contact_email": null, "status": 1, "source_type": 1, "numberReviews": 12}, {"name": "The King Kong - Bueng Kan", "type": "restaurant", "image": "https://dynamic-media-cdn.tripadvisor.com/media/photo-o/27/cc/5b/a5/the-king-kong-bueng-kan.jpg?w=1000&s=1", "address": "184 Moo.9, Tanon sai 222, Phang Khon, Bueng Kan City 38000 Thailand", "lat": 18.353104, "lng": 103.63659, "ref_id": 25246004, "rating": 5, "num_reviews": 0, "website": "https://www.facebook.com/kingkongbuengkan", "contact_phone": "+66 94 895 5949", "contact_email": null, "status": 1, "source_type": 1, "numberReviews": 1}, {"name": "KFC", "type": "restaurant", "image": null, "address": "In Tesco lotus supermarket, Bueng Kan City Thailand", "lat": 18.35867, "lng": 103.64656, "ref_id": 4283529, "rating": 3.5, "num_reviews": 0, "website": null, "contact_phone": null, "contact_email": null, "status": 1, "source_type": 1, "numberReviews": 7}, {"name": "Riverside Restaurant&Bar Bungkan", "type": "restaurant", "image": "https://dynamic-media-cdn.tripadvisor.com/media/photo-o/1a/ad/e1/93/stir-fried-asparagus.jpg?w=1000&s=1", "address": "Mi Chai Rd, Tambon Wisit, Bueng Kan City 38000 Thailand", "lat": 18.369978, "lng": 103.65191, "ref_id": 19090158, "rating": 3.5, "num_reviews": 0, "website": "https://www.facebook.com/Riverside-Restaurantbar-Bungkan-533270463486000/", "contact_phone": "+66 87 222 9899", "contact_email": "aimkub99@gmail.com", "status": 1, "source_type": 1, "numberReviews": 6}, {"name": "Mekong village resort resturant", "type": "restaurant", "image": "https://dynamic-media-cdn.tripadvisor.com/media/photo-o/08/21/c6/5f/getlstd-property-photo.jpg?w=1000&s=1", "address": "103 Mod 10 Ban Chook Amnuay Thadoccum, Bueng Khong Long 38220 Thailand", "lat": null, "lng": null, "ref_id": 8333337, "rating": 4, "num_reviews": 0, "website": null, "contact_phone": "+66 88 522 8760", "contact_email": "Tom.guldsvaag@gmail.com", "status": 1, "source_type": 1, "numberReviews": 5}, {"name": "Krua Kin Lom Chom Khong", "type": "restaurant", "image": null, "address": "72, Moo 5, Pak Khat 38190 Thailand", "lat": 18.30644, "lng": 103.3006, "ref_id": 13313597, "rating": 5, "num_reviews": 0, "website": "https://www.facebook.com/%E0%B8%81%E0%B8%B4%E0%B8%99%E0%B8%A5%E0%B8%A1%E0%B8%8A%E0%B8%A1%E0%B9%82%E0%B8%82%E0%B8%87-%E0%B8%9B%E0%B8%B2%E0%B8%81%E0%B8%84%E0%B8%B2%E0%B8%94-640414906034835/", "contact_phone": "+66 81 947 3099", "contact_email": null, "status": 1, "source_type": 1, "numberReviews": 1}, {"name": "NaemNueng Khun-Or", "type": "restaurant", "image": "https://dynamic-media-cdn.tripadvisor.com/media/photo-o/10/12/40/88/caption.jpg?w=1000&s=1", "address": "375/1 Mi Chai Road, Wat Phumiban, Mueang Bueng Kan, Bueng Kan City 38000 Thailand", "lat": 18.369019, "lng": 103.65143, "ref_id": 12703717, "rating": 4, "num_reviews": 0, "website": "https://www.facebook.com/NaemnuengKhunOr3/", "contact_phone": "+66 42 491 866", "contact_email": "siribhorn@gmail.com", "status": 1, "source_type": 1, "numberReviews": 3}, {"name": "Triple Rich Restaurant", "type": "restaurant", "image": null, "address": "523/3 Moo 10 Baan Seka Tai, Seka 38150 Thailand", "lat": 18.05699, "lng": 103.89628, "ref_id": 17697671, "rating": 4, "num_reviews": 0, "website": null, "contact_phone": "+66 61 047 0583", "contact_email": null, "status": 1, "source_type": 1, "numberReviews": 1}, {"name": "Auan Ped Yang", "type": "restaurant", "image": null, "address": "Mi Chai Rd. Wisit, Bueng Kan City 38000 Thailand", "lat": 18.32309, "lng": 103.63517, "ref_id": 15101110, "rating": 4, "num_reviews": 0, "website": null, "contact_phone": "+66 81 269 1675", "contact_email": null, "status": 1, "source_type": 1, "numberReviews": 1}, {"name": "J. Sai Than Bun Bueng Kan", "type": "restaurant", "image": "https://dynamic-media-cdn.tripadvisor.com/media/photo-o/1b/87/30/1d/caption.jpg?w=1000&s=1", "address": "119 Moo 1 Meechai Rd Mueang Bueng Kan, Wisit 38000 Thailand", "lat": 18.327795, "lng": 103.68867, "ref_id": 20998124, "rating": -1, "num_reviews": 0, "website": "http://saaitaanbun.business.site", "contact_phone": "+66 98 560 3525", "contact_email": "", "status": 1, "source_type": 1, "numberReviews": 0}, {"name": "Ran At Size Nai Bem", "type": "restaurant", "image": null, "address": "Ban Na Non, Bueng Kan City 38000 Thailand", "lat": 18.342058, "lng": 103.67543, "ref_id": 14795002, "rating": -1, "num_reviews": 0, "website": "https://www.facebook.com/%E0%B8%A3%E0%B9%89%E0%B8%B2%E0%B8%99-%E0%B9%81%E0%B8%AD%E0%B9%8A%E0%B8%94%E0%B9%84%E0%B8%8B%E0%B8%84%E0%B9%8C-%E0%B8%99%E0%B8%B2%E0%B8%A2%E0%B9%80%E0%B8%9A%E0%B8%B4%E0%B9%89%E0%B8%A1-1095116700498347/", "contact_phone": "+66 81 545 1103", "contact_email": "k.beem@hotmail.com", "status": 1, "source_type": 1, "numberReviews": 0}, {"name": "Pet Noodles", "type": "restaurant", "image": null, "address": "3024 Ban Kham Phu, Bueng Kan City 38000 Thailand", "lat": null, "lng": null, "ref_id": 7367301, "rating": -1, "num_reviews": 0, "website": null, "contact_phone": "+66 85 245 9419", "contact_email": "wawmanee1@gmail.com", "status": 1, "source_type": 1, "numberReviews": 0}, {"name": "The One Hotel", "type": "hotel", "image": "https://dynamic-media-cdn.tripadvisor.com/media/photo-o/22/01/08/dc/the-one-hotel.jpg?w=1000&s=1", "address": "459 Moo 1 Buankan-Nakornpanom Rd, Bueng Kan City 38000 Thailand", "lat": 18.358408, "lng": 103.647964, "ref_id": 3310143, "rating": 4, "num_reviews": 0, "website": "http://www.theonehotel-bk.com/", "contact_phone": "+66 42 492 234", "contact_email": "rsvntheone@gmail.com", "status": 1, "source_type": 1, "numberReviews": 97}, {"name": "The Wisdom Residence", "type": "hotel", "image": "https://dynamic-media-cdn.tripadvisor.com/media/photo-o/13/50/f4/df/the-wisdom-residence.jpg?w=1000&s=1", "address": "503 Moo 1, Bueng Kan-Nakhonphan Rd, Bueng Kan City 38000 Thailand", "lat": 18.360409, "lng": 103.64836, "ref_id": 12918276, "rating": 4, "num_reviews": 0, "website": null, "contact_phone": null, "contact_email": null, "status": 1, "source_type": 1, "numberReviews": 5}, {"name": "BK Place", "type": "hotel", "image": "https://dynamic-media-cdn.tripadvisor.com/media/photo-o/06/b6/f7/9c/bk-place.jpg?w=1000&s=1", "address": "168 Moo.9 Bungkan-Pangkorn Road, Bueng Kan City 38000 Thailand", "lat": 18.35508, "lng": 103.63983, "ref_id": 6916136, "rating": 3.5, "num_reviews": 0, "website": null, "contact_phone": null, "contact_email": null, "status": 1, "source_type": 1, "numberReviews": 14}, {"name": "Thai Guest House", "type": "hotel", "image": "https://dynamic-media-cdn.tripadvisor.com/media/photo-o/27/f3/ba/cf/caption.jpg?w=1000&s=1", "address": "195/2 Moo 12, Bueng Khong Long 38220 Thailand", "lat": 17.96029, "lng": 104.04435, "ref_id": 15512300, "rating": 4.5, "num_reviews": 0, "website": "https://thaiguesthouse-hotel.business.site/", "contact_phone": "+66 83 442 9560", "contact_email": null, "status": 1, "source_type": 1, "numberReviews": 2}, {"name": "Mr. House Resort", "type": "hotel", "image": "https://dynamic-media-cdn.tripadvisor.com/media/photo-o/17/d9/3f/a6/20190509-094525-largejpg.jpg?w=1000&s=1", "address": "85 Moo 6 Baan Thanakoon, Pak Khat 38190 Thailand", "lat": 18.31109, "lng": 103.30084, "ref_id": 10517767, "rating": 4.5, "num_reviews": 0, "website": null, "contact_phone": null, "contact_email": null, "status": 1, "source_type": 1, "numberReviews": 17}, {"name": "Kongkhamkoon hotel", "type": "hotel", "image": "https://dynamic-media-cdn.tripadvisor.com/media/photo-o/0e/26/ba/48/kongkhamkoon-hotel.jpg?w=1000&s=1", "address": "62 Moo 6, Pak Khat Thailand", "lat": 18.308846, "lng": 103.300514, "ref_id": 3440749, "rating": 4, "num_reviews": 0, "website": "https://kongkhamkoon-hotel.business.site/", "contact_phone": "+66 42 404 080", "contact_email": "kongkhomkoon@hotmail.com", "status": 1, "source_type": 1, "numberReviews": 23}, {"name": "Century Grand Hotel", "type": "hotel", "image": "https://dynamic-media-cdn.tripadvisor.com/media/photo-o/10/e7/a3/89/photo3jpg.jpg?w=1000&s=1", "address": "180 Beung Kan - Nakhon Phanom Rd., Moo 8, Bueng Kan City 38000 Thailand", "lat": 18.35332, "lng": 103.65593, "ref_id": 11856270, "rating": 4, "num_reviews": 0, "website": null, "contact_phone": null, "contact_email": null, "status": 1, "source_type": 1, "numberReviews": 3}, {"name": "Huenrewrabeing Guesthouse", "type": "hotel", "image": "https://dynamic-media-cdn.tripadvisor.com/media/photo-o/07/4b/29/fe/very-clean-rooms.jpg?w=1000&s=1", "address": "House No. 242, Village No. 8, Bueng Kan City 38000 Thailand", "lat": 18.35537, "lng": 103.66243, "ref_id": 6939373, "rating": 4, "num_reviews": 0, "website": null, "contact_phone": null, "contact_email": null, "status": 1, "source_type": 1, "numberReviews": 6}, {"name": "HR Resort and Restaurant/Coffee", "type": "hotel", "image": "https://dynamic-media-cdn.tripadvisor.com/media/photo-o/2b/7e/05/cb/caption.jpg?w=1000&s=1", "address": "98/1 Non Champa-Hat Kham Som Boon, Bua Khok 38220 Thailand", "lat": 17.933235, "lng": 104.076904, "ref_id": 26092995, "rating": 4, "num_reviews": 0, "website": null, "contact_phone": null, "contact_email": null, "status": 1, "source_type": 1, "numberReviews": 1}, {"name": "Thor Sang Pruksa Hotel", "type": "hotel", "image": null, "address": "557 Moo 7 Wisit subdistrict, Bueng Kan City 38000 Thailand", "lat": 18.32322, "lng": 103.63379, "ref_id": 7179928, "rating": 5, "num_reviews": 0, "website": null, "contact_phone": "+66 89 711 7620", "contact_email": null, "status": 1, "source_type": 1, "numberReviews": 2}, {"name": "The Little Garden Resort", "type": "hotel", "image": "https://dynamic-media-cdn.tripadvisor.com/media/photo-o/1a/7b/2b/ed/20191217-161834-largejpg.jpg?w=1000&s=1", "address": "239 Moo 5 Ban Nongjun Sri Wilai Subdistrict, Si Wilai 38210 Thailand", "lat": 18.20576, "lng": 103.73543, "ref_id": 8797326, "rating": 4, "num_reviews": 0, "website": null, "contact_phone": null, "contact_email": null, "status": 1, "source_type": 1, "numberReviews": 3}, {"name": "Ban Thung Kheiyng Bung", "type": "hotel", "image": "https://dynamic-media-cdn.tripadvisor.com/media/photo-o/1c/b8/2f/2b/caption.jpg?w=1000&s=1", "address": "323 Moo 3, Bueng Khong Long 38220 Thailand", "lat": 17.960218, "lng": 104.032845, "ref_id": 19750632, "rating": 5, "num_reviews": 0, "website": "https://www.facebook.com/%E0%B8%9A%E0%B9%89%E0%B8%B2%E0%B8%99%E0%B8%97%E0%B8%B8%E0%B9%88%E0%B8%87-%E0%B9%80%E0%B8%84%E0%B8%B5%E0%B8%A2%E0%B8%87%E0%B8%9A%E0%B8%B6%E0%B8%87-%E0%B8%97%E0%B8%B5%E0%B9%88%E0%B8%9E%E0%B8%B1%E0%B8%81-%E0%B8%A3%E0%B8%B5%E0%B8%AA%E0%B8%AD%E0%B8%A3%E0%B9%8C%E0%B8%97-%E0%B8%9A%E0%B8%B6%E0%B8%87%E0%B9%82%E0%B8%82%E0%B8%87%E0%B8%AB%E0%B8%A5%E0%B8%87-%E0%B8%88%E0%B8%9A%E0%B8%B6%E0%B8%87%E0%B8%81%E0%B8%B2%E0%B8%AC-2221343717881562/", "contact_phone": "+66 86 330 1889", "contact_email": null, "status": 1, "source_type": 1, "numberReviews": 1}, {"name": "Surocha Resort", "type": "hotel", "image": null, "address": "168 Moo 1, Non Somboon, Bungkran Pangkon Road, Bueng Kan City 38000 Thailand", "lat": null, "lng": null, "ref_id": 22839820, "rating": 5, "num_reviews": 0, "website": "https://www.facebook.com/surocha.resort/?ref=page_internal", "contact_phone": "+66 82 224 2230", "contact_email": "surocha_resort@hotmail.com", "status": 1, "source_type": 1, "numberReviews": 1}, {"name": "Baan Ta Yai", "type": "hotel", "image": null, "address": "97 Moo 10, Tumbol Visit, Bueng Kan City 38000 Thailand", "lat": 18.400587, "lng": 103.604225, "ref_id": 12098907, "rating": 4, "num_reviews": 0, "website": null, "contact_phone": null, "contact_email": null, "status": 1, "source_type": 1, "numberReviews": 2}, {"name": "Surocha Resort", "type": "hotel", "image": "https://dynamic-media-cdn.tripadvisor.com/media/photo-o/1a/b2/fe/37/surocha-resort.jpg?w=1000&s=1", "address": "168 Moo 1, Bungkran Pangkon Road, Non Sombun 38000 Thailand", "lat": 18.292292, "lng": 103.66359, "ref_id": 19655782, "rating": 4, "num_reviews": 0, "website": "https://www.facebook.com/surocha.resort/", "contact_phone": "+66 82 224 2230", "contact_email": "surocha_resort@hotmail.com", "status": 1, "source_type": 1, "numberReviews": 1}, {"name": "Vipat Bungkan Hotel", "type": "hotel", "image": "https://dynamic-media-cdn.tripadvisor.com/media/photo-o/0f/a7/f6/ae/vipat-bungkan-hotel.jpg?w=1000&s=1", "address": "Baan sanpaserd, 426 Moo 9, Beungkan Technical College Rd, Bueng Kan City 38000 Thailand", "lat": 18.35395, "lng": 103.62974, "ref_id": 11848449, "rating": 4, "num_reviews": 0, "website": null, "contact_phone": "+66 42 492 641", "contact_email": null, "status": 1, "source_type": 1, "numberReviews": 1}, {"name": "M Grand Hotel", "type": "hotel", "image": "https://dynamic-media-cdn.tripadvisor.com/media/photo-o/14/7b/1d/12/caption.jpg?w=1000&s=1", "address": "159 Moo 10, Bueng Kan City 38000 Thailand", "lat": 18.300045, "lng": 103.65289, "ref_id": 19825737, "rating": 3, "num_reviews": 0, "website": "https://m-grand-hotel.business.site/", "contact_phone": "+66 95 146 5363", "contact_email": null, "status": 1, "source_type": 1, "numberReviews": 4}, {"name": "Dathacha Loft View Bed & Breakfast", "type": "hotel", "image": "https://dynamic-media-cdn.tripadvisor.com/media/partner/bookingcom/photo-o/19/b4/39/9d/4825023.jpg?w=1000&s=1", "address": "7 Village No. 18, Phatthana Phiban B, Seka 38150 Thailand", "lat": 17.93086, "lng": 103.95378, "ref_id": 17521535, "rating": -1, "num_reviews": 0, "website": "https://www.facebook.com/dathachaloftview/?ref=page_internal", "contact_phone": "+66 61 245 2888", "contact_email": null, "status": 1, "source_type": 1, "numberReviews": 0}, {"name": "Bkl Happy World", "type": "hotel", "image": "https://dynamic-media-cdn.tripadvisor.com/media/partner/bookingcom/photo-o/2a/bd/57/20/caption.jpg?w=1000&s=1", "address": "196 Village No. 10 Ban No Sawan, Bueng Khong Long 38220 Thailand", "lat": 17.99907, "lng": 104.04073, "ref_id": 26714151, "rating": -1, "num_reviews": 0, "website": null, "contact_phone": "+66 92 872 9872", "contact_email": null, "status": 1, "source_type": 1, "numberReviews": 0}, {"name": "Panichaville Hotel", "type": "hotel", "image": "https://dynamic-media-cdn.tripadvisor.com/media/partner/bookingcom/photo-o/2b/5e/53/8d/caption.jpg?w=1000&s=1", "address": "65 Village No. 12, Bueng Khong Long 38220 Thailand", "lat": 18.011396, "lng": 104.054344, "ref_id": 26834647, "rating": -1, "num_reviews": 0, "website": "https://www.facebook.com/people/%E0%B9%82%E0%B8%A3%E0%B8%87%E0%B9%81%E0%B8%A3%E0%B8%A1%E0%B8%9E%E0%B8%93%E0%B8%B4%E0%B8%8A%E0%B8%B2%E0%B8%A7%E0%B8%B4%E0%B8%A5%E0%B8%A5%E0%B9%8C/100072367756946/", "contact_phone": "+886 5 561 6555", "contact_email": "tofontofon@gmail.com", "status": 1, "source_type": 1, "numberReviews": 0}, {"name": "View Inn", "type": "hotel", "image": null, "address": "176/10, Seka 38220 Thailand", "lat": 17.92522, "lng": 103.9519, "ref_id": 15132171, "rating": 2, "num_reviews": 0, "website": null, "contact_phone": null, "contact_email": null, "status": 1, "source_type": 1, "numberReviews": 1}, {"name": "DD Grand Hotel", "type": "hotel", "image": "https://dynamic-media-cdn.tripadvisor.com/media/partner/bookingcom/photo-o/2a/42/16/cd/caption.jpg?w=1000&s=1", "address": "20 Moo 1, Seka 38150 Thailand", "lat": 17.92858, "lng": 103.94826, "ref_id": 26443913, "rating": -1, "num_reviews": 0, "website": "https://www.facebook.com/ddgrandhotelbuengkan/", "contact_phone": "+66 82 846 7555", "contact_email": "ddgrandseka@gmail.com", "status": 1, "source_type": 1, "numberReviews": 0}, {"name": "Idee Hotel and Resort", "type": "hotel", "image": null, "address": "333, Moo.15, Bueng Kan City 38150 Thailand", "lat": 17.919031, "lng": 103.956375, "ref_id": 23277533, "rating": 2, "num_reviews": 0, "website": null, "contact_phone": null, "contact_email": null, "status": 1, "source_type": 1, "numberReviews": 1}, {"name": "Yoga Homestay Seka", "type": "hotel", "image": "https://dynamic-media-cdn.tripadvisor.com/media/partner/bookingcom/photo-o/2b/5e/5e/84/caption.jpg?w=1000&s=1", "address": "205 Moo18 Pattanapibaan, Seka 38150 Thailand", "lat": 17.948067, "lng": 103.94088, "ref_id": 27120038, "rating": -1, "num_reviews": 0, "website": "https://yogahomestayseka.com/", "contact_phone": "+66 98 617 2875", "contact_email": "info@yogahomestayseka.com", "status": 1, "source_type": 1, "numberReviews": 0}, {"name": "Datsha Loft View Accommodation", "type": "hotel", "image": "https://dynamic-media-cdn.tripadvisor.com/media/photo-o/2a/c1/56/89/caption.jpg?w=1000&s=1", "address": "7 Moo 18, Phatthana Phi Ban 38150 Thailand", "lat": 17.937859, "lng": 103.94483, "ref_id": 20288828, "rating": 1, "num_reviews": 0, "website": "https://dhthacha-loft-view.business.site/", "contact_phone": "+66 61 245 2888", "contact_email": null, "status": 1, "source_type": 1, "numberReviews": 1}, {"name": "Pennaung Resort", "type": "hotel", "image": "https://dynamic-media-cdn.tripadvisor.com/media/partner/bookingcom/photo-o/29/2d/f4/2c/caption.jpg?w=1000&s=1", "address": "184, Moo.9, Tambon Bueng Kan, Amphoe Mueang, Wisit 38000 Thailand", "lat": 18.353352, "lng": 103.637344, "ref_id": 20116089, "rating": -1, "num_reviews": 0, "website": null, "contact_phone": null, "contact_email": null, "status": 1, "source_type": 1, "numberReviews": 0}, {"name": "Chompunud Hose589", "type": "hotel", "image": "https://dynamic-media-cdn.tripadvisor.com/media/partner/bookingcom/photo-o/2a/d6/37/f1/caption.jpg?w=1000&s=1", "address": "231 Ban Na-Arng Village No. 5, Pho Mak Khaeng 38220 Thailand", "lat": 17.92885, "lng": 104.103546, "ref_id": 26779100, "rating": -1, "num_reviews": 0, "website": "https://www.facebook.com/Judpakhauilong2589", "contact_phone": "+66 83 569 5693", "contact_email": "chanyanuchsu06@gmail.com", "status": 1, "source_type": 1, "numberReviews": 0}, {"name": "Huan Porn Naka Homestay", "type": "hotel", "image": null, "address": "Ban Dong Sawang, Pho Mak Khaeng 38220 Thailand", "lat": 17.952335, "lng": 104.08872, "ref_id": 26094595, "rating": -1, "num_reviews": 0, "website": null, "contact_phone": "+66 97 356 4426", "contact_email": null, "status": 1, "source_type": 1, "numberReviews": 0}, {"name": "Naka Diamond Home", "type": "hotel", "image": null, "address": "House No.212 Moo.3, Pho Mak Khaeng 38220 Thailand", "lat": 17.93489, "lng": 104.05582, "ref_id": 26633294, "rating": -1, "num_reviews": 0, "website": null, "contact_phone": null, "contact_email": null, "status": 1, "source_type": 1, "numberReviews": 0}, {"name": "Huean Phon Naka Homestay", "type": "hotel", "image": null, "address": "Pho Mak Khaeng 38220 Thailand", "lat": null, "lng": null, "ref_id": 27672361, "rating": -1, "num_reviews": 0, "website": null, "contact_phone": "+66 97 356 4426", "contact_email": null, "status": 1, "source_type": 1, "numberReviews": 0}, {"name": "Nutchada Resort", "type": "hotel", "image": null, "address": "147 Moo. 9, Pak Khat Thailand", "lat": 18.32707, "lng": 103.32298, "ref_id": 14984665, "rating": -1, "num_reviews": 0, "website": null, "contact_phone": "+66 84 278 8812", "contact_email": null, "status": 1, "source_type": 1, "numberReviews": 0}, {"name": "Omsin House", "type": "hotel", "image": null, "address": "109 Moo. 7, Pak Khat Thailand", "lat": 18.31503, "lng": 103.30139, "ref_id": 14984679, "rating": -1, "num_reviews": 0, "website": null, "contact_phone": "+66 86 886 7974", "contact_email": null, "status": 1, "source_type": 1, "numberReviews": 0}, {"name": "Natchar Resort", "type": "hotel", "image": null, "address": "190 Moo 10, Pak Khat Thailand", "lat": 18.32707, "lng": 103.32298, "ref_id": 14925537, "rating": -1, "num_reviews": 0, "website": null, "contact_phone": null, "contact_email": null, "status": 1, "source_type": 1, "numberReviews": 0}, {"name": "Buang Bua Resort", "type": "hotel", "image": null, "address": "380 Moo 9, Pak Khat Thailand", "lat": 18.32707, "lng": 103.32298, "ref_id": 14986162, "rating": -1, "num_reviews": 0, "website": null, "contact_phone": null, "contact_email": null, "status": 1, "source_type": 1, "numberReviews": 0}, {"name": "Turfan Hotel and Tigger Park", "type": "hotel", "image": null, "address": "229 Moo 2, Phon Charoen 38180 Thailand", "lat": 18.11764, "lng": 103.64338, "ref_id": 15132153, "rating": -1, "num_reviews": 0, "website": null, "contact_phone": null, "contact_email": null, "status": 1, "source_type": 1, "numberReviews": 0}, {"name": "TP house", "type": "hotel", "image": null, "address": "435 Phang Khon-Bueng Kan Road, Phon Charoen 38180 Thailand", "lat": 18.00805, "lng": 103.71387, "ref_id": 27486738, "rating": -1, "num_reviews": 0, "website": null, "contact_phone": null, "contact_email": null, "status": 1, "source_type": 1, "numberReviews": 0}, {"name": "Tp House Porncharoen", "type": "hotel", "image": null, "address": "435, Phon Charoen 38180 Thailand", "lat": 18.008104, "lng": 103.71404, "ref_id": 27138237, "rating": -1, "num_reviews": 0, "website": null, "contact_phone": null, "contact_email": null, "status": 1, "source_type": 1, "numberReviews": 0}, {"name": "King Palace Hotel", "type": "hotel", "image": null, "address": "7/7 Moo 10, Seka 38150 Thailand", "lat": 17.9454, "lng": 103.96124, "ref_id": 15125865, "rating": -1, "num_reviews": 0, "website": null, "contact_phone": null, "contact_email": null, "status": 1, "source_type": 1, "numberReviews": 0}, {"name": "Pennaung Resort", "type": "hotel", "image": null, "address": "184 Village No. 9, Route 222, Wisit 38000 Thailand", "lat": 18.357718, "lng": 103.64377, "ref_id": 23611008, "rating": -1, "num_reviews": 0, "website": "https://www.facebook.com/%E0%B9%80%E0%B8%9B%E0%B9%87%E0%B8%99%E0%B8%AB%E0%B8%99%E0%B8%B6%E0%B9%88%E0%B8%87%E0%B8%A3%E0%B8%B5%E0%B8%AA%E0%B8%AD%E0%B8%A3%E0%B9%8C%E0%B8%97-282476808482150/", "contact_phone": "+66 98 112 5590", "contact_email": "pennaungresort@hotmail.com", "status": 1, "source_type": 1, "numberReviews": 0}, {"name": "Siriampron Resort", "type": "hotel", "image": "https://dynamic-media-cdn.tripadvisor.com/media/partner/bookingcom/photo-o/1a/bf/14/25/5267518.jpg?w=1000&s=1", "address": "111/1 Moo 4, Wisit 38000 Thailand", "lat": 18.365074, "lng": 103.61467, "ref_id": 19806820, "rating": -1, "num_reviews": 0, "website": null, "contact_phone": null, "contact_email": null, "status": 1, "source_type": 1, "numberReviews": 0}, {"name": "Nam Ing Resort Bueng Khong Long", "type": "hotel", "image": null, "address": "177/6 Nam Ing Homestay, Bueng Khong Long 38220 Thailand", "lat": 17.9756, "lng": 104.05067, "ref_id": 26682866, "rating": -1, "num_reviews": 0, "website": null, "contact_phone": null, "contact_email": null, "status": 1, "source_type": 1, "numberReviews": 0}, {"name": "Kuengbuengngam Villa", "type": "hotel", "image": null, "address": "176 Village No. 10 Ban Non Sawan, Bueng Khong Long 38220 Thailand", "lat": 17.99016, "lng": 104.04342, "ref_id": 26788155, "rating": -1, "num_reviews": 0, "website": null, "contact_phone": "+66 61 274 7124", "contact_email": null, "status": 1, "source_type": 1, "numberReviews": 0}, {"name": "Comfortable Home - Bueng Khong Long", "type": "hotel", "image": null, "address": "136 Moo 13, Bueng Khong Long 38220 Thailand", "lat": null, "lng": null, "ref_id": 27663998, "rating": -1, "num_reviews": 0, "website": "https://www.facebook.com/Baanusabai110", "contact_phone": "+66 81 670 5312", "contact_email": "yupa_fast@hotmail.com", "status": 1, "source_type": 1, "numberReviews": 0}, {"name": "Mowich Nakathibodi Resort", "type": "hotel", "image": null, "address": "499 H\u0304m\u016b\u0300 12, Bueng Khong Long 38220 Thailand", "lat": 17.96871, "lng": 104.04086, "ref_id": 26591241, "rating": -1, "num_reviews": 0, "website": null, "contact_phone": "+66 63 625 9555", "contact_email": null, "status": 1, "source_type": 1, "numberReviews": 0}, {"name": "Baan Rimnam", "type": "hotel", "image": null, "address": "406 Moo 1, Bueng Khong Long 38220 Thailand", "lat": 17.96289, "lng": 104.04752, "ref_id": 15131864, "rating": -1, "num_reviews": 0, "website": null, "contact_phone": null, "contact_email": null, "status": 1, "source_type": 1, "numberReviews": 0}, {"name": "Khun Napal Resort", "type": "hotel", "image": null, "address": "211 Moo 10, Bueng Khong Long 38220 Thailand", "lat": 17.93323, "lng": 104.0769, "ref_id": 25956431, "rating": -1, "num_reviews": 0, "website": null, "contact_phone": "+66 81 544 4078", "contact_email": null, "status": 1, "source_type": 1, "numberReviews": 0}, {"name": "Lake House Naka Cave", "type": "hotel", "image": null, "address": "220 B\u0302\u0101n Non S\u0304wrrkh\u0312 ., Bueng Khong Long 38220 Thailand", "lat": 17.99816, "lng": 104.04125, "ref_id": 26019267, "rating": -1, "num_reviews": 0, "website": null, "contact_phone": "+66 62 609 6352", "contact_email": null, "status": 1, "source_type": 1, "numberReviews": 0}, {"name": "Baan Tungkiengbueng", "type": "hotel", "image": null, "address": "223 Moo 3, Bueng Khong Long 38220 Thailand", "lat": 18.0277, "lng": 104.1428, "ref_id": 15127061, "rating": -1, "num_reviews": 0, "website": null, "contact_phone": null, "contact_email": null, "status": 1, "source_type": 1, "numberReviews": 0}, {"name": "Rong Raem Phnich A Wi Ll", "type": "hotel", "image": null, "address": "65 Village No. 12, Bueng Khong Long 38220 Thailand", "lat": 18.0114, "lng": 104.05434, "ref_id": 26726462, "rating": -1, "num_reviews": 0, "website": null, "contact_phone": "+66 65 561 6555", "contact_email": null, "status": 1, "source_type": 1, "numberReviews": 0}, {"name": "Buengkhonglong Mansion", "type": "hotel", "image": null, "address": "11 Moo 2, Bueng Khong Long 38220 Thailand", "lat": 17.95821, "lng": 104.04713, "ref_id": 17783877, "rating": -1, "num_reviews": 0, "website": null, "contact_phone": null, "contact_email": null, "status": 1, "source_type": 1, "numberReviews": 0}, {"name": "Ban Thung Kheiyng B\u1ee5ng", "type": "hotel", "image": null, "address": "Bueng Khong Long 38220 Thailand", "lat": 17.960218, "lng": 104.032845, "ref_id": 21253732, "rating": -1, "num_reviews": 0, "website": null, "contact_phone": null, "contact_email": null, "status": 1, "source_type": 1, "numberReviews": 0}, {"name": "Asean Resort", "type": "hotel", "image": "https://dynamic-media-cdn.tripadvisor.com/media/partner/bookingcom/photo-o/1a/09/53/81/2255870.jpg?w=1000&s=1", "address": "99 Moo.13, Bung Khla 38000 Thailand", "lat": 18.37581, "lng": 103.61934, "ref_id": 12365273, "rating": -1, "num_reviews": 0, "website": null, "contact_phone": null, "contact_email": null, "status": 1, "source_type": 1, "numberReviews": 0}, {"name": "Chanmuang Resort", "type": "hotel", "image": null, "address": "129 Moo 2, Wisit, Muang, Bueng Kan City 38000 Thailand", "lat": 18.32309, "lng": 103.63517, "ref_id": 15124809, "rating": -1, "num_reviews": 0, "website": null, "contact_phone": null, "contact_email": null, "status": 1, "source_type": 1, "numberReviews": 0}, {"name": "Viengfa Hotel Bicycle and Run", "type": "hotel", "image": null, "address": "491 Wisit, Bueng Kan City Thailand", "lat": 18.32309, "lng": 103.63517, "ref_id": 14971927, "rating": -1, "num_reviews": 0, "website": null, "contact_phone": null, "contact_email": null, "status": 1, "source_type": 1, "numberReviews": 0}, {"name": "Jutamas Resort", "type": "hotel", "image": null, "address": "200 Moo 4, Bueng Kan City 38000 Thailand", "lat": 18.35743, "lng": 103.65203, "ref_id": 15124798, "rating": -1, "num_reviews": 0, "website": null, "contact_phone": null, "contact_email": null, "status": 1, "source_type": 1, "numberReviews": 0}, {"name": "Chaiyapuak Resort and Hotel", "type": "hotel", "image": null, "address": "192 Moo. 10, Bueng Kan City Thailand", "lat": 18.29318, "lng": 103.6645, "ref_id": 15036328, "rating": -1, "num_reviews": 0, "website": null, "contact_phone": null, "contact_email": null, "status": 1, "source_type": 1, "numberReviews": 0}, {"name": "For You Hotel", "type": "hotel", "image": null, "address": "230 Moo. 9, Ban NA Nuevisit, Bueng Kan City 3800 Thailand", "lat": 18.377464, "lng": 103.63597, "ref_id": 14937093, "rating": -1, "num_reviews": 0, "website": null, "contact_phone": null, "contact_email": null, "status": 1, "source_type": 1, "numberReviews": 0}, {"name": "BK Place Hotel", "type": "hotel", "image": null, "address": "Phra Khanong 222, Bueng Kan City 38000 Thailand", "lat": 18.35909, "lng": 103.64512, "ref_id": 23208472, "rating": -1, "num_reviews": 0, "website": null, "contact_phone": "+66 99 638 0988", "contact_email": null, "status": 1, "source_type": 1, "numberReviews": 0}, {"name": "Khong Sunshine", "type": "hotel", "image": null, "address": "829 Moo. 7, Bueng Kan City Thailand", "lat": 18.37205, "lng": 103.64957, "ref_id": 14938732, "rating": -1, "num_reviews": 0, "website": null, "contact_phone": null, "contact_email": null, "status": 1, "source_type": 1, "numberReviews": 0}, {"name": "Ruamtong Resort", "type": "hotel", "image": null, "address": "221 Moo 1, Nonsomboon, Muang, Bueng Kan City 38000 Thailand", "lat": 18.35743, "lng": 103.65203, "ref_id": 15132149, "rating": -1, "num_reviews": 0, "website": null, "contact_phone": null, "contact_email": null, "status": 1, "source_type": 1, "numberReviews": 0}, {"name": "Pennaung Resort", "type": "hotel", "image": null, "address": "Tambon Wisit Road, Bueng Kan City 38000 Thailand", "lat": 18.32309, "lng": 103.63517, "ref_id": 14954054, "rating": -1, "num_reviews": 0, "website": null, "contact_phone": null, "contact_email": null, "status": 1, "source_type": 1, "numberReviews": 0}, {"name": "Suthatta Apartment", "type": "hotel", "image": null, "address": "94 Moo. 1 Mee Chai Rd, Bueng Kan City Thailand", "lat": 18.36091, "lng": 103.64645, "ref_id": 14990623, "rating": -1, "num_reviews": 0, "website": null, "contact_phone": "+66 81 260 5158", "contact_email": null, "status": 1, "source_type": 1, "numberReviews": 0}, {"name": "Siri Amporn Resort", "type": "hotel", "image": null, "address": "111, Moo 4, Wisit, Bueng Kan City 38000 Thailand", "lat": 18.32322, "lng": 103.63379, "ref_id": 12696947, "rating": -1, "num_reviews": 0, "website": null, "contact_phone": null, "contact_email": null, "status": 1, "source_type": 1, "numberReviews": 0}, {"name": "Pakkhat Grand Resort", "type": "hotel", "image": null, "address": "No. 21/1 Moo 1, T. Pakkhat Pak Khat District, Bueng Kan City 38190 Thailand", "lat": 18.2971, "lng": 103.30009, "ref_id": 11870695, "rating": -1, "num_reviews": 0, "website": null, "contact_phone": null, "contact_email": null, "status": 1, "source_type": 1, "numberReviews": 0}, {"name": "Laong Pilom Boutique Guesthouse", "type": "hotel", "image": null, "address": "322 Moo.7, Bueng Kan City 38000 Thailand", "lat": 18.370586, "lng": 103.65111, "ref_id": 14990648, "rating": -1, "num_reviews": 0, "website": null, "contact_phone": "+66 90 946 5654", "contact_email": null, "status": 1, "source_type": 1, "numberReviews": 0}, {"name": "Ban Thung Kheiyng Bung", "type": "hotel", "image": null, "address": "323 Thnn Xangkebna B\u1ee5ng Khong Hlng M3, Bueng Kan City 38220 Thailand", "lat": 17.960098, "lng": 104.03279, "ref_id": 20056047, "rating": -1, "num_reviews": 0, "website": "https://www.facebook.com/%E0%B8%9A%E0%B9%89%E0%B8%B2%E0%B8%99%E0%B8%97%E0%B8%B8%E0%B9%88%E0%B8%87-%E0%B9%80%E0%B8%84%E0%B8%B5%E0%B8%A2%E0%B8%87%E0%B8%9A%E0%B8%B6%E0%B8%87-%E0%B8%97%E0%B8%B5%E0%B9%88%E0%B8%9E%E0%B8%B1%E0%B8%81-%E0%B8%A3%E0%B8%B5%E0%B8%AA%E0%B8%AD%E0%B8%A3%E0%B9%8C%E0%B8%97-%E0%B8%9A%E0%B8%B6%E0%B8%87%E0%B9%82%E0%B8%82%E0%B8%87%E0%B8%AB%E0%B8%A5%E0%B8%87-%E0%B8%88%E0%B8%9A%E0%B8%B6%E0%B8%87%E0%B8%81%E0%B8%B2%E0%B8%AC-2221343717881562/", "contact_phone": "+66 86 330 1889", "contact_email": null, "status": 1, "source_type": 1, "numberReviews": 0}, {"name": "Tawadai Resort", "type": "hotel", "image": null, "address": "180 Moo 11, Bueng Kan City 38000 Thailand", "lat": 18.326944, "lng": 103.68838, "ref_id": 15125114, "rating": -1, "num_reviews": 0, "website": null, "contact_phone": null, "contact_email": null, "status": 1, "source_type": 1, "numberReviews": 0}, {"name": "Aromdee Resort", "type": "hotel", "image": "https://dynamic-media-cdn.tripadvisor.com/media/photo-o/2b/ed/ec/76/caption.jpg?w=1000&s=1", "address": "413, Moo 4, Phon Charoen, Bueng Karn, Pak Khat 38180 Thailand", "lat": 18.09767, "lng": 103.6298, "ref_id": 12103955, "rating": -1, "num_reviews": 0, "website": null, "contact_phone": null, "contact_email": null, "status": 1, "source_type": 1, "numberReviews": 0}, {"name": "Wat Phu Tok", "type": "attraction", "image": "https://dynamic-media-cdn.tripadvisor.com/media/photo-o/03/53/28/c9/wat-phu-tok.jpg?w=1000&s=1", "address": "Ban Kham Khaen Na Sabaeng Subdistrict, Si Wilai 38000 Thailand", "lat": null, "lng": null, "ref_id": 3561661, "rating": 4.5, "num_reviews": 0, "website": null, "contact_phone": null, "contact_email": null, "status": 1, "source_type": 1, "numberReviews": "95"}, {"name": "Three Whale Rock", "type": "attraction", "image": "https://dynamic-media-cdn.tripadvisor.com/media/photo-o/2b/7c/47/f6/caption.jpg?w=1000&s=1", "address": "Khok Kong Mueang Bueng Kan District, Bueng Kan City 38000 Thailand", "lat": 18.29074, "lng": 103.78685, "ref_id": 23261291, "rating": 5, "num_reviews": 0, "website": null, "contact_phone": null, "contact_email": null, "status": 1, "source_type": 1, "numberReviews": "10"}, {"name": "Wat Jetiyakhiri (Wat Phu Thok)", "type": "attraction", "image": "https://dynamic-media-cdn.tripadvisor.com/media/photo-o/09/3e/2d/77/wat-jetiyakhiri-wat-phu.jpg?w=1000&s=1", "address": "Na Saeng, Si Wilai 38220 Thailand", "lat": 18.13142, "lng": 103.88147, "ref_id": 8725100, "rating": 5, "num_reviews": 0, "website": null, "contact_phone": null, "contact_email": null, "status": 1, "source_type": 1, "numberReviews": "32"}, {"name": "Wat ahong", "type": "attraction", "image": "https://dynamic-media-cdn.tripadvisor.com/media/photo-o/09/98/51/b5/wat-ahong.jpg?w=1000&s=1", "address": "Buengkan province, Bueng Kan City Thailand", "lat": 18.42431, "lng": 103.4707, "ref_id": 4283462, "rating": 4.5, "num_reviews": 0, "website": null, "contact_phone": null, "contact_email": null, "status": 1, "source_type": 1, "numberReviews": "24"}, {"name": "Phu Sing Bueng Kan", "type": "attraction", "image": "https://dynamic-media-cdn.tripadvisor.com/media/photo-o/14/b8/ca/f8/view-walking-up-the-trail.jpg?w=1000&s=1", "address": "Khok Kong, Bueng Kan City 38000 Thailand", "lat": 18.268612, "lng": 103.797226, "ref_id": 15089780, "rating": 4.5, "num_reviews": 0, "website": null, "contact_phone": "+66 88 563 8852", "contact_email": "kittichai.law@gmail.com", "status": 1, "source_type": 1, "numberReviews": "9"}, {"name": "Wat A-Hong Silawas", "type": "attraction", "image": "https://dynamic-media-cdn.tripadvisor.com/media/photo-o/0b/1c/07/74/le-wat.jpg?w=1000&s=1", "address": "18\u00b025'27.5n 103\u00b028'14.5e, Khai Si 38000 Thailand", "lat": 18.424309, "lng": 103.4707, "ref_id": 4322817, "rating": 4, "num_reviews": 0, "website": null, "contact_phone": null, "contact_email": null, "status": 1, "source_type": 1, "numberReviews": "19"}, {"name": "Tham Phra Waterfall", "type": "attraction", "image": "https://dynamic-media-cdn.tripadvisor.com/media/photo-o/10/28/41/00/caption.jpg?w=1000&s=1", "address": "Seka Thailand", "lat": null, "lng": null, "ref_id": 12711442, "rating": 4.5, "num_reviews": 0, "website": null, "contact_phone": null, "contact_email": null, "status": 1, "source_type": 1, "numberReviews": "6"}, {"name": "Wat Sawang Arom (Wat Tham Sri Thon )", "type": "attraction", "image": "https://dynamic-media-cdn.tripadvisor.com/media/photo-o/10/93/5d/b7/caption.jpg?w=1000&s=1", "address": "Baan Non Sila, Moo 1 Non Sila Subdistrict, Pak Khat 38190 Thailand", "lat": 18.300694, "lng": 103.308334, "ref_id": 8654042, "rating": 4, "num_reviews": 0, "website": null, "contact_phone": null, "contact_email": null, "status": 1, "source_type": 1, "numberReviews": "12"}, {"name": "Kaeng A-Hong", "type": "attraction", "image": "https://dynamic-media-cdn.tripadvisor.com/media/photo-o/0a/37/48/30/caption.jpg?w=1000&s=1", "address": "Khai Si Thailand", "lat": null, "lng": null, "ref_id": 6669513, "rating": 4.5, "num_reviews": 0, "website": null, "contact_phone": null, "contact_email": null, "status": 1, "source_type": 1, "numberReviews": "2"}, {"name": "Seven Colors Waterfall", "type": "attraction", "image": "https://dynamic-media-cdn.tripadvisor.com/media/photo-o/10/28/3d/26/caption.jpg?w=1000&s=1", "address": "Bueng Kan City Thailand", "lat": 18.156748, "lng": 103.94902, "ref_id": 12711448, "rating": 4, "num_reviews": 0, "website": null, "contact_phone": null, "contact_email": null, "status": 1, "source_type": 1, "numberReviews": "7"}, {"name": "\u0e17\u0e32\u0e07\u0e40\u0e02\u0e49\u0e32\u0e2b\u0e34\u0e19\u0e19\u0e32\u0e04\u0e32 (\u0e19\u0e49\u0e33\u0e15\u0e01\u0e01\u0e34\u0e19\u0e23\u0e35)", "type": "attraction", "image": "https://dynamic-media-cdn.tripadvisor.com/media/photo-o/21/da/d4/71/caption.jpg?w=1000&s=1", "address": "Bueng Khong Long 38220 Thailand", "lat": 17.941694, "lng": 104.12598, "ref_id": 23776374, "rating": 5, "num_reviews": 0, "website": null, "contact_phone": null, "contact_email": null, "status": 1, "source_type": 1, "numberReviews": "1"}, {"name": "\u0e27\u0e31\u0e14\u0e2b\u0e49\u0e27\u0e22\u0e2b\u0e34\u0e19\u0e41\u0e2b\u0e1a", "type": "attraction", "image": "https://dynamic-media-cdn.tripadvisor.com/media/photo-o/21/d2/67/79/caption.jpg?w=1000&s=1", "address": "Bueng Khong Long 38220 Thailand", "lat": 17.928885, "lng": 104.093796, "ref_id": 23776375, "rating": 4, "num_reviews": 0, "website": null, "contact_phone": null, "contact_email": null, "status": 1, "source_type": 1, "numberReviews": "2"}, {"name": "Kham Somboon Beach", "type": "attraction", "image": "https://dynamic-media-cdn.tripadvisor.com/media/photo-o/21/ce/a1/13/caption.jpg?w=1000&s=1", "address": "Bueng Khong Long 38220 Thailand", "lat": 17.979015, "lng": 104.02766, "ref_id": 23803540, "rating": 3, "num_reviews": 0, "website": null, "contact_phone": "+66 88 518 6586", "contact_email": null, "status": 1, "source_type": 1, "numberReviews": "1"}, {"name": "The Nampratai Church of Bueng Kan", "type": "attraction", "image": null, "address": "House No. 436, Moo 7, Wisit Subdistrict, Bueng Kan City 38000 Thailand", "lat": 18.326944, "lng": 103.68838, "ref_id": 20981436, "rating": 0, "num_reviews": 0, "website": "http://namprataibk.business.site", "contact_phone": "+66 81 797 5820", "contact_email": "prithsu777@gmail.com", "status": 1, "source_type": 1}, {"name": "Tham Phra Waterfall", "type": "attraction", "image": "https://dynamic-media-cdn.tripadvisor.com/media/photo-o/23/98/ea/cc/picturesque-waterfalls.jpg?w=1000&s=1", "address": "Seka Thailand", "lat": 17.989767, "lng": 103.9376, "ref_id": 23611012, "rating": 0, "num_reviews": 0, "website": "", "contact_phone": null, "contact_email": null, "status": 1, "source_type": 1}, {"name": "Naka Cave", "type": "attraction", "image": null, "address": "Pho Mak Khaeng 38220 Thailand", "lat": 18.326944, "lng": 103.68838, "ref_id": 26437845, "rating": 0, "num_reviews": 0, "website": "https://www.facebook.com/MetaGreatNaga/", "contact_phone": null, "contact_email": null, "status": 1, "source_type": 1}, {"name": "Bueng Kan Tours", "type": "attraction", "image": "https://dynamic-media-cdn.tripadvisor.com/media/photo-o/0f/7b/d5/8f/phu-sing.jpg?w=1000&s=1", "address": "Bueng Kan City 38000 Thailand", "lat": 18.339306, "lng": 103.68165, "ref_id": 12503539, "rating": 5, "num_reviews": 0, "website": "http://www.buengkantours.com/", "contact_phone": "+66 94 195 6569", "contact_email": null, "status": 1, "source_type": 1, "numberReviews": "10"}]