[{"name": "Fukushima-Ya", "type": "restaurant", "image": "https://dynamic-media-cdn.tripadvisor.com/media/photo-o/26/3f/08/73/caption.jpg?w=1000&s=1", "address": "2-8-16 Katamachi, Kanazawa 920-0981 Ishikawa Prefecture", "lat": 36.562305, "lng": 136.65263, "ref_id": 9670037, "rating": 3, "num_reviews": 0, "website": null, "contact_phone": "+81 76-231-1502", "contact_email": null, "status": 1, "source_type": 1, "numberReviews": 3}, {"name": "Izakaya Casa Mia", "type": "restaurant", "image": null, "address": "7-5 Saiwaimachi, Kanazawa 920-0968 Ishikawa Prefecture", "lat": 36.553925, "lng": 136.661, "ref_id": 9692934, "rating": 3, "num_reviews": 0, "website": null, "contact_phone": "+81 76-262-3553", "contact_email": null, "status": 1, "source_type": 1, "numberReviews": 1}, {"name": "Asian Cafe Garuda", "type": "restaurant", "image": null, "address": "2-387 Fujiekita, Kanazawa 920-0345 Ishikawa Prefecture", "lat": 36.587036, "lng": 136.62175, "ref_id": 13237283, "rating": 3, "num_reviews": 0, "website": "http://gem-foods.net/", "contact_phone": "+81 76-268-0111", "contact_email": null, "status": 1, "source_type": 1, "numberReviews": 1}, {"name": "Go Go Curry Kanazawa Main Store", "type": "restaurant", "image": "https://dynamic-media-cdn.tripadvisor.com/media/photo-o/19/50/db/2c/photo0jpg.jpg?w=1000&s=1", "address": "2-110 Tagami Sakura, Kanazawa 920-1157 Ishikawa Prefecture", "lat": 36.54501, "lng": 136.6899, "ref_id": 13259454, "rating": 3, "num_reviews": 0, "website": null, "contact_phone": "+81 76-262-5550", "contact_email": null, "status": 1, "source_type": 1, "numberReviews": 1}, {"name": "Chanko Edosawa Komatsu", "type": "restaurant", "image": null, "address": "43 Ma Mukai Moto Orimachi, Komatsu Ishikawa Prefecture", "lat": 36.392906, "lng": 136.4458, "ref_id": 7407303, "rating": 3, "num_reviews": 0, "website": null, "contact_phone": "+81 761-24-1110", "contact_email": null, "status": 1, "source_type": 1, "numberReviews": 1}, {"name": "Uoman", "type": "restaurant", "image": null, "address": "Yamato 8, Komatsu 923-0952 Ishikawa Prefecture", "lat": 36.399418, "lng": 136.44983, "ref_id": 20165332, "rating": 3, "num_reviews": 0, "website": null, "contact_phone": "+81 761-58-2578", "contact_email": null, "status": 1, "source_type": 1, "numberReviews": 1}, {"name": "Kasaya", "type": "restaurant", "image": null, "address": "146 Ryusukecho, Komatsu Ishikawa Prefecture", "lat": 36.399982, "lng": 136.44907, "ref_id": 1693982, "rating": 3, "num_reviews": 0, "website": "", "contact_phone": "+81 761-22-1274", "contact_email": "", "status": 1, "source_type": 1, "numberReviews": 1}, {"name": "Sukiya Kanazawa Teraji", "type": "restaurant", "image": "https://dynamic-media-cdn.tripadvisor.com/media/photo-o/1c/94/cb/90/caption.jpg?w=1000&s=1", "address": "1-32-28 Teraji, Kanazawa 921-8178 Ishikawa Prefecture", "lat": 36.535572, "lng": 136.6396, "ref_id": 17843409, "rating": 3.5, "num_reviews": 0, "website": null, "contact_phone": "+81 120-498-007", "contact_email": null, "status": 1, "source_type": 1, "numberReviews": 7}, {"name": "Arimatsu Sangenya", "type": "restaurant", "image": "https://dynamic-media-cdn.tripadvisor.com/media/photo-o/28/28/ff/f7/caption.jpg?w=1000&s=1", "address": "5-8-22 Arimatsu, Kanazawa Ishikawa Prefecture", "lat": 36.539955, "lng": 136.63818, "ref_id": 7407118, "rating": 3.5, "num_reviews": 0, "website": null, "contact_phone": "+81 76-255-7100", "contact_email": null, "status": 1, "source_type": 1, "numberReviews": 5}, {"name": "Mos Burger Matsuto", "type": "restaurant", "image": null, "address": "10-166 Kuramitsu, Hakusan Ishikawa Prefecture", "lat": 36.510105, "lng": 136.5673, "ref_id": 7572467, "rating": 3, "num_reviews": 0, "website": null, "contact_phone": "+81 76-276-4594", "contact_email": null, "status": 1, "source_type": 1, "numberReviews": 1}, {"name": "ChineseRestaurant Keika", "type": "restaurant", "image": "https://dynamic-media-cdn.tripadvisor.com/media/photo-o/16/dc/56/40/photo3jpg.jpg?w=1000&s=1", "address": "3-117 Saiwaicho, Komatsu 923-0867 Ishikawa Prefecture", "lat": 36.391727, "lng": 136.45076, "ref_id": 14740791, "rating": 3, "num_reviews": 0, "website": null, "contact_phone": "+81 761-48-4361", "contact_email": null, "status": 1, "source_type": 1, "numberReviews": 1}, {"name": "Otaya", "type": "restaurant", "image": null, "address": "3-12 Saiwai-Machi, Kanazawa Ishikawa Prefecture", "lat": 36.555164, "lng": 136.65938, "ref_id": 7407080, "rating": 3, "num_reviews": 0, "website": null, "contact_phone": "+81 76-231-3851", "contact_email": null, "status": 1, "source_type": 1, "numberReviews": 2}, {"name": "Hachiban Ramen Express", "type": "restaurant", "image": null, "address": "Okimachi 20 gaiku1F, Komatsu 923-0861 Ishikawa Prefecture", "lat": 36.39518, "lng": 136.46497, "ref_id": 13789424, "rating": 3, "num_reviews": 0, "website": null, "contact_phone": "+81 761-48-4858", "contact_email": null, "status": 1, "source_type": 1, "numberReviews": 1}, {"name": "Yuzuan Kanazawa Arimatsu", "type": "restaurant", "image": "https://dynamic-media-cdn.tripadvisor.com/media/photo-o/1a/93/bd/fc/yuzuan-kanazawa-arimatsu.jpg?w=1000&s=1", "address": "4-3-8 Arimatsu, Kanazawa 921-8161 Ishikawa Prefecture", "lat": 36.54037, "lng": 136.6381, "ref_id": 13247078, "rating": 3, "num_reviews": 0, "website": null, "contact_phone": "+81 76-201-1855", "contact_email": null, "status": 1, "source_type": 1, "numberReviews": 5}, {"name": "Saitaniya", "type": "restaurant", "image": null, "address": "10-22 Wakamatsu-Machi, Nonoichi Ishikawa Prefecture", "lat": 36.535107, "lng": 136.6147, "ref_id": 7476294, "rating": 3, "num_reviews": 0, "website": null, "contact_phone": "+81 76-294-1611", "contact_email": null, "status": 1, "source_type": 1, "numberReviews": 1}, {"name": "Shaku", "type": "restaurant", "image": null, "address": "13-6 Suwa Sakaemachi, Yokkaichi 510-0086 Mie Prefecture", "lat": 34.967712, "lng": 136.62148, "ref_id": 9618819, "rating": -1, "num_reviews": 0, "website": null, "contact_phone": "+81 59-353-0922", "contact_email": null, "status": 1, "source_type": 1, "numberReviews": 0}, {"name": "Mokuren", "type": "restaurant", "image": null, "address": "5-6-5 Ogoso, Yokkaichi 510-0958 Mie Prefecture", "lat": 34.931206, "lng": 136.5901, "ref_id": 9625875, "rating": -1, "num_reviews": 0, "website": null, "contact_phone": "+81 59-347-7719", "contact_email": null, "status": 1, "source_type": 1, "numberReviews": 0}, {"name": "Tonchi", "type": "restaurant", "image": null, "address": "3-4-30 Sumiyoshi, Suzuka 513-0826 Mie Prefecture", "lat": 34.863384, "lng": 136.53554, "ref_id": 9636799, "rating": -1, "num_reviews": 0, "website": null, "contact_phone": "+81 59-378-0710", "contact_email": null, "status": 1, "source_type": 1, "numberReviews": 0}, {"name": "Asian Cafe", "type": "restaurant", "image": null, "address": "8474-69 Komono, Komono-cho, Mie-gun Mie Prefecture", "lat": 35.011955, "lng": 136.46815, "ref_id": 7478946, "rating": -1, "num_reviews": 0, "website": null, "contact_phone": "+81 59-392-2701", "contact_email": null, "status": 1, "source_type": 1, "numberReviews": 0}, {"name": "Kampaku Branch Store", "type": "restaurant", "image": null, "address": "2-17-20 Okada, Suzuka 513-0027 Mie Prefecture", "lat": 34.87868, "lng": 136.54866, "ref_id": 9672004, "rating": -1, "num_reviews": 0, "website": null, "contact_phone": "+81 59-370-0815", "contact_email": null, "status": 1, "source_type": 1, "numberReviews": 0}, {"name": "Karaoke Cafe Bell", "type": "restaurant", "image": null, "address": "Hiratashin-Cho 2-7-E, Suzuka 513-0845 Mie Prefecture", "lat": 34.872395, "lng": 136.54187, "ref_id": 14727704, "rating": -1, "num_reviews": 0, "website": null, "contact_phone": "+81 59-379-6188", "contact_email": null, "status": 1, "source_type": 1, "numberReviews": 0}, {"name": "Tempura Shoten", "type": "restaurant", "image": "https://dynamic-media-cdn.tripadvisor.com/media/photo-o/0c/c9/13/b3/caption.jpg?w=1000&s=1", "address": "140 Funabashicho, Hashima 501-6302 Gifu Prefecture", "lat": 35.31841, "lng": 136.69669, "ref_id": 9686708, "rating": 4, "num_reviews": 0, "website": null, "contact_phone": "+81 58-322-8366", "contact_email": null, "status": 1, "source_type": 1, "numberReviews": 3}, {"name": "McDonald's 421 Kuwana", "type": "restaurant", "image": "https://dynamic-media-cdn.tripadvisor.com/media/photo-o/0a/21/40/f8/20160117-083530-largejpg.jpg?w=1000&s=1", "address": "439-1 Aza Yashikimae, Oaza Onaka Shinden, Kuwana 511-0947 Mie Prefecture", "lat": 35.07563, "lng": 136.6096, "ref_id": 9641353, "rating": 4, "num_reviews": 0, "website": null, "contact_phone": "+81 594-33-0011", "contact_email": null, "status": 1, "source_type": 1, "numberReviews": 9}, {"name": "Chinese Food Chuka Saikan Mikoen", "type": "restaurant", "image": "https://dynamic-media-cdn.tripadvisor.com/media/photo-o/0a/0e/38/ea/photo2jpg.jpg?w=1000&s=1", "address": "534-14 Oshitsuke Nagashimacho, Kuwana Mie Prefecture", "lat": 35.099262, "lng": 136.70392, "ref_id": 7430870, "rating": 4.5, "num_reviews": 0, "website": null, "contact_phone": "+81 594-42-0522", "contact_email": null, "status": 1, "source_type": 1, "numberReviews": 3}, {"name": "Yamato Main Store", "type": "restaurant", "image": "https://dynamic-media-cdn.tripadvisor.com/media/photo-o/1a/61/54/ee/caption.jpg?w=1000&s=1", "address": "1966 Hiratacho Sango, Kaizu Gifu Prefecture", "lat": 35.262936, "lng": 136.64626, "ref_id": 7588560, "rating": 3.5, "num_reviews": 0, "website": null, "contact_phone": "+81 584-66-2112", "contact_email": null, "status": 1, "source_type": 1, "numberReviews": 5}, {"name": "Wa Cafe Kagura Hashima", "type": "restaurant", "image": "https://dynamic-media-cdn.tripadvisor.com/media/photo-o/1c/ab/c3/c0/9.jpg?w=1000&s=1", "address": "156-1 Takehanacho, Hashima 501-6233 Gifu Prefecture", "lat": 35.31834, "lng": 136.7116, "ref_id": 23174610, "rating": 5, "num_reviews": 0, "website": "https://www.facebook.com/%E5%92%8C%E3%82%AB%E3%83%95%E3%82%A7%E3%81%8B%E3%81%90%E3%82%89-%E7%BE%BD%E5%B3%B6%E5%BA%97-313593492365452/", "contact_phone": "+81 58-394-2555", "contact_email": null, "status": 1, "source_type": 1, "numberReviews": 1}, {"name": "Korean Cuisine Cheya", "type": "restaurant", "image": "https://dynamic-media-cdn.tripadvisor.com/media/photo-o/08/fd/3a/27/caption.jpg?w=1000&s=1", "address": "2695-4 Oyama Tadocho Floral Avenue, Kuwana 511-0106 Mie Prefecture", "lat": 35.130104, "lng": 136.6309, "ref_id": 3884231, "rating": 5, "num_reviews": 0, "website": "", "contact_phone": "+81 594-49-3755", "contact_email": null, "status": 1, "source_type": 1, "numberReviews": 2}, {"name": "Toribun", "type": "restaurant", "image": null, "address": "8-7-27 Tsutsuo, Kuwana 511-0901 Mie Prefecture", "lat": 35.078697, "lng": 136.64406, "ref_id": 14727656, "rating": -1, "num_reviews": 0, "website": null, "contact_phone": "+81 594-84-6776", "contact_email": null, "status": 1, "source_type": 1, "numberReviews": 0}, {"name": "Sushiro Tsushima", "type": "restaurant", "image": "https://dynamic-media-cdn.tripadvisor.com/media/photo-o/10/ad/41/dc/dsc-0206-largejpg.jpg?w=1000&s=1", "address": "84 Fuke, Baibaracho, Tsushima 496-0011 Qu\u00e2\u0323n Aichi", "lat": 35.16841, "lng": 136.7749, "ref_id": 9907758, "rating": 4.5, "num_reviews": 0, "website": "https://www.akindo-sushiro.co.jp/", "contact_phone": "+81 567-22-2180", "contact_email": null, "status": 1, "source_type": 1, "numberReviews": 2}, {"name": "Mifune", "type": "restaurant", "image": "https://dynamic-media-cdn.tripadvisor.com/media/photo-o/12/d8/37/52/caption.jpg?w=1000&s=1", "address": "4-1 Nishihocho Nishigawara, Aisai Qu\u00e2\u0323n Aichi", "lat": 35.148262, "lng": 136.71036, "ref_id": 7580732, "rating": 4.5, "num_reviews": 0, "website": null, "contact_phone": "+81 567-25-1954", "contact_email": null, "status": 1, "source_type": 1, "numberReviews": 2}, {"name": "Indian Curry Tsurushi Hashima", "type": "restaurant", "image": "https://dynamic-media-cdn.tripadvisor.com/media/photo-o/1c/8d/d1/5a/2.jpg?w=1000&s=1", "address": "168 Funabashicho, Hashima 501-6302 Gifu Prefecture", "lat": 35.311497, "lng": 136.68864, "ref_id": 21118250, "rating": 5, "num_reviews": 0, "website": null, "contact_phone": "+81 58-392-0122", "contact_email": null, "status": 1, "source_type": 1, "numberReviews": 1}, {"name": "Hyotan", "type": "restaurant", "image": "https://dynamic-media-cdn.tripadvisor.com/media/photo-o/1c/8d/cb/9e/3.jpg?w=1000&s=1", "address": "794 Kaminakacho, Hashima 501-6311 Gifu Prefecture", "lat": 35.305, "lng": 136.70367, "ref_id": 23087292, "rating": 5, "num_reviews": 0, "website": "", "contact_phone": "+81 58-392-5668", "contact_email": null, "status": 1, "source_type": 1, "numberReviews": 1}, {"name": "Lotus Roots Restaurant Chikusen", "type": "restaurant", "image": "https://dynamic-media-cdn.tripadvisor.com/media/photo-o/0e/86/df/f3/caption.jpg?w=1000&s=1", "address": "3-17 Takehanacho Marunochi, Hashima 501-6244 Gifu Prefecture", "lat": 35.326645, "lng": 136.69695, "ref_id": 4902085, "rating": 3.5, "num_reviews": 0, "website": null, "contact_phone": "+81 58-393-0228", "contact_email": null, "status": 1, "source_type": 1, "numberReviews": 7}, {"name": "Kushikatsu Taki", "type": "restaurant", "image": "https://dynamic-media-cdn.tripadvisor.com/media/photo-o/0d/45/0b/2c/20161010-131834-largejpg_rotated_90.jpg?w=1000&s=1", "address": "1130 Sango, Hiratacho, Kaizu 503-0312 Gifu Prefecture", "lat": 35.260216, "lng": 136.64499, "ref_id": 9625839, "rating": 4, "num_reviews": 0, "website": null, "contact_phone": "+81 584-66-3235", "contact_email": null, "status": 1, "source_type": 1, "numberReviews": 3}, {"name": "Italian Bar Vivi", "type": "restaurant", "image": "https://dynamic-media-cdn.tripadvisor.com/media/photo-o/0e/0d/11/5b/caption.jpg?w=1000&s=1", "address": "3-11-2 Meieki, Nishi-Ku Sun Town 1F, Nagoya 451-0045 Qu\u00e2\u0323n Aichi", "lat": 35.174683, "lng": 136.88577, "ref_id": 9658222, "rating": 4, "num_reviews": 0, "website": null, "contact_phone": "+81 52-602-9339", "contact_email": null, "status": 1, "source_type": 1, "numberReviews": 4}, {"name": "Genroku Yoshida-ya", "type": "restaurant", "image": "https://dynamic-media-cdn.tripadvisor.com/media/photo-o/04/a0/54/36/genroku-yoshida-ya.jpg?w=1000&s=1", "address": "3517-1 Akashina Nakagawate, Azumino 399-7102 Nagano Prefecture", "lat": 36.352543, "lng": 137.9278, "ref_id": 4903733, "rating": 3, "num_reviews": 0, "website": null, "contact_phone": "+81 263-62-2907", "contact_email": null, "status": 1, "source_type": 1, "numberReviews": 1}, {"name": "Kazoku-Tei Ryumon Ikeda", "type": "restaurant", "image": "https://dynamic-media-cdn.tripadvisor.com/media/photo-o/26/fc/1e/ed/caption.jpg?w=1000&s=1", "address": "6330-5 Oaza Aisome, Ikeda-machi, Kitaazumi-gun 399-8602 Nagano Prefecture", "lat": 36.39647, "lng": 137.88483, "ref_id": 10011868, "rating": 3.5, "num_reviews": 0, "website": null, "contact_phone": "+81 261-62-6388", "contact_email": null, "status": 1, "source_type": 1, "numberReviews": 2}, {"name": "Kaminari Sushi", "type": "restaurant", "image": "https://dynamic-media-cdn.tripadvisor.com/media/photo-o/0f/85/cb/ae/photo0jpg.jpg?w=1000&s=1", "address": "2-27-1 Kamiyamada Onsen, Chikuma Nagano Prefecture", "lat": 36.479996, "lng": 138.1418, "ref_id": 7555610, "rating": 3, "num_reviews": 0, "website": null, "contact_phone": "+81 26-275-1606", "contact_email": null, "status": 1, "source_type": 1, "numberReviews": 1}, {"name": "Kokoro", "type": "restaurant", "image": "https://dynamic-media-cdn.tripadvisor.com/media/photo-o/0d/22/14/d4/caption.jpg?w=1000&s=1", "address": "1-54-4 Kamiyamada Onsen, Chikuma Nagano Prefecture", "lat": 36.48125, "lng": 138.14038, "ref_id": 7555497, "rating": 3, "num_reviews": 0, "website": null, "contact_phone": "+81 26-275-1539", "contact_email": null, "status": 1, "source_type": 1, "numberReviews": 2}, {"name": "Teuchisoba Tagotoan", "type": "restaurant", "image": "https://dynamic-media-cdn.tripadvisor.com/media/photo-o/1b/59/22/55/caption.jpg?w=1000&s=1", "address": "7340 Yawata Yanagida Nagano Expressway Obasute SA Upline, Chikuma 387-0023 Nagano Prefecture", "lat": 36.497536, "lng": 138.09756, "ref_id": 12705377, "rating": 3, "num_reviews": 0, "website": null, "contact_phone": "+81 26-274-2981", "contact_email": null, "status": 1, "source_type": 1, "numberReviews": 1}, {"name": "Gyozaya Yamashiro", "type": "restaurant", "image": null, "address": "846 Nanjo, Sakaki-machi, Hanishina-gun Nagano Prefecture", "lat": 36.43402, "lng": 138.19223, "ref_id": 7476958, "rating": 3, "num_reviews": 0, "website": null, "contact_phone": "+81 268-82-3972", "contact_email": null, "status": 1, "source_type": 1, "numberReviews": 1}, {"name": "Hashimoto-Ya Shokudo", "type": "restaurant", "image": "https://dynamic-media-cdn.tripadvisor.com/media/photo-o/0f/80/a1/a6/caption.jpg?w=1000&s=1", "address": "1721 Besshoonsen, Ueda Nagano Prefecture", "lat": 36.350655, "lng": 138.15587, "ref_id": 7556549, "rating": 3, "num_reviews": 0, "website": null, "contact_phone": "+81 268-38-2051", "contact_email": null, "status": 1, "source_type": 1, "numberReviews": 2}, {"name": "Hanaya", "type": "restaurant", "image": null, "address": "1-60-8 Kamiyamada Onsen, Chikuma Nagano Prefecture", "lat": 36.480167, "lng": 138.14171, "ref_id": 7555603, "rating": 3, "num_reviews": 0, "website": null, "contact_phone": "+81 26-275-1552", "contact_email": null, "status": 1, "source_type": 1, "numberReviews": 1}, {"name": "Shinshu Soba Wakyu", "type": "restaurant", "image": "https://dynamic-media-cdn.tripadvisor.com/media/photo-o/1c/fb/7c/cc/photo0jpg.jpg?w=1000&s=1", "address": "Oaza Inariyama 996-1, Chikuma 387-0021 Nagano Prefecture", "lat": 36.53306, "lng": 138.104, "ref_id": 20165641, "rating": 3, "num_reviews": 0, "website": null, "contact_phone": "+81 26-285-9855", "contact_email": null, "status": 1, "source_type": 1, "numberReviews": 1}, {"name": "Katsura", "type": "restaurant", "image": null, "address": "1704-2 Bessho Onsen, Ueda 386-1431 Nagano Prefecture", "lat": 36.350212, "lng": 138.158, "ref_id": 7189836, "rating": 3, "num_reviews": 0, "website": null, "contact_phone": "+81 268-38-8896", "contact_email": null, "status": 1, "source_type": 1, "numberReviews": 1}, {"name": "Bingushi Yusan-Kan", "type": "restaurant", "image": null, "address": "Oaza Amikake 2002-4, Sakaki-machi, Hanishina-gun 389-0604 Nagano Prefecture", "lat": 36.444664, "lng": 138.16827, "ref_id": 10009706, "rating": 3, "num_reviews": 0, "website": null, "contact_phone": "+81 268-81-7000", "contact_email": null, "status": 1, "source_type": 1, "numberReviews": 1}, {"name": "Monjayaki Teppanyaki Konomi", "type": "restaurant", "image": null, "address": "1-60-7 Kamiyamadaonsen, Chikuma 389-0821 Nagano Prefecture", "lat": 36.480347, "lng": 138.14154, "ref_id": 4901524, "rating": 3, "num_reviews": 0, "website": null, "contact_phone": "+81 26-276-0046", "contact_email": null, "status": 1, "source_type": 1, "numberReviews": 1}, {"name": "Jumangoku", "type": "restaurant", "image": "https://dynamic-media-cdn.tripadvisor.com/media/photo-o/0f/65/0f/ac/photo0jpg.jpg?w=1000&s=1", "address": "204-3 Kamitokuma, Chikuma Nagano Prefecture", "lat": 36.497444, "lng": 138.14847, "ref_id": 7555551, "rating": 2.5, "num_reviews": 0, "website": null, "contact_phone": "+81 26-275-2533", "contact_email": null, "status": 1, "source_type": 1, "numberReviews": 3}, {"name": "Muronoki", "type": "restaurant", "image": null, "address": "3888-1 Omimura O, Nagano 399-7701 Nagano Prefecture", "lat": 36.456097, "lng": 138.04524, "ref_id": 23608591, "rating": 2, "num_reviews": 0, "website": null, "contact_phone": "+81 50-3188-6937", "contact_email": null, "status": 1, "source_type": 1, "numberReviews": 1}, {"name": "Futaba", "type": "restaurant", "image": null, "address": "4144 Ikeda Azumacho, Ikeda-machi, Kitaazumi-gun 399-8601 Nagano Prefecture", "lat": 36.418564, "lng": 137.88065, "ref_id": 10011332, "rating": -1, "num_reviews": 0, "website": null, "contact_phone": "+81 261-62-2174", "contact_email": null, "status": 1, "source_type": 1, "numberReviews": 0}, {"name": "Ganso Genghis Khan So", "type": "restaurant", "image": null, "address": "403-1 Kamijo, Shinshu Shimmachi, Nagano 381-2404 Nagano Prefecture", "lat": 36.572105, "lng": 138.02736, "ref_id": 9627218, "rating": -1, "num_reviews": 0, "website": null, "contact_phone": "+81 26-262-2012", "contact_email": null, "status": 1, "source_type": 1, "numberReviews": 0}, {"name": "Genji", "type": "restaurant", "image": null, "address": "41-1 Shoken, Kamiwadacho, Okazaki 444-0201 Qu\u00e2\u0323n Aichi", "lat": 34.930016, "lng": 137.15381, "ref_id": 9948426, "rating": -1, "num_reviews": 0, "website": null, "contact_phone": "+81 564-51-6858", "contact_email": null, "status": 1, "source_type": 1, "numberReviews": 0}, {"name": "Shibata Udon Main Store", "type": "restaurant", "image": null, "address": "4-204-6 Miyuki Honmachi, Toyota 473-0901 Qu\u00e2\u0323n Aichi", "lat": 35.05169, "lng": 137.14851, "ref_id": 9900671, "rating": -1, "num_reviews": 0, "website": null, "contact_phone": "+81 565-27-3380", "contact_email": null, "status": 1, "source_type": 1, "numberReviews": 0}, {"name": "Shichifukudo", "type": "restaurant", "image": null, "address": "5-46 Miyamacho, Toyota 471-0849 Qu\u00e2\u0323n Aichi", "lat": 35.067284, "lng": 137.11716, "ref_id": 9900718, "rating": -1, "num_reviews": 0, "website": null, "contact_phone": "+81 565-27-4889", "contact_email": null, "status": 1, "source_type": 1, "numberReviews": 0}, {"name": "Sushi Dining Umibozu", "type": "restaurant", "image": null, "address": "3-10-6 Daimon New Maritchi Bldg. 1F, Okazaki 444-2135 Qu\u00e2\u0323n Aichi", "lat": 34.99145, "lng": 137.15353, "ref_id": 9906783, "rating": -1, "num_reviews": 0, "website": null, "contact_phone": "+81 564-28-0235", "contact_email": null, "status": 1, "source_type": 1, "numberReviews": 0}, {"name": "Bentoman Otsubo", "type": "restaurant", "image": null, "address": "2-1810 Otsubo Tempaku-Ku, Nagoya 468-0072 Qu\u00e2\u0323n Aichi", "lat": 35.135395, "lng": 136.98016, "ref_id": 13024023, "rating": -1, "num_reviews": 0, "website": null, "contact_phone": "+81 52-837-0908", "contact_email": null, "status": 1, "source_type": 1, "numberReviews": 0}, {"name": "Chinese Restauranttenko", "type": "restaurant", "image": null, "address": "4-286 Motoyagoto Tempaku-Ku, Nagoya Qu\u00e2\u0323n Aichi", "lat": 35.12722, "lng": 136.9752, "ref_id": 7402604, "rating": -1, "num_reviews": 0, "website": null, "contact_phone": "+81 52-832-6180", "contact_email": null, "status": 1, "source_type": 1, "numberReviews": 0}, {"name": "Murakami", "type": "restaurant", "image": null, "address": "5-57 Yatomodori Mizuho-Ku, Nagoya Qu\u00e2\u0323n Aichi", "lat": 35.11948, "lng": 136.9573, "ref_id": 7642053, "rating": -1, "num_reviews": 0, "website": null, "contact_phone": "+81 52-832-1931", "contact_email": null, "status": 1, "source_type": 1, "numberReviews": 0}, {"name": "Tsukasazushi", "type": "restaurant", "image": null, "address": "76-2 Takatsuka Kitanocho, Okazaki Qu\u00e2\u0323n Aichi", "lat": 34.99382, "lng": 137.14041, "ref_id": 7578352, "rating": -1, "num_reviews": 0, "website": null, "contact_phone": "+81 564-32-1294", "contact_email": null, "status": 1, "source_type": 1, "numberReviews": 0}, {"name": "Hangane", "type": "restaurant", "image": "https://dynamic-media-cdn.tripadvisor.com/media/photo-o/18/6d/e4/ad/photo0jpg.jpg?w=1000&s=1", "address": "2-402 Tochi, Minato-Ku, Nagoya Qu\u00e2\u0323n Aichi", "lat": 35.10856, "lng": 136.85109, "ref_id": 7404495, "rating": 5, "num_reviews": 0, "website": null, "contact_phone": "+81 52-383-9281", "contact_email": null, "status": 1, "source_type": 1, "numberReviews": 1}, {"name": "Koto-Kotoya Nagoya Chaya", "type": "restaurant", "image": null, "address": "2-11 Nishi Chaya, Minato-Ku Aeon Mall Nagoya Chaya 3F, Nagoya 455-0858 Qu\u00e2\u0323n Aichi", "lat": 35.10346, "lng": 136.82497, "ref_id": 10646178, "rating": 3.5, "num_reviews": 0, "website": null, "contact_phone": "+81 52-303-7072", "contact_email": null, "status": 1, "source_type": 1, "numberReviews": 4}, {"name": "Moomin Papa", "type": "restaurant", "image": null, "address": "15-2 Chuo, Komagane Nagano Prefecture", "lat": 35.736298, "lng": 137.93483, "ref_id": 7554780, "rating": 4, "num_reviews": 0, "website": null, "contact_phone": "+81 265-83-8400", "contact_email": null, "status": 1, "source_type": 1, "numberReviews": 2}, {"name": "A Cylinder Soldiers But Confectionery", "type": "restaurant", "image": "https://dynamic-media-cdn.tripadvisor.com/media/photo-o/12/dc/73/d6/caption.jpg?w=1000&s=1", "address": "9-14 Akazumachi, Komagane 399-4113 Nagano Prefecture", "lat": 35.7318, "lng": 137.93393, "ref_id": 13060470, "rating": 5, "num_reviews": 0, "website": null, "contact_phone": "+81 265-83-2552", "contact_email": null, "status": 1, "source_type": 1, "numberReviews": 1}, {"name": "Restaurant Kosumo", "type": "restaurant", "image": null, "address": "26-19 Chuo, Komagane 399-4112 Nagano Prefecture", "lat": 35.734344, "lng": 137.93509, "ref_id": 4907075, "rating": 5, "num_reviews": 0, "website": null, "contact_phone": "+81 265-82-6240", "contact_email": null, "status": 1, "source_type": 1, "numberReviews": 1}, {"name": "Ogiya Ramen", "type": "restaurant", "image": "https://dynamic-media-cdn.tripadvisor.com/media/photo-o/12/5e/fd/ff/photo0jpg.jpg?w=1000&s=1", "address": "3-21 Minamida, Komagane Nagano Prefecture", "lat": 35.729965, "lng": 137.93947, "ref_id": 7554745, "rating": 4, "num_reviews": 0, "website": null, "contact_phone": "+81 265-82-2215", "contact_email": null, "status": 1, "source_type": 1, "numberReviews": 2}, {"name": "Kinoya", "type": "restaurant", "image": "https://dynamic-media-cdn.tripadvisor.com/media/photo-o/12/b1/f3/b8/photo0jpg.jpg?w=1000&s=1", "address": "19-5 Uwabosakaecho, Komagane Nagano Prefecture", "lat": 35.736534, "lng": 137.9314, "ref_id": 7554799, "rating": 3.5, "num_reviews": 0, "website": null, "contact_phone": "+81 265-82-2913", "contact_email": null, "status": 1, "source_type": 1, "numberReviews": 3}, {"name": "Ajidokoro Shiratori", "type": "restaurant", "image": null, "address": "48-3 Katasaka Homicho, Toyota Qu\u00e2\u0323n Aichi", "lat": 35.13632, "lng": 137.13246, "ref_id": 7584621, "rating": 5, "num_reviews": 0, "website": null, "contact_phone": "+81 565-48-0443", "contact_email": null, "status": 1, "source_type": 1, "numberReviews": 1}, {"name": "Miso Ramen Katabutsu", "type": "restaurant", "image": "https://dynamic-media-cdn.tripadvisor.com/media/photo-o/1d/3f/ce/98/caption.jpg?w=1000&s=1", "address": "324 Minami Harayamacho Akatsuchi Keiz Owari Asahi, Owariasahi 488-0066 Qu\u00e2\u0323n Aichi", "lat": 35.215847, "lng": 137.0499, "ref_id": 18378751, "rating": 4, "num_reviews": 0, "website": "http://menzakatabutz.blog.fc2.com/", "contact_phone": "+81 561-52-7770", "contact_email": null, "status": 1, "source_type": 1, "numberReviews": 1}, {"name": "Sasazushi", "type": "restaurant", "image": null, "address": "Takamicho 26, Gifu 500-8821 Gifu Prefecture", "lat": 35.42326, "lng": 136.75934, "ref_id": 10657856, "rating": -1, "num_reviews": 0, "website": null, "contact_phone": "+81 58-263-8377", "contact_email": null, "status": 1, "source_type": 1, "numberReviews": 0}, {"name": "Com Uzura", "type": "restaurant", "image": null, "address": "5-28-2 Nakauzura, Gifu Gifu Prefecture", "lat": 35.381058, "lng": 136.73141, "ref_id": 7406060, "rating": -1, "num_reviews": 0, "website": null, "contact_phone": "+81 58-214-7777", "contact_email": null, "status": 1, "source_type": 1, "numberReviews": 0}, {"name": "Bakery Leman Ichihashi", "type": "restaurant", "image": null, "address": "2-4-3 Ichihashi, Gifu 500-8381 Gifu Prefecture", "lat": 35.399128, "lng": 136.72836, "ref_id": 13032733, "rating": -1, "num_reviews": 0, "website": null, "contact_phone": "+81 58-274-0074", "contact_email": null, "status": 1, "source_type": 1, "numberReviews": 0}, {"name": "Ichiriki", "type": "restaurant", "image": null, "address": "1-105 Kuruwamachi, Ogaki Gifu Prefecture", "lat": 35.36251, "lng": 136.61626, "ref_id": 7579082, "rating": -1, "num_reviews": 0, "website": null, "contact_phone": "+81 584-81-1338", "contact_email": null, "status": 1, "source_type": 1, "numberReviews": 0}, {"name": "Appare (Appare)", "type": "restaurant", "image": null, "address": "2240-1 Kamimakuwa, Motosu Gifu Prefecture", "lat": 35.44426, "lng": 136.67245, "ref_id": 7563747, "rating": -1, "num_reviews": 0, "website": null, "contact_phone": "+81 58-323-1920", "contact_email": null, "status": 1, "source_type": 1, "numberReviews": 0}, {"name": "Futaba", "type": "restaurant", "image": null, "address": "1-10 Takasagocho, Ogaki Gifu Prefecture", "lat": 35.363636, "lng": 136.61588, "ref_id": 7579104, "rating": -1, "num_reviews": 0, "website": null, "contact_phone": "+81 584-78-3451", "contact_email": null, "status": 1, "source_type": 1, "numberReviews": 0}, {"name": "Hatsu-Zushi Kitagata Branch Store", "type": "restaurant", "image": null, "address": "2199-1 Kami Makuwa, Motosu 501-0461 Gifu Prefecture", "lat": 35.43511, "lng": 136.67827, "ref_id": 9625781, "rating": -1, "num_reviews": 0, "website": null, "contact_phone": "+81 58-324-4761", "contact_email": null, "status": 1, "source_type": 1, "numberReviews": 0}, {"name": "Reborn", "type": "restaurant", "image": null, "address": "3-3-1 Ryutsu Center, Yanaizucho, Gifu 501-6123 Gifu Prefecture", "lat": 35.378517, "lng": 136.73077, "ref_id": 10653009, "rating": -1, "num_reviews": 0, "website": null, "contact_phone": "+81 58-279-2427", "contact_email": null, "status": 1, "source_type": 1, "numberReviews": 0}, {"name": "Teppan-Yaki Hajimeya Higashiuzura", "type": "restaurant", "image": null, "address": "Higashiuzura 3-42-1 Megumi Heights 1F, Gifu 500-8281 Gifu Prefecture", "lat": 35.38341, "lng": 136.73708, "ref_id": 9669994, "rating": -1, "num_reviews": 0, "website": null, "contact_phone": "+81 58-215-7567", "contact_email": null, "status": 1, "source_type": 1, "numberReviews": 0}, {"name": "Hanedatoshiharu", "type": "restaurant", "image": null, "address": "20-3 Hisaya-Cho, Gifu 500-8025 Gifu Prefecture", "lat": 35.433224, "lng": 136.768, "ref_id": 13033007, "rating": -1, "num_reviews": 0, "website": null, "contact_phone": "+81 58-262-8565", "contact_email": null, "status": 1, "source_type": 1, "numberReviews": 0}, {"name": "Umezen", "type": "restaurant", "image": null, "address": "1615-2-2-2 Rokunoi, Ikeda-cho, Ibi-gun Gifu Prefecture", "lat": 35.437927, "lng": 136.57231, "ref_id": 7477403, "rating": -1, "num_reviews": 0, "website": null, "contact_phone": "+81 585-45-2003", "contact_email": null, "status": 1, "source_type": 1, "numberReviews": 0}, {"name": "Goshi Gokou", "type": "restaurant", "image": null, "address": "2-1-22 Habashita, Nishi-Ku Habashita Kojiobashi Bldg 2F, Nagoya 451-0041 Qu\u00e2\u0323n Aichi", "lat": 35.179375, "lng": 136.8937, "ref_id": 9949313, "rating": -1, "num_reviews": 0, "website": null, "contact_phone": "+81 52-562-5455", "contact_email": null, "status": 1, "source_type": 1, "numberReviews": 0}, {"name": "To U Gifu Ekimae", "type": "restaurant", "image": null, "address": "4-7 Nagasumicho Gifu Yokocho Building 1F, Gifu 500-8175 Gifu Prefecture", "lat": 35.41233, "lng": 136.75757, "ref_id": 17842060, "rating": -1, "num_reviews": 0, "website": null, "contact_phone": "+81 90-1830-2790", "contact_email": null, "status": 1, "source_type": 1, "numberReviews": 0}, {"name": "Taishu Izakaya Kabura", "type": "restaurant", "image": null, "address": "4-3 Hinodecho, Gifu 500-8876 Gifu Prefecture", "lat": 35.419178, "lng": 136.75575, "ref_id": 9686635, "rating": -1, "num_reviews": 0, "website": null, "contact_phone": "+81 58-263-7126", "contact_email": null, "status": 1, "source_type": 1, "numberReviews": 0}, {"name": "Hidamari", "type": "restaurant", "image": null, "address": "2-26-18 Suehiro, Ichinomiya 491-0918 Qu\u00e2\u0323n Aichi", "lat": 35.293324, "lng": 136.78664, "ref_id": 9952273, "rating": -1, "num_reviews": 0, "website": null, "contact_phone": "+81 586-43-6755", "contact_email": null, "status": 1, "source_type": 1, "numberReviews": 0}, {"name": "Ramen Koju", "type": "restaurant", "image": null, "address": "1-6-3 Kitazonodori, Ichinomiya 491-0854 Qu\u00e2\u0323n Aichi", "lat": 35.2966, "lng": 136.80058, "ref_id": 17357916, "rating": -1, "num_reviews": 0, "website": null, "contact_phone": "+81 586-24-1390", "contact_email": null, "status": 1, "source_type": 1, "numberReviews": 0}, {"name": "Monte Yamazaki Chusetsuten", "type": "restaurant", "image": null, "address": "1-48 Shinsakaecho, Gifu 502-0904 Gifu Prefecture", "lat": 35.43389, "lng": 136.74803, "ref_id": 13033407, "rating": -1, "num_reviews": 0, "website": null, "contact_phone": "+81 58-231-7898", "contact_email": null, "status": 1, "source_type": 1, "numberReviews": 0}, {"name": "Cucina Italiana Via Del Bosco", "type": "restaurant", "image": null, "address": "3-11-22 Shimizu Kita-Ku, Nagoya Qu\u00e2\u0323n Aichi", "lat": 35.18981, "lng": 136.9114, "ref_id": 7400297, "rating": -1, "num_reviews": 0, "website": null, "contact_phone": "+81 52-913-5188", "contact_email": null, "status": 1, "source_type": 1, "numberReviews": 0}, {"name": "Shibakei Shop", "type": "restaurant", "image": null, "address": "38 Hagiwaracho Hagiwara, Ichinomiya 491-0353 Qu\u00e2\u0323n Aichi", "lat": 35.280216, "lng": 136.75294, "ref_id": 13026662, "rating": -1, "num_reviews": 0, "website": null, "contact_phone": "+81 586-68-0560", "contact_email": null, "status": 1, "source_type": 1, "numberReviews": 0}, {"name": "Marudori Bunbun Chicken", "type": "restaurant", "image": null, "address": "9-18 Kandacho, Gifu 500-8833 Gifu Prefecture", "lat": 35.41158, "lng": 136.75888, "ref_id": 9658515, "rating": -1, "num_reviews": 0, "website": null, "contact_phone": "+81 58-265-0234", "contact_email": null, "status": 1, "source_type": 1, "numberReviews": 0}, {"name": "Chateraise Factory Direct Sales Shop Bisai", "type": "restaurant", "image": null, "address": "92-1 Konobunakashima Gonaka, Ichinomiya 494-0007 Qu\u00e2\u0323n Aichi", "lat": 35.3096, "lng": 136.7475, "ref_id": 13024267, "rating": -1, "num_reviews": 0, "website": null, "contact_phone": "+81 586-61-6510", "contact_email": null, "status": 1, "source_type": 1, "numberReviews": 0}, {"name": "Yakitori Liberty", "type": "restaurant", "image": null, "address": "1-2-21 Kagoya, Ichinomiya 494-0002 Qu\u00e2\u0323n Aichi", "lat": 35.31058, "lng": 136.76659, "ref_id": 13147109, "rating": -1, "num_reviews": 0, "website": null, "contact_phone": "+81 586-46-5550", "contact_email": null, "status": 1, "source_type": 1, "numberReviews": 0}, {"name": "Arian Qoo", "type": "restaurant", "image": null, "address": "4-143 Kodo, Gifu Gifu Prefecture", "lat": 35.412663, "lng": 136.69731, "ref_id": 7405981, "rating": -1, "num_reviews": 0, "website": null, "contact_phone": "+81 58-255-3233", "contact_email": null, "status": 1, "source_type": 1, "numberReviews": 0}, {"name": "Ryuen", "type": "restaurant", "image": null, "address": "1-199 Hira Nishi-ku, Nagoya 452-0802 Qu\u00e2\u0323n Aichi", "lat": 35.224396, "lng": 136.89967, "ref_id": 7657981, "rating": -1, "num_reviews": 0, "website": null, "contact_phone": "+81 52-503-8776", "contact_email": null, "status": 1, "source_type": 1, "numberReviews": 0}, {"name": "B-Frites", "type": "restaurant", "image": null, "address": "1-20 Sumpucho, Aoi-Ku Shin Sumpu Bldg. 1F, Shizuoka 420-0856 Shizuoka Prefecture", "lat": 34.978424, "lng": 138.38622, "ref_id": 9659093, "rating": -1, "num_reviews": 0, "website": null, "contact_phone": "+81 54-254-3677", "contact_email": null, "status": 1, "source_type": 1, "numberReviews": 0}, {"name": "Chikurin", "type": "restaurant", "image": null, "address": "6-9-1 Toro Suruga-Ku, Shizuoka Shizuoka Prefecture", "lat": 34.953236, "lng": 138.40326, "ref_id": 7410640, "rating": -1, "num_reviews": 0, "website": null, "contact_phone": "+81 54-281-5414", "contact_email": null, "status": 1, "source_type": 1, "numberReviews": 0}, {"name": "Kiiro", "type": "restaurant", "image": null, "address": "2-3-2 Takajo, Aoi-Ku, Shizuoka 420-0839 Shizuoka Prefecture", "lat": 34.972878, "lng": 138.38318, "ref_id": 10659429, "rating": -1, "num_reviews": 0, "website": null, "contact_phone": "+81 54-254-0453", "contact_email": null, "status": 1, "source_type": 1, "numberReviews": 0}, {"name": "Seioken Shimono", "type": "restaurant", "image": null, "address": "9-13 Shimonocho Shimizu-Ku, Shizuoka Shizuoka Prefecture", "lat": 35.034447, "lng": 138.46515, "ref_id": 7410648, "rating": -1, "num_reviews": 0, "website": null, "contact_phone": "+81 54-364-4455", "contact_email": null, "status": 1, "source_type": 1, "numberReviews": 0}, {"name": "Henoheno Moheji", "type": "restaurant", "image": null, "address": "8-3 Ojimacho Shimizu-Ku, Shizuoka Shizuoka Prefecture", "lat": 35.07984, "lng": 138.51668, "ref_id": 7410118, "rating": -1, "num_reviews": 0, "website": null, "contact_phone": "+81 54-393-2666", "contact_email": null, "status": 1, "source_type": 1, "numberReviews": 0}, {"name": "Npo Takarajima Cafe Hidamari", "type": "restaurant", "image": null, "address": "1-1 Miyashirocho Hatopia in Shimizu, Shizuoka 424-0807 Shizuoka Prefecture", "lat": 35.024025, "lng": 138.48384, "ref_id": 14758199, "rating": -1, "num_reviews": 0, "website": null, "contact_phone": "+81 54-367-7175", "contact_email": null, "status": 1, "source_type": 1, "numberReviews": 0}, {"name": "Menya Maruhachi", "type": "restaurant", "image": null, "address": "2-16-35 Toshinden, Suruga-Ku Chatelet Higashishinden, Shizuoka 421-0112 Shizuoka Prefecture", "lat": 34.94561, "lng": 138.37416, "ref_id": 9670551, "rating": -1, "num_reviews": 0, "website": null, "contact_phone": "+81 54-257-6076", "contact_email": null, "status": 1, "source_type": 1, "numberReviews": 0}, {"name": "Nihommaru", "type": "restaurant", "image": null, "address": "3-22-6 Takajo Aoi-Ku, Shizuoka Shizuoka Prefecture", "lat": 34.978302, "lng": 138.39062, "ref_id": 7410487, "rating": -1, "num_reviews": 0, "website": null, "contact_phone": "+81 54-271-7123", "contact_email": null, "status": 1, "source_type": 1, "numberReviews": 0}, {"name": "Kawakyu", "type": "restaurant", "image": null, "address": "1675 Oshikiri, Shimizu-ku, Shizuoka 424-0008 Shizuoka Prefecture", "lat": 35.035397, "lng": 138.4577, "ref_id": 1671753, "rating": -1, "num_reviews": 0, "website": "", "contact_phone": "+81 54-347-6345", "contact_email": "", "status": 1, "source_type": 1, "numberReviews": 0}, {"name": "Sun Mario", "type": "restaurant", "image": null, "address": "2-14-26 Toro Suruga-Ku, Shizuoka Shizuoka Prefecture", "lat": 34.95693, "lng": 138.41364, "ref_id": 7409921, "rating": -1, "num_reviews": 0, "website": null, "contact_phone": "+81 54-654-3060", "contact_email": null, "status": 1, "source_type": 1, "numberReviews": 0}, {"name": "Bonnie & Clyde", "type": "restaurant", "image": null, "address": "2-5-8 Ryogaecho, Aoi-ku, Shizuoka 420-0032 Shizuoka Prefecture", "lat": 34.973335, "lng": 138.3838, "ref_id": 20992891, "rating": -1, "num_reviews": 0, "website": null, "contact_phone": "+81 54-292-7537", "contact_email": null, "status": 1, "source_type": 1, "numberReviews": 0}, {"name": "Furin", "type": "restaurant", "image": "https://dynamic-media-cdn.tripadvisor.com/media/photo-o/04/a0/04/49/furin.jpg?w=1000&s=1", "address": "1-4-7 Ekikita, Yaizu 425-0028 Shizuoka Prefecture", "lat": 34.87407, "lng": 138.31825, "ref_id": 4906895, "rating": -1, "num_reviews": 0, "website": null, "contact_phone": "+81 54-627-7517", "contact_email": null, "status": 1, "source_type": 1, "numberReviews": 0}, {"name": "Noble", "type": "restaurant", "image": null, "address": "5-25 Masagocho Shimizu-Ku, Shizuoka Shizuoka Prefecture", "lat": 35.021885, "lng": 138.48798, "ref_id": 7410054, "rating": -1, "num_reviews": 0, "website": null, "contact_phone": "+81 54-366-4576", "contact_email": null, "status": 1, "source_type": 1, "numberReviews": 0}, {"name": "Wa Ha Ha", "type": "restaurant", "image": null, "address": "403-2 Kusunokishinden Shimizu-Ku, Shizuoka Shizuoka Prefecture", "lat": 35.007183, "lng": 138.44185, "ref_id": 7410234, "rating": -1, "num_reviews": 0, "website": null, "contact_phone": "+81 54-345-4160", "contact_email": null, "status": 1, "source_type": 1, "numberReviews": 0}, {"name": "Boule", "type": "restaurant", "image": null, "address": "22-8 Kusanagi Ichiriyama Shimizu-Ku, Shizuoka Shizuoka Prefecture", "lat": 35.00531, "lng": 138.4497, "ref_id": 7410106, "rating": -1, "num_reviews": 0, "website": null, "contact_phone": "+81 54-348-7770", "contact_email": null, "status": 1, "source_type": 1, "numberReviews": 0}, {"name": "Maguro Dining Haguruma", "type": "restaurant", "image": "https://dynamic-media-cdn.tripadvisor.com/media/photo-o/22/4f/29/22/caption.jpg?w=1000&s=1", "address": "1330-2 Miho Shimizu-ku, Shizuoka 424-0901 Shizuoka Prefecture", "lat": 34.997818, "lng": 138.52179, "ref_id": 23912546, "rating": -1, "num_reviews": 0, "website": null, "contact_phone": "+81 54-388-9505", "contact_email": null, "status": 1, "source_type": 1, "numberReviews": 0}, {"name": "Repos", "type": "restaurant", "image": null, "address": "83-5 Nakano Shinden Suruga-Ku, Shizuoka Shizuoka Prefecture", "lat": 34.95456, "lng": 138.38336, "ref_id": 7409724, "rating": -1, "num_reviews": 0, "website": null, "contact_phone": "+81 54-282-2332", "contact_email": null, "status": 1, "source_type": 1, "numberReviews": 0}, {"name": "Kawaguchi Seiniku", "type": "restaurant", "image": null, "address": "2-1-24 Yoichi, Aoi-Ku, Shizuoka 420-0949 Shizuoka Prefecture", "lat": 35.006496, "lng": 138.3683, "ref_id": 9932712, "rating": -1, "num_reviews": 0, "website": null, "contact_phone": "+81 54-272-1098", "contact_email": null, "status": 1, "source_type": 1, "numberReviews": 0}, {"name": "Otsuka Milk", "type": "restaurant", "image": null, "address": "4-17 Aoi-Ku, Tenno-Cho, Shizuoka 420-0045 Shizuoka Prefecture", "lat": 34.96705, "lng": 138.38043, "ref_id": 13268531, "rating": -1, "num_reviews": 0, "website": null, "contact_phone": "+81 54-252-3370", "contact_email": null, "status": 1, "source_type": 1, "numberReviews": 0}, {"name": "Actor", "type": "restaurant", "image": null, "address": "1-5-5 Tokiwacho Aoi-Ku, Shizuoka Shizuoka Prefecture", "lat": 34.97206, "lng": 138.38274, "ref_id": 7409753, "rating": -1, "num_reviews": 0, "website": null, "contact_phone": "+81 54-254-5434", "contact_email": null, "status": 1, "source_type": 1, "numberReviews": 0}, {"name": "Nostal", "type": "restaurant", "image": null, "address": "3-14-15 Shibukawa, Shimizu-Ku, Shizuoka 424-0053 Shizuoka Prefecture", "lat": 35.0197, "lng": 138.46553, "ref_id": 9659034, "rating": -1, "num_reviews": 0, "website": null, "contact_phone": "+81 54-357-5484", "contact_email": null, "status": 1, "source_type": 1, "numberReviews": 0}, {"name": "Yabufuji", "type": "restaurant", "image": null, "address": "3-12-36 Magarikane Suruga-Ku, Shizuoka Shizuoka Prefecture", "lat": 34.972847, "lng": 138.41023, "ref_id": 7410180, "rating": -1, "num_reviews": 0, "website": null, "contact_phone": "+81 54-282-7687", "contact_email": null, "status": 1, "source_type": 1, "numberReviews": 0}, {"name": "Lemon", "type": "restaurant", "image": null, "address": "3-2-21 Tsuji Shimizu-Ku, Shizuoka Shizuoka Prefecture", "lat": 35.029995, "lng": 138.48807, "ref_id": 7410229, "rating": -1, "num_reviews": 0, "website": null, "contact_phone": "+81 54-364-5775", "contact_email": null, "status": 1, "source_type": 1, "numberReviews": 0}, {"name": "Taneyo", "type": "restaurant", "image": null, "address": "2-11-4 Tokiwacho, Aoi-Ku, Shizuoka 420-0034 Shizuoka Prefecture", "lat": 34.96983, "lng": 138.38254, "ref_id": 9635173, "rating": -1, "num_reviews": 0, "website": null, "contact_phone": "+81 54-255-2026", "contact_email": null, "status": 1, "source_type": 1, "numberReviews": 0}, {"name": "Ohana", "type": "restaurant", "image": null, "address": "3-10-13 Ejiri Higashi Shimizu-Ku, Shizuoka Shizuoka Prefecture", "lat": 35.019447, "lng": 138.48701, "ref_id": 7410392, "rating": -1, "num_reviews": 0, "website": null, "contact_phone": "+81 54-367-0087", "contact_email": null, "status": 1, "source_type": 1, "numberReviews": 0}, {"name": "Sohryuu", "type": "restaurant", "image": null, "address": "2-3-22 Ryogaecho, Aoi-Ku Play Town Bldg, Shizuoka 420-0032 Shizuoka Prefecture", "lat": 34.973026, "lng": 138.38301, "ref_id": 9686162, "rating": -1, "num_reviews": 0, "website": null, "contact_phone": "+81 54-255-3306", "contact_email": null, "status": 1, "source_type": 1, "numberReviews": 0}, {"name": "Furai", "type": "restaurant", "image": null, "address": "1-4-6 Sakuracho, Aoi-Ku, Shizuoka 420-0945 Shizuoka Prefecture", "lat": 34.993004, "lng": 138.36166, "ref_id": 9670523, "rating": -1, "num_reviews": 0, "website": null, "contact_phone": "+81 54-273-1580", "contact_email": null, "status": 1, "source_type": 1, "numberReviews": 0}, {"name": "Odo", "type": "restaurant", "image": null, "address": "5-5-2 Komagatadori, Aoi-Ku, Shizuoka 420-0042 Shizuoka Prefecture", "lat": 34.96508, "lng": 138.37503, "ref_id": 13257800, "rating": -1, "num_reviews": 0, "website": null, "contact_phone": "+81 54-253-0762", "contact_email": null, "status": 1, "source_type": 1, "numberReviews": 0}, {"name": "Cafe Coconut", "type": "restaurant", "image": null, "address": "609-2 Yagimacho, Shimizu-Ku, Shizuoka 424-0212 Shizuoka Prefecture", "lat": 35.069664, "lng": 138.52151, "ref_id": 9647009, "rating": -1, "num_reviews": 0, "website": null, "contact_phone": "+81 54-369-2733", "contact_email": null, "status": 1, "source_type": 1, "numberReviews": 0}, {"name": "Yasuke-Sushi", "type": "restaurant", "image": null, "address": "2-6-34 Takamatsu, Suruga-Ku, Shizuoka 422-8034 Shizuoka Prefecture", "lat": 34.95234, "lng": 138.42198, "ref_id": 9895225, "rating": -1, "num_reviews": 0, "website": null, "contact_phone": "+81 54-237-1693", "contact_email": null, "status": 1, "source_type": 1, "numberReviews": 0}, {"name": "Nakamura", "type": "restaurant", "image": "https://dynamic-media-cdn.tripadvisor.com/media/photo-o/09/4d/dc/74/caption.jpg?w=1000&s=1", "address": "3-22-2 Hirokutecho, Toyota Qu\u00e2\u0323n Aichi", "lat": 35.084896, "lng": 137.13028, "ref_id": 7584748, "rating": 4, "num_reviews": 0, "website": null, "contact_phone": "+81 565-32-2825", "contact_email": null, "status": 1, "source_type": 1, "numberReviews": 4}, {"name": "Japanese Restaurant Suzunoren Seto", "type": "restaurant", "image": "https://dynamic-media-cdn.tripadvisor.com/media/photo-o/1c/f0/32/f7/caption.jpg?w=1000&s=1", "address": "3-6 Kyoeidori, Seto 489-0809 Qu\u00e2\u0323n Aichi", "lat": 35.221306, "lng": 137.0796, "ref_id": 6166722, "rating": 3.5, "num_reviews": 0, "website": null, "contact_phone": "+81 561-88-2333", "contact_email": null, "status": 1, "source_type": 1, "numberReviews": 7}, {"name": "Hareharetoyota Ekimae Main Store", "type": "restaurant", "image": "https://dynamic-media-cdn.tripadvisor.com/media/photo-o/09/7d/2c/69/20151111-185326-largejpg.jpg?w=1000&s=1", "address": "1-24-2 Wakamiyacho, Toyota Qu\u00e2\u0323n Aichi", "lat": 35.087704, "lng": 137.156, "ref_id": 7584682, "rating": 3.5, "num_reviews": 0, "website": "http://www.hare-bare.net/hare-bare/", "contact_phone": "+81 565-35-1150", "contact_email": null, "status": 1, "source_type": 1, "numberReviews": 6}, {"name": "Uotei", "type": "restaurant", "image": null, "address": "4-214-4 Kirigaoka, Handa Qu\u00e2\u0323n Aichi", "lat": 34.890244, "lng": 136.91528, "ref_id": 7581621, "rating": -1, "num_reviews": 0, "website": null, "contact_phone": "+81 569-26-6500", "contact_email": null, "status": 1, "source_type": 1, "numberReviews": 0}, {"name": "Taiwanese Restaurant Taipeien", "type": "restaurant", "image": null, "address": "9-1 Aza Maruyamada, Wakamatsucho, Okazaki 444-0826 Qu\u00e2\u0323n Aichi", "lat": 34.913616, "lng": 137.16162, "ref_id": 9908955, "rating": -1, "num_reviews": 0, "website": null, "contact_phone": "+81 564-53-0806", "contact_email": null, "status": 1, "source_type": 1, "numberReviews": 0}, {"name": "Shinkaen", "type": "restaurant", "image": null, "address": "66-5 Akaba Hamada, Isshikicho, Nishio 444-0427 Qu\u00e2\u0323n Aichi", "lat": 34.81976, "lng": 137.01797, "ref_id": 9901416, "rating": -1, "num_reviews": 0, "website": null, "contact_phone": "+81 563-72-1717", "contact_email": null, "status": 1, "source_type": 1, "numberReviews": 0}, {"name": "Koto", "type": "restaurant", "image": null, "address": "10-1 Matsuyama, Kobaricho, Okazaki 444-0907 Qu\u00e2\u0323n Aichi", "lat": 34.98513, "lng": 137.13045, "ref_id": 9686393, "rating": -1, "num_reviews": 0, "website": null, "contact_phone": "+81 564-31-5191", "contact_email": null, "status": 1, "source_type": 1, "numberReviews": 0}, {"name": "Domburi", "type": "restaurant", "image": null, "address": "3-5-31 Sumiyoshicho, Anjo Qu\u00e2\u0323n Aichi", "lat": 34.97987, "lng": 137.08286, "ref_id": 7580847, "rating": -1, "num_reviews": 0, "website": null, "contact_phone": "+81 566-98-5085", "contact_email": null, "status": 1, "source_type": 1, "numberReviews": 0}, {"name": "Oven-Tei Kuwana", "type": "restaurant", "image": "https://dynamic-media-cdn.tripadvisor.com/media/photo-o/1b/6d/e1/df/img-20200619-181420-largejpg.jpg?w=1000&s=1", "address": "3-21 Chuocho Apita Kuwana 2F, Kuwana 511-0068 Mie Prefecture", "lat": 35.064198, "lng": 136.68768, "ref_id": 9653332, "rating": 3.5, "num_reviews": 0, "website": null, "contact_phone": "+81 594-21-1885", "contact_email": null, "status": 1, "source_type": 1, "numberReviews": 11}, {"name": "Binchoogiya Fuso", "type": "restaurant", "image": "https://dynamic-media-cdn.tripadvisor.com/media/photo-o/0a/58/63/04/caption.jpg?w=1000&s=1", "address": "443 Takagi Hakusammae, Fuso-cho, Niwa-gun Qu\u00e2\u0323n Aichi", "lat": 35.35675, "lng": 136.90909, "ref_id": 7478193, "rating": 3, "num_reviews": 0, "website": null, "contact_phone": "+81 587-92-1147", "contact_email": null, "status": 1, "source_type": 1, "numberReviews": 1}, {"name": "V2&M", "type": "restaurant", "image": "https://dynamic-media-cdn.tripadvisor.com/media/photo-o/17/aa/f8/b9/caption.jpg?w=1000&s=1", "address": "3-8 Nakakayabacho, Kakamigahara 504-0943 Gifu Prefecture", "lat": 35.391777, "lng": 136.82442, "ref_id": 9890768, "rating": 3, "num_reviews": 0, "website": null, "contact_phone": "+81 58-372-2110", "contact_email": null, "status": 1, "source_type": 1, "numberReviews": 1}, {"name": "Komeda Coffee Tokadai", "type": "restaurant", "image": "https://dynamic-media-cdn.tripadvisor.com/media/photo-o/11/41/d2/74/caption.jpg?w=1000&s=1", "address": "2-189-5 Takane, Komaki 485-0803 Qu\u00e2\u0323n Aichi", "lat": 35.293552, "lng": 136.97736, "ref_id": 9936047, "rating": 3, "num_reviews": 0, "website": null, "contact_phone": "+81 568-78-5571", "contact_email": null, "status": 1, "source_type": 1, "numberReviews": 3}, {"name": "Heiwazushi", "type": "restaurant", "image": "https://dynamic-media-cdn.tripadvisor.com/media/photo-o/0d/d3/76/0a/photo5jpg.jpg?w=1000&s=1", "address": "800 Yada, Kuwana Mie Prefecture", "lat": 35.059826, "lng": 136.6784, "ref_id": 7430918, "rating": 4, "num_reviews": 0, "website": null, "contact_phone": "+81 594-22-0989", "contact_email": null, "status": 1, "source_type": 1, "numberReviews": 4}, {"name": "Hana", "type": "restaurant", "image": null, "address": "74-2 Sanno Tori, Kuroda, Kisogawacho, Ichinomiya 493-0001 Qu\u00e2\u0323n Aichi", "lat": 35.340244, "lng": 136.78148, "ref_id": 9950811, "rating": -1, "num_reviews": 0, "website": null, "contact_phone": "+81 586-86-8197", "contact_email": null, "status": 1, "source_type": 1, "numberReviews": 0}, {"name": "Shinjuku Saboten NEOPASA Shizuoka Inbound", "type": "restaurant", "image": "https://dynamic-media-cdn.tripadvisor.com/media/photo-o/19/86/6f/25/photo0jpg.jpg?w=1000&s=1", "address": "1544-3 Kozeto, Aoi-ku NEOPASA Shizuoka inbound, Shizuoka 421-1225 Shizuoka Prefecture", "lat": 34.979378, "lng": 138.29214, "ref_id": 14996788, "rating": 3.5, "num_reviews": 0, "website": "http://shinjuku-saboten.com/", "contact_phone": "+81 54-295-9106", "contact_email": null, "status": 1, "source_type": 1, "numberReviews": 4}, {"name": "Country Oven", "type": "restaurant", "image": "https://dynamic-media-cdn.tripadvisor.com/media/photo-o/19/c5/94/b0/photo0jpg.jpg?w=1000&s=1", "address": "18 Hanazawa, Yaizu 425-0001 Shizuoka Prefecture", "lat": 34.90711, "lng": 138.33049, "ref_id": 13985168, "rating": 3.5, "num_reviews": 0, "website": null, "contact_phone": "+81 54-626-3670", "contact_email": null, "status": 1, "source_type": 1, "numberReviews": 4}, {"name": "Komachi", "type": "restaurant", "image": null, "address": "3-5-1 Hitotsuyama Tenpaku-Ku, Nagoya Qu\u00e2\u0323n Aichi", "lat": 35.10995, "lng": 136.97742, "ref_id": 7403315, "rating": -1, "num_reviews": 0, "website": null, "contact_phone": "+81 52-848-4039", "contact_email": null, "status": 1, "source_type": 1, "numberReviews": 0}, {"name": "Shine", "type": "restaurant", "image": null, "address": "4-60 Takahatacho, Nishio 445-0064 Qu\u00e2\u0323n Aichi", "lat": 34.862328, "lng": 137.05905, "ref_id": 13026679, "rating": -1, "num_reviews": 0, "website": null, "contact_phone": "+81 563-54-6766", "contact_email": null, "status": 1, "source_type": 1, "numberReviews": 0}, {"name": "Furudogu Cafehozo", "type": "restaurant", "image": null, "address": "12 Koshin Anjocho, Anjo Qu\u00e2\u0323n Aichi", "lat": 34.938625, "lng": 137.08601, "ref_id": 7581003, "rating": -1, "num_reviews": 0, "website": null, "contact_phone": "+81 566-87-9955", "contact_email": null, "status": 1, "source_type": 1, "numberReviews": 0}, {"name": "Mos Burger LPA", "type": "restaurant", "image": "https://dynamic-media-cdn.tripadvisor.com/media/photo-o/14/d3/14/fb/caption.jpg?w=1000&s=1", "address": "2-1212 Owada, Fukui 910-0836 Fukui Prefecture", "lat": 36.095707, "lng": 136.25021, "ref_id": 13068269, "rating": 5, "num_reviews": 0, "website": "http://www.mos.jp:443/shop/detail/01867/", "contact_phone": "+81 776-57-2530", "contact_email": null, "status": 1, "source_type": 1, "numberReviews": 2}, {"name": "Mos Burger Fukui Harue", "type": "restaurant", "image": null, "address": "50 Edome Shimo Uwae Haruecho, Sakai Fukui Prefecture", "lat": 36.12677, "lng": 136.21992, "ref_id": 7566557, "rating": 5, "num_reviews": 0, "website": null, "contact_phone": "+81 776-51-1022", "contact_email": null, "status": 1, "source_type": 1, "numberReviews": 1}, {"name": "Tojimbo Kohaku", "type": "restaurant", "image": "https://dynamic-media-cdn.tripadvisor.com/media/photo-o/0a/51/99/b8/caption.jpg?w=1000&s=1", "address": "Toujinbo Anto, Mikunicho, Sakai 913-0063 Fukui Prefecture", "lat": 36.235916, "lng": 136.12918, "ref_id": 9619109, "rating": 4, "num_reviews": 0, "website": null, "contact_phone": "+81 776-81-3833", "contact_email": null, "status": 1, "source_type": 1, "numberReviews": 3}, {"name": "Osamu", "type": "restaurant", "image": "https://dynamic-media-cdn.tripadvisor.com/media/photo-o/1b/55/43/0a/caption.jpg?w=1000&s=1", "address": "165-1 ho Kurosecho, Kaga Ishikawa Prefecture", "lat": 36.2985, "lng": 136.3423, "ref_id": 7429180, "rating": 5, "num_reviews": 0, "website": null, "contact_phone": "+81 761-73-3783", "contact_email": null, "status": 1, "source_type": 1, "numberReviews": 1}, {"name": "Chobe", "type": "restaurant", "image": null, "address": "2386 Tsuruga Gondocho, Nagano Nagano Prefecture", "lat": 36.654266, "lng": 138.18893, "ref_id": 7639738, "rating": 2.5, "num_reviews": 0, "website": null, "contact_phone": "+81 26-235-6745", "contact_email": null, "status": 1, "source_type": 1, "numberReviews": 2}, {"name": "Bincho Ohgiya, Nagano Minamitakada", "type": "restaurant", "image": "https://dynamic-media-cdn.tripadvisor.com/media/photo-o/0f/7e/56/1a/caption.jpg?w=1000&s=1", "address": "2-12-1 Minamitakada, Nagano 381-0033 Nagano Prefecture", "lat": 36.64285, "lng": 138.22507, "ref_id": 5790501, "rating": 3, "num_reviews": 0, "website": null, "contact_phone": "+81 26-254-5818", "contact_email": null, "status": 1, "source_type": 1, "numberReviews": 5}, {"name": "Karaage Center Nagano", "type": "restaurant", "image": "https://dynamic-media-cdn.tripadvisor.com/media/photo-o/1a/08/3d/58/caption.jpg?w=1000&s=1", "address": "1-22-6 Minamichitose 1F Midori Nagano, Nagano 380-0823 Nagano Prefecture", "lat": 36.643936, "lng": 138.18893, "ref_id": 13424911, "rating": 3, "num_reviews": 0, "website": "http://karacen.com/access.php", "contact_phone": "+81 26-219-6129", "contact_email": null, "status": 1, "source_type": 1, "numberReviews": 4}, {"name": "Gyuten", "type": "restaurant", "image": null, "address": "1886-5 Kazama, Nagano 381-0023 Nagano Prefecture", "lat": 36.637936, "lng": 138.2284, "ref_id": 5485039, "rating": 2, "num_reviews": 0, "website": null, "contact_phone": "+81 26-221-1129", "contact_email": null, "status": 1, "source_type": 1, "numberReviews": 1}, {"name": "Tavern Shizuoka Oden Bunya", "type": "restaurant", "image": "https://dynamic-media-cdn.tripadvisor.com/media/photo-o/12/3a/da/20/dsc-0365-largejpg.jpg?w=1000&s=1", "address": "1420-3 Minamiishidocho, Nagano 380-0824 Nagano Prefecture", "lat": 36.644993, "lng": 138.18672, "ref_id": 6200338, "rating": 3, "num_reviews": 0, "website": null, "contact_phone": "+81 26-223-6711", "contact_email": null, "status": 1, "source_type": 1, "numberReviews": 7}, {"name": "Sushiro Nagano-Wakamiya", "type": "restaurant", "image": null, "address": "2-13-5 Wakamiya, Nagano 381-0032 Nagano Prefecture", "lat": 36.64731, "lng": 138.22812, "ref_id": 14858720, "rating": 2, "num_reviews": 0, "website": "https://www.akindo-sushiro.co.jp/", "contact_phone": "+81 26-252-5024", "contact_email": null, "status": 1, "source_type": 1, "numberReviews": 1}, {"name": "Noroshi Nagano Inaba", "type": "restaurant", "image": null, "address": "2567-1 Inaba, Nagano Nagano Prefecture", "lat": 36.635464, "lng": 138.2083, "ref_id": 7438803, "rating": 2.5, "num_reviews": 0, "website": null, "contact_phone": "+81 26-222-2444", "contact_email": null, "status": 1, "source_type": 1, "numberReviews": 3}, {"name": "Keirin", "type": "restaurant", "image": null, "address": "2320 Tsuruga Gondocho, Nagano 380-0833 Nagano Prefecture", "lat": 36.65297, "lng": 138.18765, "ref_id": 9616930, "rating": 2.5, "num_reviews": 0, "website": null, "contact_phone": "+81 26-235-6743", "contact_email": null, "status": 1, "source_type": 1, "numberReviews": 3}, {"name": "Bar Grace", "type": "restaurant", "image": "https://dynamic-media-cdn.tripadvisor.com/media/photo-o/0d/b8/f0/33/photo2jpg.jpg?w=1000&s=1", "address": "1373 Kita Sekidocho, Nagano Nagano Prefecture", "lat": 36.64488, "lng": 138.18733, "ref_id": 7438440, "rating": 1, "num_reviews": 0, "website": null, "contact_phone": "+81 26-224-0111", "contact_email": null, "status": 1, "source_type": 1, "numberReviews": 1}, {"name": "Restaruarnt 100 One Hundred", "type": "restaurant", "image": null, "address": "3528-1 Miyaoki, Nagano 380-0952 Nagano Prefecture", "lat": 36.62941, "lng": 138.16095, "ref_id": 5521403, "rating": 1, "num_reviews": 0, "website": null, "contact_phone": "+81 26-227-9188", "contact_email": null, "status": 1, "source_type": 1, "numberReviews": 1}, {"name": "Anondo Indian Restaurant Kita-Owaribe", "type": "restaurant", "image": null, "address": "106-1 Kitaowaribe, Nagano 381-0014 Nagano Prefecture", "lat": 36.65563, "lng": 138.24113, "ref_id": 9664779, "rating": 1, "num_reviews": 0, "website": null, "contact_phone": "+81 26-243-8032", "contact_email": null, "status": 1, "source_type": 1, "numberReviews": 1}, {"name": "Sennari SOba", "type": "restaurant", "image": null, "address": "2339 Togakushi Hokosha, Nagano 381-4101 Nagano Prefecture", "lat": 36.7306, "lng": 138.07832, "ref_id": 13166579, "rating": -1, "num_reviews": 0, "website": null, "contact_phone": "+81 120-150-850", "contact_email": null, "status": 1, "source_type": 1, "numberReviews": 0}, {"name": "Taiseien", "type": "restaurant", "image": null, "address": "712 Nagamatsucho, Ogaki Gifu Prefecture", "lat": 35.362816, "lng": 136.57047, "ref_id": 7579137, "rating": -1, "num_reviews": 0, "website": null, "contact_phone": "+81 584-91-9921", "contact_email": null, "status": 1, "source_type": 1, "numberReviews": 0}, {"name": "Kojima Restaurant", "type": "restaurant", "image": null, "address": "2682 Yawasecho, Inazawa Qu\u00e2\u0323n Aichi", "lat": 35.2415, "lng": 136.77345, "ref_id": 7582304, "rating": -1, "num_reviews": 0, "website": null, "contact_phone": "+81 587-36-2860", "contact_email": null, "status": 1, "source_type": 1, "numberReviews": 0}, {"name": "Big Echo Misuzu", "type": "restaurant", "image": null, "address": "3-2-51 Kiri Shimizusangyo Building 2F, Matsumoto 390-0871 Nagano Prefecture", "lat": 36.25457, "lng": 137.97316, "ref_id": 14757501, "rating": -1, "num_reviews": 0, "website": null, "contact_phone": "+81 263-36-5001", "contact_email": null, "status": 1, "source_type": 1, "numberReviews": 0}, {"name": "Nakajima Pastry", "type": "restaurant", "image": null, "address": "3-4241 Ikeda, Ikeda-machi, Kitaazumi-gun 399-8601 Nagano Prefecture", "lat": 36.422676, "lng": 137.87767, "ref_id": 13195478, "rating": -1, "num_reviews": 0, "website": null, "contact_phone": "+81 261-62-2217", "contact_email": null, "status": 1, "source_type": 1, "numberReviews": 0}, {"name": "Tauchi-Ya", "type": "restaurant", "image": null, "address": "1-3-15 Shimizu, Matsumoto 390-0805 Nagano Prefecture", "lat": 36.235813, "lng": 137.98033, "ref_id": 9910466, "rating": -1, "num_reviews": 0, "website": null, "contact_phone": "+81 263-34-5529", "contact_email": null, "status": 1, "source_type": 1, "numberReviews": 0}, {"name": "Climb Climb", "type": "restaurant", "image": null, "address": "1-4-9 Fukashi, Matsumoto 390-0815 Nagano Prefecture", "lat": 36.22906, "lng": 137.96758, "ref_id": 4896615, "rating": -1, "num_reviews": 0, "website": null, "contact_phone": "+81 263-39-5532", "contact_email": null, "status": 1, "source_type": 1, "numberReviews": 0}, {"name": "Asian Kitchen Eigyoku", "type": "restaurant", "image": null, "address": "1-26-7 Chuo, Matsumoto 390-0811 Nagano Prefecture", "lat": 36.23413, "lng": 137.96507, "ref_id": 9658829, "rating": -1, "num_reviews": 0, "website": null, "contact_phone": "+81 263-34-5422", "contact_email": null, "status": 1, "source_type": 1, "numberReviews": 0}, {"name": "Soba No Hana Chojuan", "type": "restaurant", "image": null, "address": "2-5-19 Miyabuchi, Matsumoto Nagano Prefecture", "lat": 36.243504, "lng": 137.9584, "ref_id": 7407635, "rating": -1, "num_reviews": 0, "website": null, "contact_phone": "+81 263-35-8836", "contact_email": null, "status": 1, "source_type": 1, "numberReviews": 0}, {"name": "Paradise", "type": "restaurant", "image": null, "address": "2629-6 Hotaka, Azumino 399-8303 Nagano Prefecture", "lat": 36.338833, "lng": 137.88759, "ref_id": 9642930, "rating": -1, "num_reviews": 0, "website": null, "contact_phone": "+81 263-82-0349", "contact_email": null, "status": 1, "source_type": 1, "numberReviews": 0}, {"name": "Yoshikyu Ichiba", "type": "restaurant", "image": null, "address": "7600-41 Sasaka, Matsumoto 399-0033 Nagano Prefecture", "lat": 36.188953, "lng": 137.95079, "ref_id": 13426553, "rating": -1, "num_reviews": 0, "website": null, "contact_phone": "+81 263-88-8870", "contact_email": null, "status": 1, "source_type": 1, "numberReviews": 0}, {"name": "Chashuu and Musashi Ion Minamimatsu Main Store", "type": "restaurant", "image": null, "address": "5-20 Futaba, Matsumoto 390-0833 Nagano Prefecture", "lat": 36.208164, "lng": 137.96552, "ref_id": 13060682, "rating": -1, "num_reviews": 0, "website": null, "contact_phone": "+81 263-87-6347", "contact_email": null, "status": 1, "source_type": 1, "numberReviews": 0}, {"name": "Shokudo Hiromi", "type": "restaurant", "image": null, "address": "2-3-9 Miyabuchi, Matsumoto 390-0862 Nagano Prefecture", "lat": 36.241405, "lng": 137.95856, "ref_id": 9902272, "rating": -1, "num_reviews": 0, "website": null, "contact_phone": "+81 263-32-4755", "contact_email": null, "status": 1, "source_type": 1, "numberReviews": 0}, {"name": "Menya Hanamichi", "type": "restaurant", "image": null, "address": "1-2-8 Idegawamachi, Matsumoto 390-0827 Nagano Prefecture", "lat": 36.218334, "lng": 137.97948, "ref_id": 14757483, "rating": -1, "num_reviews": 0, "website": null, "contact_phone": "+81 263-87-8743", "contact_email": null, "status": 1, "source_type": 1, "numberReviews": 0}, {"name": "Fuari", "type": "restaurant", "image": null, "address": "1-3-2 Chuo B1f, Matsumoto 390-0811 Nagano Prefecture", "lat": 36.231487, "lng": 137.9659, "ref_id": 9946704, "rating": -1, "num_reviews": 0, "website": null, "contact_phone": "+81 263-39-1685", "contact_email": null, "status": 1, "source_type": 1, "numberReviews": 0}, {"name": "Green Grass", "type": "restaurant", "image": null, "address": "3-1-12 Chikuma, Matsumoto 390-0821 Nagano Prefecture", "lat": 36.221584, "lng": 137.98431, "ref_id": 9646817, "rating": -1, "num_reviews": 0, "website": null, "contact_phone": "+81 263-28-2314", "contact_email": null, "status": 1, "source_type": 1, "numberReviews": 0}, {"name": "Tea Rozasu", "type": "restaurant", "image": null, "address": "3 Toyoshina 5609 Azumino Toyoshina Museum of Modern Art, Azumino 399-8205 Nagano Prefecture", "lat": 36.305096, "lng": 137.90674, "ref_id": 14757626, "rating": -1, "num_reviews": 0, "website": null, "contact_phone": "+81 263-73-5638", "contact_email": null, "status": 1, "source_type": 1, "numberReviews": 0}, {"name": "Roba Cafe", "type": "restaurant", "image": null, "address": "7022-88 Midoricho, Matsukawa-mura, Kitaazumi-gun 399-8501 Nagano Prefecture", "lat": 36.426144, "lng": 137.85805, "ref_id": 10010757, "rating": -1, "num_reviews": 0, "website": null, "contact_phone": "+81 261-62-3426", "contact_email": null, "status": 1, "source_type": 1, "numberReviews": 0}, {"name": "Kubota-Ya", "type": "restaurant", "image": null, "address": "1116 Misato Meisei, Azumino Nagano Prefecture", "lat": 36.25509, "lng": 137.89806, "ref_id": 7556138, "rating": -1, "num_reviews": 0, "website": null, "contact_phone": "+81 263-77-2704", "contact_email": null, "status": 1, "source_type": 1, "numberReviews": 0}, {"name": "Matsumoto Main Store", "type": "restaurant", "image": null, "address": "1-2-3 Chuo Hotel Iidaya South 2F, Matsumoto 390-0811 Nagano Prefecture", "lat": 36.23195, "lng": 137.96483, "ref_id": 9635026, "rating": -1, "num_reviews": 0, "website": null, "contact_phone": "+81 263-88-5930", "contact_email": null, "status": 1, "source_type": 1, "numberReviews": 0}, {"name": "Shimmiyoshi Asamaonsen Irorikakomuten", "type": "restaurant", "image": null, "address": "3-14-19 Asamaonsen, Matsumoto 390-0303 Nagano Prefecture", "lat": 36.263218, "lng": 137.9912, "ref_id": 23533566, "rating": -1, "num_reviews": 0, "website": "http://nbw7202.gorp.jp/", "contact_phone": "+81 263-46-0366", "contact_email": null, "status": 1, "source_type": 1, "numberReviews": 0}, {"name": "Katsunoya", "type": "restaurant", "image": null, "address": "1347047, Yamagata-mura, Higashichikuma-gun 390-1301 Nagano Prefecture", "lat": 36.18504, "lng": 137.88918, "ref_id": 10011257, "rating": -1, "num_reviews": 0, "website": null, "contact_phone": "+81 263-98-5101", "contact_email": null, "status": 1, "source_type": 1, "numberReviews": 0}, {"name": "Oishi Shokudo", "type": "restaurant", "image": null, "address": "1029-14 Toyoshina Takibe, Azumino Nagano Prefecture", "lat": 36.259907, "lng": 137.92569, "ref_id": 7556156, "rating": -1, "num_reviews": 0, "website": null, "contact_phone": "+81 263-72-2331", "contact_email": null, "status": 1, "source_type": 1, "numberReviews": 0}, {"name": "Chiyo", "type": "restaurant", "image": null, "address": "3-6-14 Fukashi, Matsumoto 390-0815 Nagano Prefecture", "lat": 36.22897, "lng": 137.97267, "ref_id": 9685812, "rating": -1, "num_reviews": 0, "website": null, "contact_phone": "+81 263-36-2400", "contact_email": null, "status": 1, "source_type": 1, "numberReviews": 0}, {"name": "Ramen Daigaku Shimauchi", "type": "restaurant", "image": null, "address": "1841 Shimauchi Takamatsu, Matsumoto 390-0851 Nagano Prefecture", "lat": 36.252037, "lng": 137.93457, "ref_id": 9924497, "rating": -1, "num_reviews": 0, "website": null, "contact_phone": "+81 263-47-5168", "contact_email": null, "status": 1, "source_type": 1, "numberReviews": 0}, {"name": "Shinanoya Canteen", "type": "restaurant", "image": null, "address": "2-4-15 Asama Onsen, Matsumoto 390-0303 Nagano Prefecture", "lat": 36.26183, "lng": 137.98674, "ref_id": 9631192, "rating": -1, "num_reviews": 0, "website": null, "contact_phone": "+81 263-46-0871", "contact_email": null, "status": 1, "source_type": 1, "numberReviews": 0}, {"name": "Date No Sato Minami Matsumoto", "type": "restaurant", "image": null, "address": "1-20 Takamiyanaka, Matsumoto Nagano Prefecture", "lat": 36.212856, "lng": 137.96133, "ref_id": 7407781, "rating": -1, "num_reviews": 0, "website": null, "contact_phone": "+81 263-29-1404", "contact_email": null, "status": 1, "source_type": 1, "numberReviews": 0}, {"name": "Hamayan", "type": "restaurant", "image": null, "address": "5850 Toyoshina Shinden, Azumino Nagano Prefecture", "lat": 36.30525, "lng": 137.89738, "ref_id": 7556193, "rating": -1, "num_reviews": 0, "website": null, "contact_phone": "+81 263-72-2372", "contact_email": null, "status": 1, "source_type": 1, "numberReviews": 0}, {"name": "Ishihara", "type": "restaurant", "image": null, "address": "280-23 Okada Matsuoka, Matsumoto 390-0312 Nagano Prefecture", "lat": 36.25814, "lng": 137.97293, "ref_id": 9658840, "rating": -1, "num_reviews": 0, "website": null, "contact_phone": "+81 263-32-7662", "contact_email": null, "status": 1, "source_type": 1, "numberReviews": 0}, {"name": "Okinaro", "type": "restaurant", "image": null, "address": "2-7-4 Ote, Matsumoto 390-0874 Nagano Prefecture", "lat": 36.235676, "lng": 137.96742, "ref_id": 10657905, "rating": -1, "num_reviews": 0, "website": null, "contact_phone": "+81 263-33-4114", "contact_email": null, "status": 1, "source_type": 1, "numberReviews": 0}, {"name": "Bread Garden Clover", "type": "restaurant", "image": null, "address": "2-414 Itagaki, Fukui 918-8104 Fukui Prefecture", "lat": 36.046562, "lng": 136.22849, "ref_id": 13068000, "rating": -1, "num_reviews": 0, "website": null, "contact_phone": "+81 776-36-9680", "contact_email": null, "status": 1, "source_type": 1, "numberReviews": 0}, {"name": "Torihachi Honten", "type": "restaurant", "image": null, "address": "22-6 Toganocho, Fukui 910-2178 Fukui Prefecture", "lat": 36.036312, "lng": 136.25749, "ref_id": 13195124, "rating": -1, "num_reviews": 0, "website": "http://www.tori-hachi.net/", "contact_phone": "+81 776-41-0400", "contact_email": null, "status": 1, "source_type": 1, "numberReviews": 0}, {"name": "Echizen Kaisen Ryotei Yamani", "type": "restaurant", "image": null, "address": "2-3-17 Toyoshima, Fukui 910-0857 Fukui Prefecture", "lat": 36.057354, "lng": 136.22224, "ref_id": 9669854, "rating": -1, "num_reviews": 0, "website": null, "contact_phone": "+81 776-22-4365", "contact_email": null, "status": 1, "source_type": 1, "numberReviews": 0}, {"name": "Yocchan", "type": "restaurant", "image": null, "address": "2-820 Fuchi, Fukui 918-8026 Fukui Prefecture", "lat": 36.040844, "lng": 136.18819, "ref_id": 9631540, "rating": -1, "num_reviews": 0, "website": null, "contact_phone": "+81 776-34-8819", "contact_email": null, "status": 1, "source_type": 1, "numberReviews": 0}, {"name": "Hanazushi", "type": "restaurant", "image": null, "address": "3-31-3 Ninomiya, Fukui Fukui Prefecture", "lat": 36.08608, "lng": 136.21925, "ref_id": 1694023, "rating": -1, "num_reviews": 0, "website": "", "contact_phone": "+81 776-23-3824", "contact_email": "", "status": 1, "source_type": 1, "numberReviews": 0}, {"name": "Izakaya Kagura", "type": "restaurant", "image": null, "address": "1-4-6 Sakuramachi, Sabae Fukui Prefecture", "lat": 35.946125, "lng": 136.18245, "ref_id": 7637439, "rating": -1, "num_reviews": 0, "website": null, "contact_phone": "+81 778-51-2056", "contact_email": null, "status": 1, "source_type": 1, "numberReviews": 0}, {"name": "Hoshi Mittsu", "type": "restaurant", "image": null, "address": "1-10-9 Chuo, Fukui 910-0006 Fukui Prefecture", "lat": 36.060917, "lng": 136.2211, "ref_id": 13188813, "rating": -1, "num_reviews": 0, "website": "http://gomokutei-group.com/", "contact_phone": "+81 776-97-9512", "contact_email": null, "status": 1, "source_type": 1, "numberReviews": 0}, {"name": "Takata Sushi", "type": "restaurant", "image": null, "address": "10-111 Green Heights, Fukui 910-3604 Fukui Prefecture", "lat": 36.039238, "lng": 136.169, "ref_id": 9692757, "rating": -1, "num_reviews": 0, "website": null, "contact_phone": "+81 776-98-2076", "contact_email": null, "status": 1, "source_type": 1, "numberReviews": 0}, {"name": "Sakura Zushi", "type": "restaurant", "image": null, "address": "92-1 Oda, Echizen-cho, Nyu-gun 916-0215 Fukui Prefecture", "lat": 35.95982, "lng": 136.05861, "ref_id": 10012857, "rating": -1, "num_reviews": 0, "website": null, "contact_phone": "+81 778-36-0338", "contact_email": null, "status": 1, "source_type": 1, "numberReviews": 0}, {"name": "Izakaya Tobita", "type": "restaurant", "image": null, "address": "2-21-4 Junka Kaga Building 1F, Fukui 910-0023 Fukui Prefecture", "lat": 36.066074, "lng": 136.21538, "ref_id": 9692728, "rating": -1, "num_reviews": 0, "website": null, "contact_phone": "+81 776-23-3176", "contact_email": null, "status": 1, "source_type": 1, "numberReviews": 0}, {"name": "Uote Katsuki", "type": "restaurant", "image": "https://dynamic-media-cdn.tripadvisor.com/media/photo-o/0e/f9/6d/e9/caption.jpg?w=1000&s=1", "address": "32-92 Ebatacho, Fukui 918-8016 Fukui Prefecture", "lat": 36.028008, "lng": 136.2097, "ref_id": 7405978, "rating": -1, "num_reviews": 0, "website": null, "contact_phone": "+81 776-38-2182", "contact_email": null, "status": 1, "source_type": 1, "numberReviews": 0}, {"name": "Pab Bar 1", "type": "restaurant", "image": null, "address": "2-22-4 Junka, Fukui 910-0023 Fukui Prefecture", "lat": 36.066795, "lng": 136.21498, "ref_id": 13068316, "rating": -1, "num_reviews": 0, "website": null, "contact_phone": "+81 776-24-8015", "contact_email": null, "status": 1, "source_type": 1, "numberReviews": 0}, {"name": "Fujinya", "type": "restaurant", "image": "https://dynamic-media-cdn.tripadvisor.com/media/photo-o/1a/38/ed/85/caption.jpg?w=1000&s=1", "address": "5-18-24 Ninomiya, Fukui 910-0015 Fukui Prefecture", "lat": 36.087826, "lng": 136.20802, "ref_id": 14859595, "rating": -1, "num_reviews": 0, "website": null, "contact_phone": "+81 776-97-8859", "contact_email": null, "status": 1, "source_type": 1, "numberReviews": 0}, {"name": "Nakajimaya", "type": "restaurant", "image": null, "address": "3-3-14 Katsumi, Fukui Fukui Prefecture", "lat": 36.055298, "lng": 136.2304, "ref_id": 7635530, "rating": -1, "num_reviews": 0, "website": null, "contact_phone": "+81 776-22-3166", "contact_email": null, "status": 1, "source_type": 1, "numberReviews": 0}, {"name": "Uosei Bunkyo", "type": "restaurant", "image": null, "address": "2-6-37 Bunkyo, Fukui 910-0017 Fukui Prefecture", "lat": 36.07763, "lng": 136.2191, "ref_id": 13068464, "rating": -1, "num_reviews": 0, "website": null, "contact_phone": "+81 776-23-6553", "contact_email": null, "status": 1, "source_type": 1, "numberReviews": 0}, {"name": "Umanoya Kida", "type": "restaurant", "image": null, "address": "1306 Kidacho, Fukui 918-8106 Fukui Prefecture", "lat": 36.04686, "lng": 136.21928, "ref_id": 9669868, "rating": -1, "num_reviews": 0, "website": null, "contact_phone": "+81 776-34-0608", "contact_email": null, "status": 1, "source_type": 1, "numberReviews": 0}, {"name": "Enishiya", "type": "restaurant", "image": "https://dynamic-media-cdn.tripadvisor.com/media/photo-o/1c/ac/ac/f3/caption.jpg?w=1000&s=1", "address": "4-2807 Fuchi, Fukui 918-8026 Fukui Prefecture", "lat": 36.046318, "lng": 136.18353, "ref_id": 17360827, "rating": -1, "num_reviews": 0, "website": null, "contact_phone": "+81 776-65-4800", "contact_email": null, "status": 1, "source_type": 1, "numberReviews": 0}, {"name": "Alice Bar", "type": "restaurant", "image": null, "address": "1-9-18 Junka, Fukui 910-0023 Fukui Prefecture", "lat": 36.064194, "lng": 136.21638, "ref_id": 13067954, "rating": -1, "num_reviews": 0, "website": null, "contact_phone": "+81 776-23-3006", "contact_email": null, "status": 1, "source_type": 1, "numberReviews": 0}, {"name": "Punipuni", "type": "restaurant", "image": null, "address": "1-17-23 Junka, Fukui 910-0023 Fukui Prefecture", "lat": 36.06621, "lng": 136.2156, "ref_id": 16886305, "rating": -1, "num_reviews": 0, "website": null, "contact_phone": "+81 776-97-8363", "contact_email": null, "status": 1, "source_type": 1, "numberReviews": 0}, {"name": "Yuruhachi", "type": "restaurant", "image": null, "address": "2-12-14 Junka, Fukui 910-0023 Fukui Prefecture", "lat": 36.0648, "lng": 136.21451, "ref_id": 9631578, "rating": -1, "num_reviews": 0, "website": null, "contact_phone": "+81 776-25-3040", "contact_email": null, "status": 1, "source_type": 1, "numberReviews": 0}, {"name": "Ichijodaniasakuramizunoeki Contact Information Center", "type": "restaurant", "image": null, "address": "1-1-1 Abakanakajimacho, Fukui 910-2151 Fukui Prefecture", "lat": 36.052986, "lng": 136.24023, "ref_id": 17410653, "rating": -1, "num_reviews": 0, "website": null, "contact_phone": "+81 776-41-2777", "contact_email": null, "status": 1, "source_type": 1, "numberReviews": 0}, {"name": "Small Vices", "type": "restaurant", "image": null, "address": "2-8-14 Junka, Fukui Fukui Prefecture", "lat": 36.064552, "lng": 136.21379, "ref_id": 7405612, "rating": -1, "num_reviews": 0, "website": null, "contact_phone": "+81 776-28-3574", "contact_email": null, "status": 1, "source_type": 1, "numberReviews": 0}, {"name": "Karin", "type": "restaurant", "image": null, "address": "3-401 Fuchi, Fukui 918-8026 Fukui Prefecture", "lat": 36.043144, "lng": 136.18742, "ref_id": 9610985, "rating": -1, "num_reviews": 0, "website": null, "contact_phone": "+81 776-35-5078", "contact_email": null, "status": 1, "source_type": 1, "numberReviews": 0}, {"name": "Hanada", "type": "restaurant", "image": null, "address": "2-1001 Omachi, Fukui Fukui Prefecture", "lat": 36.03595, "lng": 136.22047, "ref_id": 7405932, "rating": -1, "num_reviews": 0, "website": null, "contact_phone": "+81 776-36-0357", "contact_email": null, "status": 1, "source_type": 1, "numberReviews": 0}, {"name": "Daikoku Shokudo", "type": "restaurant", "image": null, "address": "2-908 Chuo Awatabecho, Echizen Fukui Prefecture", "lat": 35.917953, "lng": 136.24417, "ref_id": 7566380, "rating": -1, "num_reviews": 0, "website": null, "contact_phone": "+81 778-42-1008", "contact_email": null, "status": 1, "source_type": 1, "numberReviews": 0}, {"name": "Asahi", "type": "restaurant", "image": null, "address": "3-2 Yurakucho 1F Maison lilac, Fukui 918-8008 Fukui Prefecture", "lat": 36.06205, "lng": 136.2067, "ref_id": 15321077, "rating": -1, "num_reviews": 0, "website": null, "contact_phone": "+81 776-35-0535", "contact_email": null, "status": 1, "source_type": 1, "numberReviews": 0}, {"name": "Crayon", "type": "restaurant", "image": null, "address": "7-29-5 Emori Nakacho, Fukui 918-8025 Fukui Prefecture", "lat": 36.03536, "lng": 136.20024, "ref_id": 9646285, "rating": -1, "num_reviews": 0, "website": null, "contact_phone": "+81 776-34-0966", "contact_email": null, "status": 1, "source_type": 1, "numberReviews": 0}, {"name": "Favori", "type": "restaurant", "image": "https://dynamic-media-cdn.tripadvisor.com/media/photo-o/16/e1/06/f5/caption.jpg?w=1000&s=1", "address": "4-6-17 Terute, Fukui 910-0024 Fukui Prefecture", "lat": 36.068066, "lng": 136.20544, "ref_id": 16850910, "rating": -1, "num_reviews": 0, "website": "http://www.frenchdeli-favori.com/index/", "contact_phone": "+81 776-97-9610", "contact_email": null, "status": 1, "source_type": 1, "numberReviews": 0}, {"name": "Wecker", "type": "restaurant", "image": null, "address": "1-45 Wakatakecho, Toyama 939-8181 Toyama Prefecture", "lat": 36.635612, "lng": 137.21927, "ref_id": 13188316, "rating": -1, "num_reviews": 0, "website": null, "contact_phone": "+81 76-428-2126", "contact_email": null, "status": 1, "source_type": 1, "numberReviews": 0}, {"name": "Kagura", "type": "restaurant", "image": null, "address": "1-1-12 Sogawa, Toyama 930-0083 Toyama Prefecture", "lat": 36.692883, "lng": 137.21375, "ref_id": 14740877, "rating": -1, "num_reviews": 0, "website": null, "contact_phone": "+81 76-464-6977", "contact_email": null, "status": 1, "source_type": 1, "numberReviews": 0}, {"name": "Tenho", "type": "restaurant", "image": null, "address": "8-1 Okidashin, Namerikawa Toyama Prefecture", "lat": 36.75356, "lng": 137.34956, "ref_id": 7542478, "rating": -1, "num_reviews": 0, "website": null, "contact_phone": "+81 76-475-5106", "contact_email": null, "status": 1, "source_type": 1, "numberReviews": 0}, {"name": "Pastry Nagakawa", "type": "restaurant", "image": null, "address": "67 Gohyakukoku, Tateyama-machi, Nakaniikawa-gun 930-0214 Toyama Prefecture", "lat": 36.662697, "lng": 137.31699, "ref_id": 13067657, "rating": -1, "num_reviews": 0, "website": null, "contact_phone": "+81 76-463-0261", "contact_email": null, "status": 1, "source_type": 1, "numberReviews": 0}, {"name": "Charlotte Patio Sakura", "type": "restaurant", "image": null, "address": "1-4-20 Sakuramachi, Toyama 930-0003 Toyama Prefecture", "lat": 36.699352, "lng": 137.21338, "ref_id": 16889637, "rating": -1, "num_reviews": 0, "website": null, "contact_phone": "+81 76-442-1388", "contact_email": null, "status": 1, "source_type": 1, "numberReviews": 0}, {"name": "Tomitaya", "type": "restaurant", "image": "https://dynamic-media-cdn.tripadvisor.com/media/photo-o/05/d6/4d/82/tomitaya.jpg?w=1000&s=1", "address": "262-6 Kurehatomitamachi, Toyama 930-0123 Toyama Prefecture", "lat": 36.71291, "lng": 137.17754, "ref_id": 6058444, "rating": -1, "num_reviews": 0, "website": null, "contact_phone": "+81 76-434-1617", "contact_email": null, "status": 1, "source_type": 1, "numberReviews": 0}, {"name": "Boin Boshoku", "type": "restaurant", "image": null, "address": "2-1-30 Tsutsumichodori, Toyama 930-0046 Toyama Prefecture", "lat": 36.688988, "lng": 137.2187, "ref_id": 9635359, "rating": -1, "num_reviews": 0, "website": null, "contact_phone": "+81 76-423-3275", "contact_email": null, "status": 1, "source_type": 1, "numberReviews": 0}, {"name": "Sampo", "type": "restaurant", "image": null, "address": "3-7-8 Toyowakacho, Toyama Toyama Prefecture", "lat": 36.730446, "lng": 137.23805, "ref_id": 7631563, "rating": -1, "num_reviews": 0, "website": null, "contact_phone": "+81 76-438-7888", "contact_email": null, "status": 1, "source_type": 1, "numberReviews": 0}, {"name": "Sakanaya Oazy Ino", "type": "restaurant", "image": null, "address": "4-1 Araya, Toyama 930-0822 Toyama Prefecture", "lat": 36.720867, "lng": 137.25021, "ref_id": 6881081, "rating": -1, "num_reviews": 0, "website": "http://www.oazy.jp/shop/shop9.html", "contact_phone": "+81 76-471-6355", "contact_email": null, "status": 1, "source_type": 1, "numberReviews": 0}, {"name": "Sake Place Shizuka", "type": "restaurant", "image": null, "address": "375 Fukujima, Yatsuomachi, Toyama 939-2376 Toyama Prefecture", "lat": 36.591106, "lng": 137.13759, "ref_id": 9670625, "rating": -1, "num_reviews": 0, "website": null, "contact_phone": "+81 76-455-1018", "contact_email": null, "status": 1, "source_type": 1, "numberReviews": 0}, {"name": "Korean Style Chingu", "type": "restaurant", "image": null, "address": "2-25 Shinsakuramachi, Toyama Toyama Prefecture", "lat": 36.698154, "lng": 137.21463, "ref_id": 7410879, "rating": -1, "num_reviews": 0, "website": null, "contact_phone": "+81 76-411-9884", "contact_email": null, "status": 1, "source_type": 1, "numberReviews": 0}, {"name": "Hanagasumi", "type": "restaurant", "image": null, "address": "2-14 Uchisaiwaicho, Toyama 930-0093 Toyama Prefecture", "lat": 36.69763, "lng": 137.21077, "ref_id": 13944794, "rating": -1, "num_reviews": 0, "website": null, "contact_phone": "+81 76-471-8878", "contact_email": null, "status": 1, "source_type": 1, "numberReviews": 0}, {"name": "Edo Sushi Tateyama", "type": "restaurant", "image": null, "address": "16-1 Himata, Tateyama-machi, Nakaniikawa-gun 930-0252 Toyama Prefecture", "lat": 36.64977, "lng": 137.314, "ref_id": 13067339, "rating": -1, "num_reviews": 0, "website": null, "contact_phone": "+81 120-054-483", "contact_email": null, "status": 1, "source_type": 1, "numberReviews": 0}, {"name": "Suehiro", "type": "restaurant", "image": null, "address": "29-12 Shinjomachi, Toyama 930-0992 Toyama Prefecture", "lat": 36.697117, "lng": 137.25703, "ref_id": 9611753, "rating": -1, "num_reviews": 0, "website": null, "contact_phone": "+81 76-423-2504", "contact_email": null, "status": 1, "source_type": 1, "numberReviews": 0}, {"name": "McDonald's Kamiichi Gaina City", "type": "restaurant", "image": null, "address": "257 Shoin, Kamiichi-machi, Nakaniikawa-gun 930-0357 Toyama Prefecture", "lat": 36.699097, "lng": 137.34074, "ref_id": 10009921, "rating": -1, "num_reviews": 0, "website": null, "contact_phone": "+81 76-473-9600", "contact_email": null, "status": 1, "source_type": 1, "numberReviews": 0}, {"name": "Caffe Giorgio", "type": "restaurant", "image": null, "address": "5330 Kanaya, Toyama 930-0873 Toyama Prefecture", "lat": 36.69493, "lng": 137.16849, "ref_id": 12214969, "rating": -1, "num_reviews": 0, "website": "https://ja-jp.facebook.com/Caffe-Giorgio-%E3%82%AB%E3%83%95%E3%82%A7-%E3%82%B8%E3%83%A7%E3%83%AB%E3%82%B8%E3%82%AA-250007321849156/", "contact_phone": "+81 76-439-2003", "contact_email": null, "status": 1, "source_type": 1, "numberReviews": 0}, {"name": "Inakaya", "type": "restaurant", "image": null, "address": "2349 Hongo Shin, Toyama 930-0108 Toyama Prefecture", "lat": 36.722355, "lng": 137.14926, "ref_id": 14740883, "rating": -1, "num_reviews": 0, "website": null, "contact_phone": "+81 76-436-0387", "contact_email": null, "status": 1, "source_type": 1, "numberReviews": 0}, {"name": "Persona", "type": "restaurant", "image": null, "address": "259-3 Omachi, Toyama 939-8073 Toyama Prefecture", "lat": 36.66775, "lng": 137.22247, "ref_id": 15324661, "rating": -1, "num_reviews": 0, "website": null, "contact_phone": "+81 76-461-4833", "contact_email": null, "status": 1, "source_type": 1, "numberReviews": 0}, {"name": "Fugetsu", "type": "restaurant", "image": null, "address": "412 Yoshioka, Toyama 939-8153 Toyama Prefecture", "lat": 36.633026, "lng": 137.21918, "ref_id": 9670651, "rating": -1, "num_reviews": 0, "website": null, "contact_phone": "+81 76-429-6730", "contact_email": null, "status": 1, "source_type": 1, "numberReviews": 0}, {"name": "Ramen-Dokoro Chikara", "type": "restaurant", "image": null, "address": "30-1 Okuicho, Toyama 930-0846 Toyama Prefecture", "lat": 36.702026, "lng": 137.22687, "ref_id": 9630860, "rating": -1, "num_reviews": 0, "website": null, "contact_phone": "+81 76-413-4455", "contact_email": null, "status": 1, "source_type": 1, "numberReviews": 0}, {"name": "Nikuyama Toyama", "type": "restaurant", "image": null, "address": "1-3-22 Shintomicho Yamamoto Bldg. 2F, Toyama 930-0002 Toyama Prefecture", "lat": 36.699352, "lng": 137.21191, "ref_id": 16881935, "rating": -1, "num_reviews": 0, "website": "https://www.facebook.com/nikuyamatoyama/", "contact_phone": "+81 76-443-2955", "contact_email": null, "status": 1, "source_type": 1, "numberReviews": 0}, {"name": "El", "type": "restaurant", "image": null, "address": "1-1-1 Nakataikoyama, Imizu Toyama Prefecture", "lat": 36.70353, "lng": 137.0957, "ref_id": 7542823, "rating": -1, "num_reviews": 0, "website": null, "contact_phone": "+81 766-56-5558", "contact_email": null, "status": 1, "source_type": 1, "numberReviews": 0}, {"name": "Arisawa Seifudo", "type": "restaurant", "image": null, "address": "7-1-7 Shimizumachi, Toyama 930-0036 Toyama Prefecture", "lat": 36.686295, "lng": 137.22353, "ref_id": 13067205, "rating": -1, "num_reviews": 0, "website": null, "contact_phone": "+81 76-421-7616", "contact_email": null, "status": 1, "source_type": 1, "numberReviews": 0}, {"name": "Mankayoshi", "type": "restaurant", "image": null, "address": "45 Ueno Shimmachi, Toyama 939-8195 Toyama Prefecture", "lat": 36.644016, "lng": 137.21419, "ref_id": 13067609, "rating": -1, "num_reviews": 0, "website": null, "contact_phone": "+81 76-428-0553", "contact_email": null, "status": 1, "source_type": 1, "numberReviews": 0}, {"name": "Yakitoria Chiiro", "type": "restaurant", "image": null, "address": "3-7 Ushijimashinmachi, Toyama 930-0856 Toyama Prefecture", "lat": 36.703613, "lng": 137.2175, "ref_id": 19264510, "rating": -1, "num_reviews": 0, "website": null, "contact_phone": "+81 76-482-3472", "contact_email": null, "status": 1, "source_type": 1, "numberReviews": 0}, {"name": "Sosei", "type": "restaurant", "image": null, "address": "530 Mizuhashi Shinomachi, Toyama 939-0527 Toyama Prefecture", "lat": 36.752625, "lng": 137.30531, "ref_id": 9670611, "rating": -1, "num_reviews": 0, "website": null, "contact_phone": "+81 76-479-1361", "contact_email": null, "status": 1, "source_type": 1, "numberReviews": 0}, {"name": "Tsukushi Koryori", "type": "restaurant", "image": null, "address": "1-4-3 Sogawa 1F, Toyama 930-0083 Toyama Prefecture", "lat": 36.69279, "lng": 137.2144, "ref_id": 15008319, "rating": -1, "num_reviews": 0, "website": null, "contact_phone": "+81 76-441-3007", "contact_email": null, "status": 1, "source_type": 1, "numberReviews": 0}, {"name": "Chotto Yorimichi Yottekare", "type": "restaurant", "image": null, "address": "2-3 Uchisaiwaicho, Toyama 930-0093 Toyama Prefecture", "lat": 36.69759, "lng": 137.21065, "ref_id": 9635271, "rating": -1, "num_reviews": 0, "website": null, "contact_phone": "+81 76-482-3677", "contact_email": null, "status": 1, "source_type": 1, "numberReviews": 0}, {"name": "Nakazaki Pastry", "type": "restaurant", "image": null, "address": "650-1 Nirehara, Toyama 939-2184 Toyama Prefecture", "lat": 36.53287, "lng": 137.23146, "ref_id": 13067611, "rating": -1, "num_reviews": 0, "website": null, "contact_phone": "+81 76-485-2322", "contact_email": null, "status": 1, "source_type": 1, "numberReviews": 0}, {"name": "Shunsai Kaisen Tsumamina", "type": "restaurant", "image": null, "address": "5-1704-1 Onsen, Awara 910-4104 Fukui Prefecture", "lat": 36.22862, "lng": 136.19377, "ref_id": 14740580, "rating": -1, "num_reviews": 0, "website": null, "contact_phone": "+81 776-77-2268", "contact_email": null, "status": 1, "source_type": 1, "numberReviews": 0}, {"name": "Yoshimura Pastry", "type": "restaurant", "image": null, "address": "4-811 Onsen, Awara 910-4104 Fukui Prefecture", "lat": 36.225216, "lng": 136.19211, "ref_id": 13199293, "rating": -1, "num_reviews": 0, "website": null, "contact_phone": "+81 776-77-2222", "contact_email": null, "status": 1, "source_type": 1, "numberReviews": 0}, {"name": "Junkissa Kissako", "type": "restaurant", "image": null, "address": "5-44-1 Ipponden Maruokacho, Sakai Fukui Prefecture", "lat": 36.14991, "lng": 136.2645, "ref_id": 7566633, "rating": -1, "num_reviews": 0, "website": null, "contact_phone": "+81 776-66-0062", "contact_email": null, "status": 1, "source_type": 1, "numberReviews": 0}, {"name": "Il Va Bian", "type": "restaurant", "image": "https://dynamic-media-cdn.tripadvisor.com/media/photo-o/17/0d/d1/7c/il-va-bian.jpg?w=1000&s=1", "address": "82-35-1 Takagicho, Fukui Fukui Prefecture", "lat": 36.09261, "lng": 136.23912, "ref_id": 7405453, "rating": -1, "num_reviews": 0, "website": null, "contact_phone": "+81 776-54-1600", "contact_email": null, "status": 1, "source_type": 1, "numberReviews": 0}, {"name": "Machikado", "type": "restaurant", "image": null, "address": "1-2004-2 Takagi Chuo, Fukui 910-0804 Fukui Prefecture", "lat": 36.09025, "lng": 136.23306, "ref_id": 9634469, "rating": -1, "num_reviews": 0, "website": null, "contact_phone": "+81 776-53-7535", "contact_email": null, "status": 1, "source_type": 1, "numberReviews": 0}, {"name": "Gyukakuowada", "type": "restaurant", "image": null, "address": "60-10 Owadacho, Fukui Fukui Prefecture", "lat": 36.092117, "lng": 136.25085, "ref_id": 7405911, "rating": -1, "num_reviews": 0, "website": null, "contact_phone": "+81 776-63-5229", "contact_email": null, "status": 1, "source_type": 1, "numberReviews": 0}, {"name": "Shosuke", "type": "restaurant", "image": null, "address": "48-27-1 Shimbo Mikunicho, Sakai Fukui Prefecture", "lat": 36.205044, "lng": 136.14192, "ref_id": 7637661, "rating": -1, "num_reviews": 0, "website": null, "contact_phone": "+81 776-82-2739", "contact_email": null, "status": 1, "source_type": 1, "numberReviews": 0}, {"name": "Karibu", "type": "restaurant", "image": null, "address": "1-24 Horiejuraku, Awara 910-4125 Fukui Prefecture", "lat": 36.22277, "lng": 136.18987, "ref_id": 13068181, "rating": -1, "num_reviews": 0, "website": null, "contact_phone": "+81 776-77-2287", "contact_email": null, "status": 1, "source_type": 1, "numberReviews": 0}, {"name": "Makoto Hompo Indotei", "type": "restaurant", "image": null, "address": "2-16-13 Chikusa, Chikusa-Ku Aeon Town Chikusa 2F, Nagoya 464-0858 Qu\u00e2\u0323n Aichi", "lat": 35.16166, "lng": 136.92342, "ref_id": 13025696, "rating": 3, "num_reviews": 0, "website": "http://www.aeontown.co.jp/chikusa/node/2194", "contact_phone": "+81 52-734-4711", "contact_email": null, "status": 1, "source_type": 1, "numberReviews": 2}, {"name": "Chasoken Confectionery", "type": "restaurant", "image": null, "address": "2-8-23 Otobashi, Nakagawa-Ku, Nagoya 454-0012 Qu\u00e2\u0323n Aichi", "lat": 35.143696, "lng": 136.89032, "ref_id": 13024277, "rating": -1, "num_reviews": 0, "website": null, "contact_phone": "+81 52-321-4767", "contact_email": null, "status": 1, "source_type": 1, "numberReviews": 0}, {"name": "Matsuya", "type": "restaurant", "image": null, "address": "3-167 Fujiecho, Nakamura-Ku, Nagoya 453-0045 Qu\u00e2\u0323n Aichi", "lat": 35.173374, "lng": 136.85988, "ref_id": 9942310, "rating": -1, "num_reviews": 0, "website": null, "contact_phone": "+81 52-482-2875", "contact_email": null, "status": 1, "source_type": 1, "numberReviews": 0}, {"name": "Sepia", "type": "restaurant", "image": null, "address": "3-201 Hattori Nakagawa-Ku, Nagoya Qu\u00e2\u0323n Aichi", "lat": 35.15016, "lng": 136.81387, "ref_id": 7401210, "rating": -1, "num_reviews": 0, "website": null, "contact_phone": "+81 52-431-8123", "contact_email": null, "status": 1, "source_type": 1, "numberReviews": 0}, {"name": "Hisako", "type": "restaurant", "image": null, "address": "75 Kiyosu Tanakacho, Kiyosu Qu\u00e2\u0323n Aichi", "lat": 35.21524, "lng": 136.8459, "ref_id": 7582832, "rating": -1, "num_reviews": 0, "website": null, "contact_phone": "+81 52-409-1094", "contact_email": null, "status": 1, "source_type": 1, "numberReviews": 0}, {"name": "Sozaitei", "type": "restaurant", "image": null, "address": "1-2-11 Hama, Minato-Ku, Nagoya 455-0036 Qu\u00e2\u0323n Aichi", "lat": 35.097008, "lng": 136.8823, "ref_id": 9904752, "rating": -1, "num_reviews": 0, "website": null, "contact_phone": "+81 52-654-0432", "contact_email": null, "status": 1, "source_type": 1, "numberReviews": 0}, {"name": "Cafe & Bar Ramp", "type": "restaurant", "image": null, "address": "5-90-1 Higashi Okoshicho, Nakagawa-Ku 1f, Nagoya 454-0935 Qu\u00e2\u0323n Aichi", "lat": 35.118637, "lng": 136.84567, "ref_id": 9658225, "rating": -1, "num_reviews": 0, "website": null, "contact_phone": "+81 50-5789-9615", "contact_email": null, "status": 1, "source_type": 1, "numberReviews": 0}, {"name": "Yakitori Daikichi Kintetsu Kasumori Ekimae", "type": "restaurant", "image": null, "address": "1-110-1 Karasumoricho, Nakamura-Ku, Nagoya 453-0855 Qu\u00e2\u0323n Aichi", "lat": 35.152992, "lng": 136.86264, "ref_id": 9893680, "rating": -1, "num_reviews": 0, "website": null, "contact_phone": "+81 52-482-7729", "contact_email": null, "status": 1, "source_type": 1, "numberReviews": 0}, {"name": "Maipenrai Meieki.", "type": "restaurant", "image": null, "address": "16\u221222 Tsubakicho, Nakamura-ku 4F, Nagoya 453-0015 Qu\u00e2\u0323n Aichi", "lat": 35.16828, "lng": 136.88171, "ref_id": 25287853, "rating": -1, "num_reviews": 0, "website": "https://onl.bz/xdeHxbn", "contact_phone": "+81 52-452-7272", "contact_email": "info@mary-enter.co.jp", "status": 1, "source_type": 1, "numberReviews": 0}, {"name": "Toretore Sakana to Kani Ryori Kuraya Tsushima", "type": "restaurant", "image": null, "address": "65-1 Hasuike Aza, Kamiocho, Tsushima 496-0013 Qu\u00e2\u0323n Aichi", "lat": 35.155155, "lng": 136.77724, "ref_id": 9641900, "rating": -1, "num_reviews": 0, "website": null, "contact_phone": "+81 50-5786-5977", "contact_email": null, "status": 1, "source_type": 1, "numberReviews": 0}, {"name": "Datsuya", "type": "restaurant", "image": null, "address": "13-4 Tsubakicho, Nakamura-Ku FF Bldg. 3F, Nagoya 453-0015 Qu\u00e2\u0323n Aichi", "lat": 35.168854, "lng": 136.87996, "ref_id": 9943279, "rating": -1, "num_reviews": 0, "website": null, "contact_phone": "+81 52-414-7707", "contact_email": null, "status": 1, "source_type": 1, "numberReviews": 0}, {"name": "Uoshige", "type": "restaurant", "image": null, "address": "30 Nagakusa cho Nakamura-ku, Nagoya 453-0857 Qu\u00e2\u0323n Aichi", "lat": 35.14874, "lng": 136.84804, "ref_id": 13142891, "rating": -1, "num_reviews": 0, "website": null, "contact_phone": "+81 52-412-3050", "contact_email": null, "status": 1, "source_type": 1, "numberReviews": 0}, {"name": "Idumi", "type": "restaurant", "image": null, "address": "58 NIshizuka Shippocho Katsura, Ama Qu\u00e2\u0323n Aichi", "lat": 35.164207, "lng": 136.79823, "ref_id": 7486404, "rating": -1, "num_reviews": 0, "website": null, "contact_phone": "+81 52-443-9297", "contact_email": null, "status": 1, "source_type": 1, "numberReviews": 0}, {"name": "Disney", "type": "restaurant", "image": null, "address": "106 Umenoki Koshizucho, Tsushima Qu\u00e2\u0323n Aichi", "lat": 35.177505, "lng": 136.76271, "ref_id": 7584845, "rating": -1, "num_reviews": 0, "website": null, "contact_phone": "+81 567-23-2916", "contact_email": null, "status": 1, "source_type": 1, "numberReviews": 0}, {"name": "Bistro Dhuman", "type": "restaurant", "image": null, "address": "10-1 Higashiake Kida, Ama Qu\u00e2\u0323n Aichi", "lat": 35.195587, "lng": 136.78741, "ref_id": 7486522, "rating": -1, "num_reviews": 0, "website": null, "contact_phone": "+81 52-445-3888", "contact_email": null, "status": 1, "source_type": 1, "numberReviews": 0}, {"name": "Boteju", "type": "restaurant", "image": null, "address": "4-13 Shotokucho Minato-Ku, Nagoya Qu\u00e2\u0323n Aichi", "lat": 35.122643, "lng": 136.85934, "ref_id": 7666490, "rating": -1, "num_reviews": 0, "website": null, "contact_phone": "+81 52-382-5508", "contact_email": null, "status": 1, "source_type": 1, "numberReviews": 0}, {"name": "Dela Gyoza Atsuta Rokuban", "type": "restaurant", "image": null, "address": "2-1-25 Rokuban Atsuta-ku, Nagoya 456-0058 Qu\u00e2\u0323n Aichi", "lat": 35.12357, "lng": 136.88899, "ref_id": 24000098, "rating": -1, "num_reviews": 0, "website": "", "contact_phone": "+81 52-654-8222", "contact_email": null, "status": 1, "source_type": 1, "numberReviews": 0}, {"name": "Cafe Dining & Steak Gattenda Takabata", "type": "restaurant", "image": null, "address": "4-150 Takabata, Nakamura-ku, Nagoya 454-0911 Qu\u00e2\u0323n Aichi", "lat": 35.1406, "lng": 136.8521, "ref_id": 23164273, "rating": -1, "num_reviews": 0, "website": "http://nb12811.gorp.jp/", "contact_phone": "+81 52-354-8135", "contact_email": null, "status": 1, "source_type": 1, "numberReviews": 0},