[{"name": "Kokaen", "type": "restaurant", "image": "https://dynamic-media-cdn.tripadvisor.com/media/photo-o/18/f7/78/a9/b.jpg?w=1000&s=1", "address": "19-3 Saru Hyogo-Machi, Hakui Ishikawa Prefecture", "lat": 36.883312, "lng": 136.77643, "ref_id": 7572287, "rating": 3.5, "num_reviews": 0, "website": null, "contact_phone": "+81 767-22-1515", "contact_email": null, "status": 1, "source_type": 1, "numberReviews": 6}, {"name": "Hakkenden Wakura", "type": "restaurant", "image": "https://dynamic-media-cdn.tripadvisor.com/media/photo-o/1d/a3/25/3c/caption.jpg?w=1000&s=1", "address": "1-5 Kashima Ishizakimachi, Nanao Ishikawa Prefecture", "lat": 37.08614, "lng": 136.92496, "ref_id": 7572119, "rating": 4, "num_reviews": 0, "website": null, "contact_phone": "+81 767-62-4351", "contact_email": null, "status": 1, "source_type": 1, "numberReviews": 3}, {"name": "Yahata Sushiben Senrihama Inter", "type": "restaurant", "image": "https://dynamic-media-cdn.tripadvisor.com/media/photo-o/0c/81/7f/5c/ufo.jpg?w=1000&s=1", "address": "10 Hyogomachi Uma, Hakui Ishikawa Prefecture", "lat": 36.886177, "lng": 136.77599, "ref_id": 7572262, "rating": 3.5, "num_reviews": 0, "website": null, "contact_phone": "+81 767-22-8887", "contact_email": null, "status": 1, "source_type": 1, "numberReviews": 8}, {"name": "Marugame Seimen Hakui", "type": "restaurant", "image": "https://dynamic-media-cdn.tripadvisor.com/media/photo-o/19/bc/93/ec/photo1jpg.jpg?w=1000&s=1", "address": "10-1 to Ishino-Machi, Hakui Ishikawa Prefecture", "lat": 36.894745, "lng": 136.79593, "ref_id": 7572269, "rating": 3.5, "num_reviews": 0, "website": null, "contact_phone": "+81 767-22-7028", "contact_email": null, "status": 1, "source_type": 1, "numberReviews": 6}, {"name": "Trattoria Arietta", "type": "restaurant", "image": "https://dynamic-media-cdn.tripadvisor.com/media/photo-o/10/24/a2/f7/photo0jpg.jpg?w=1000&s=1", "address": "30 Chirihama-Machi ho, Hakui Ishikawa Prefecture", "lat": 36.892082, "lng": 136.773, "ref_id": 7665139, "rating": 4.5, "num_reviews": 0, "website": null, "contact_phone": "+81 767-22-0929", "contact_email": null, "status": 1, "source_type": 1, "numberReviews": 2}, {"name": "Go! Go! Curry Kashima", "type": "restaurant", "image": null, "address": "109-1 Tokuzen Yo, Nakanoto-machi, Kashima-gun 929-1817 Ishikawa Prefecture", "lat": 36.971474, "lng": 136.90544, "ref_id": 10008594, "rating": 4.5, "num_reviews": 0, "website": "http://www.gogocurry.com/shop_0004.html", "contact_phone": "+81 767-76-2855", "contact_email": null, "status": 1, "source_type": 1, "numberReviews": 3}, {"name": "Kurumaza", "type": "restaurant", "image": "https://dynamic-media-cdn.tripadvisor.com/media/photo-o/06/74/b5/c3/caption.jpg?w=1000&s=1", "address": "Sakami Umi no Oka Club, Shika-machi, Hakui-gun 925-0564 Ishikawa Prefecture", "lat": 37.151455, "lng": 136.69562, "ref_id": 7022743, "rating": 4.5, "num_reviews": 0, "website": "http://www.nihon-kankou.or.jp/ishikawa/173843/detail/17382fc3562007652", "contact_phone": "+81 767-42-8188", "contact_email": null, "status": 1, "source_type": 1, "numberReviews": 3}, {"name": "Miyabi", "type": "restaurant", "image": null, "address": "3-10 Nakajima Nakajimacho, Nanao Ishikawa Prefecture", "lat": 37.123543, "lng": 136.84796, "ref_id": 7572093, "rating": 5, "num_reviews": 0, "website": null, "contact_phone": "+81 767-66-6737", "contact_email": null, "status": 1, "source_type": 1, "numberReviews": 1}, {"name": "Agura", "type": "restaurant", "image": "https://dynamic-media-cdn.tripadvisor.com/media/photo-o/1c/d3/5b/5d/caption.jpg?w=1000&s=1", "address": "11-7 Wabu, Wakuramachi, Nanao 926-0175 Ishikawa Prefecture", "lat": 37.088512, "lng": 136.91586, "ref_id": 12082853, "rating": 3.5, "num_reviews": 0, "website": "http://www.agura-wakura.jp/publics/index/3/", "contact_phone": "+81 767-62-1002", "contact_email": null, "status": 1, "source_type": 1, "numberReviews": 3}, {"name": "Cafe Mumin", "type": "restaurant", "image": "https://dynamic-media-cdn.tripadvisor.com/media/photo-o/17/6d/23/08/photo0jpg.jpg?w=1000&s=1", "address": "9-11 Okawamachi Okawamachi Kosaten, Hakui 925-0015 Ishikawa Prefecture", "lat": 36.90591, "lng": 136.77623, "ref_id": 11949047, "rating": 4.5, "num_reviews": 0, "website": null, "contact_phone": "+81 767-23-4137", "contact_email": null, "status": 1, "source_type": 1, "numberReviews": 2}, {"name": "McDonald's Aeon Town Hakui", "type": "restaurant", "image": null, "address": "I-7 Ishinomachi, Hakui 925-0026 Ishikawa Prefecture", "lat": 36.895493, "lng": 136.80135, "ref_id": 9642715, "rating": 4.5, "num_reviews": 0, "website": null, "contact_phone": "+81 767-22-8852", "contact_email": null, "status": 1, "source_type": 1, "numberReviews": 2}, {"name": "Michi No Eki Togiumi Kaido", "type": "restaurant", "image": null, "address": "2-11 Togi Ryokecho, Shika-machi, Hakui-gun 925-0447 Ishikawa Prefecture", "lat": 37.140617, "lng": 136.72598, "ref_id": 10014025, "rating": 3.5, "num_reviews": 0, "website": "http://ww1.togi-umikaido.com", "contact_phone": "+81 767-42-0975", "contact_email": null, "status": 1, "source_type": 1, "numberReviews": 5}, {"name": "Toriuma", "type": "restaurant", "image": "https://dynamic-media-cdn.tripadvisor.com/media/photo-o/1b/0e/f2/57/photo3jpg.jpg?w=1000&s=1", "address": "63-3 Ishizakicho Yo, Nanao Ishikawa Prefecture", "lat": 37.076435, "lng": 136.92548, "ref_id": 7674590, "rating": 5, "num_reviews": 0, "website": null, "contact_phone": "+81 767-62-2984", "contact_email": null, "status": 1, "source_type": 1, "numberReviews": 1}, {"name": "Tully's Coffee Nanao", "type": "restaurant", "image": "https://dynamic-media-cdn.tripadvisor.com/media/photo-o/1a/58/75/db/photo0jpg.jpg?w=1000&s=1", "address": "6-19 Fujihashimachi, Nanao 926-0816 Ishikawa Prefecture", "lat": 37.04469, "lng": 136.94693, "ref_id": 19743098, "rating": 5, "num_reviews": 0, "website": "https://map.tullys.co.jp/tullys/detailMap?account=tullys&accmd=0&bid=934", "contact_phone": "+81 767-53-0022", "contact_email": null, "status": 1, "source_type": 1, "numberReviews": 1}, {"name": "Fukuchan", "type": "restaurant", "image": "https://dynamic-media-cdn.tripadvisor.com/media/photo-o/0d/78/d1/24/photo1jpg.jpg?w=1000&s=1", "address": "10-2 Ra Wakura-Machi, Nanao Ishikawa Prefecture", "lat": 37.087173, "lng": 136.91762, "ref_id": 7572177, "rating": 3.5, "num_reviews": 0, "website": null, "contact_phone": "+81 767-62-1429", "contact_email": null, "status": 1, "source_type": 1, "numberReviews": 8}, {"name": "Nodonokura", "type": "restaurant", "image": "https://dynamic-media-cdn.tripadvisor.com/media/photo-o/1b/12/88/98/photo0jpg.jpg?w=1000&s=1", "address": "23-3 Wakuramachi Wa, Nanao 926-0175 Ishikawa Prefecture", "lat": 37.089424, "lng": 136.91588, "ref_id": 9642689, "rating": 3.5, "num_reviews": 0, "website": null, "contact_phone": "+81 767-62-1616", "contact_email": null, "status": 1, "source_type": 1, "numberReviews": 3}, {"name": "Hidekura", "type": "restaurant", "image": "https://dynamic-media-cdn.tripadvisor.com/media/photo-o/0e/65/9c/94/caption.jpg?w=1000&s=1", "address": "2-5-4 Kashima Ishizakimachi, Nanao 926-0178 Ishikawa Prefecture", "lat": 37.082947, "lng": 136.92566, "ref_id": 7572079, "rating": 5, "num_reviews": 0, "website": "http://www.hidekura.jp/", "contact_phone": "+81 767-62-8129", "contact_email": null, "status": 1, "source_type": 1, "numberReviews": 1}, {"name": "Yosaburo", "type": "restaurant", "image": "https://dynamic-media-cdn.tripadvisor.com/media/photo-o/16/29/0f/10/photo0jpg.jpg?w=1000&s=1", "address": "180-1 Nakajimacho Nakajima Otsu, Nanao 929-2222 Ishikawa Prefecture", "lat": 37.11792, "lng": 136.85587, "ref_id": 13568178, "rating": 5, "num_reviews": 0, "website": null, "contact_phone": "+81 767-66-1240", "contact_email": null, "status": 1, "source_type": 1, "numberReviews": 1}, {"name": "Joraku", "type": "restaurant", "image": "https://dynamic-media-cdn.tripadvisor.com/media/photo-o/07/2f/fd/92/caption.jpg?w=1000&s=1", "address": "51 Takidanimachi Ro, Hakui 925-0002 Ishikawa Prefecture", "lat": 36.953304, "lng": 136.77786, "ref_id": 7388530, "rating": 4.5, "num_reviews": 0, "website": "http://soba-jouraku.jimdofree.com/", "contact_phone": "+81 767-27-1433", "contact_email": null, "status": 1, "source_type": 1, "numberReviews": 2}, {"name": "Tenryu", "type": "restaurant", "image": "https://dynamic-media-cdn.tripadvisor.com/media/photo-o/15/19/89/9c/caption.jpg?w=1000&s=1", "address": "62 Chiyo-Machi I, Hakui Ishikawa Prefecture", "lat": 36.896233, "lng": 136.81673, "ref_id": 7572271, "rating": 4, "num_reviews": 0, "website": null, "contact_phone": "+81 767-26-2203", "contact_email": null, "status": 1, "source_type": 1, "numberReviews": 2}, {"name": "Shoryu", "type": "restaurant", "image": "https://dynamic-media-cdn.tripadvisor.com/media/photo-o/11/06/de/cd/caption.jpg?w=1000&s=1", "address": "Ro-80-1 Hosoguchimachi, Nanao 926-0822 Ishikawa Prefecture", "lat": 37.027008, "lng": 136.9432, "ref_id": 7572150, "rating": 3.5, "num_reviews": 0, "website": null, "contact_phone": "+81 767-57-2782", "contact_email": null, "status": 1, "source_type": 1, "numberReviews": 3}, {"name": "Sumiyoshi", "type": "restaurant", "image": null, "address": "41 Koyodai, Nanao Ishikawa Prefecture", "lat": 37.083008, "lng": 136.92346, "ref_id": 7572137, "rating": 4, "num_reviews": 0, "website": null, "contact_phone": "+81 767-62-1298", "contact_email": null, "status": 1, "source_type": 1, "numberReviews": 2}, {"name": "Shirokiya Wakura Onsen", "type": "restaurant", "image": "https://dynamic-media-cdn.tripadvisor.com/media/photo-o/14/de/e5/a5/caption.jpg?w=1000&s=1", "address": "23-2 Wakura Machi, Nanao 926-0175 Ishikawa Prefecture", "lat": 37.08952, "lng": 136.91602, "ref_id": 11918148, "rating": 3.5, "num_reviews": 0, "website": null, "contact_phone": "+81 767-62-1588", "contact_email": null, "status": 1, "source_type": 1, "numberReviews": 4}, {"name": "Komeda Coffee Aeon Mall Aratamabashi", "type": "restaurant", "image": "https://dynamic-media-cdn.tripadvisor.com/media/photo-o/14/87/91/50/caption.jpg?w=1000&s=1", "address": "1-7-10 Kikusumi, Minami-Ku, Nagoya 457-0012 Qu\u00e2\u0323n Aichi", "lat": 35.11435, "lng": 136.93446, "ref_id": 13089208, "rating": 3.5, "num_reviews": 0, "website": "http://aratamabashi.aeonmall.com/shop/detail/37", "contact_phone": "+81 52-829-3220", "contact_email": null, "status": 1, "source_type": 1, "numberReviews": 3}, {"name": "Southern Cross", "type": "restaurant", "image": "https://dynamic-media-cdn.tripadvisor.com/media/photo-o/16/6a/ba/e4/photo0jpg.jpg?w=1000&s=1", "address": "2-5-10 Marunouchi 1F Iris Aichi, Naka, Nagoya 460-0002 Qu\u00e2\u0323n Aichi", "lat": 35.17681, "lng": 136.90085, "ref_id": 13167511, "rating": 3.5, "num_reviews": 0, "website": "http://www.iris-aichi.com/s-cross/index.htm", "contact_phone": "+81 52-223-3751", "contact_email": null, "status": 1, "source_type": 1, "numberReviews": 3}, {"name": "Saizeriya Meisei Koseidori", "type": "restaurant", "image": "https://dynamic-media-cdn.tripadvisor.com/media/photo-o/0f/de/b2/f8/caption.jpg?w=1000&s=1", "address": "2-37-21 Meisei Nishi-ku, Nagoya 451-0064 Qu\u00e2\u0323n Aichi", "lat": 35.19099, "lng": 136.87752, "ref_id": 4899164, "rating": 3.5, "num_reviews": 0, "website": "http://shop.saizeriya.co.jp/sz_restaurant/spot/detail?code=0738", "contact_phone": "+81 52-528-6031", "contact_email": null, "status": 1, "source_type": 1, "numberReviews": 12}, {"name": "Kangoku Prison In Shoku 41 Bo", "type": "restaurant", "image": "https://dynamic-media-cdn.tripadvisor.com/media/photo-o/04/a0/26/df/kangoku-prison-in-shoku.jpg?w=1000&s=1", "address": "5-8-6 Washio Bldg. 1F, Sakae, Naka, Nagoya 460-0008 Qu\u00e2\u0323n Aichi", "lat": 35.164833, "lng": 136.91466, "ref_id": 4902896, "rating": 4.5, "num_reviews": 0, "website": null, "contact_phone": "+81 52-264-0273", "contact_email": null, "status": 1, "source_type": 1, "numberReviews": 6}, {"name": "Sukiya Showa Enjo", "type": "restaurant", "image": null, "address": "2804 Enjocho, Showa-Ku, Nagoya 466-0054 Qu\u00e2\u0323n Aichi", "lat": 35.14036, "lng": 136.92076, "ref_id": 15816906, "rating": 3.5, "num_reviews": 0, "website": "https://maps.sukiya.jp/jp/detail/1445.html", "contact_phone": "+81 120-498-007", "contact_email": null, "status": 1, "source_type": 1, "numberReviews": 3}, {"name": "Yume No Kura Sagokiso", "type": "restaurant", "image": null, "address": "3-18 Gokisotori Showa-Ku St Plaza Gokiso B1, Nagoya 466-0015 Qu\u00e2\u0323n Aichi", "lat": 35.1493, "lng": 136.93652, "ref_id": 4907135, "rating": 3.5, "num_reviews": 0, "website": null, "contact_phone": "+81 52-851-7651", "contact_email": null, "status": 1, "source_type": 1, "numberReviews": 5}, {"name": "Arancia", "type": "restaurant", "image": "https://dynamic-media-cdn.tripadvisor.com/media/photo-o/1a/1c/8f/89/dsc-8573-largejpg.jpg?w=1000&s=1", "address": "1-11-10 Nagono, Nishi-Ku, Nagoya Qu\u00e2\u0323n Aichi", "lat": 35.17639, "lng": 136.89069, "ref_id": 7661518, "rating": 3.5, "num_reviews": 0, "website": "http://arancia.info", "contact_phone": "+81 52-551-1676", "contact_email": null, "status": 1, "source_type": 1, "numberReviews": 3}, {"name": "Craft Sandwich", "type": "restaurant", "image": "https://dynamic-media-cdn.tripadvisor.com/media/photo-o/16/fd/3e/4f/photo0jpg.jpg?w=1000&s=1", "address": "5-21-6 Imaike, Chikusa-ku, Nagoya 464-0850 Qu\u00e2\u0323n Aichi", "lat": 35.16732, "lng": 136.93808, "ref_id": 13979516, "rating": 4, "num_reviews": 0, "website": "http://craftsandwich.storeinfo.jp", "contact_phone": "+81 70-1612-1208", "contact_email": null, "status": 1, "source_type": 1, "numberReviews": 2}, {"name": "Meiseihanten", "type": "restaurant", "image": "https://dynamic-media-cdn.tripadvisor.com/media/photo-o/17/24/98/4e/caption.jpg?w=1000&s=1", "address": "5-2-6 Biwajima Nishi-Ku, Nagoya Qu\u00e2\u0323n Aichi", "lat": 35.19414, "lng": 136.87733, "ref_id": 7402953, "rating": 4, "num_reviews": 0, "website": null, "contact_phone": "+81 52-522-0079", "contact_email": null, "status": 1, "source_type": 1, "numberReviews": 2}, {"name": "Miraikan", "type": "restaurant", "image": "https://dynamic-media-cdn.tripadvisor.com/media/photo-o/18/fb/37/84/photo0jpg.jpg?w=1000&s=1", "address": "5-251 Takabata, Nakagawa-Ku, Nagoya 454-0911 Qu\u00e2\u0323n Aichi", "lat": 35.143547, "lng": 136.85033, "ref_id": 14724253, "rating": 5, "num_reviews": 0, "website": null, "contact_phone": "+81 52-354-0653", "contact_email": null, "status": 1, "source_type": 1, "numberReviews": 1}, {"name": "Keith Manhattan Cafe Nagoya", "type": "restaurant", "image": null, "address": "1-2-1 Meieki, Nakamura-Ku, Nagoya Qu\u00e2\u0323n Aichi", "lat": 35.16962, "lng": 136.88396, "ref_id": 7400658, "rating": 3.5, "num_reviews": 0, "website": null, "contact_phone": "+81 52-585-2163", "contact_email": null, "status": 1, "source_type": 1, "numberReviews": 7}, {"name": "Nabeya Hotaru Kamimaetsu", "type": "restaurant", "image": "https://dynamic-media-cdn.tripadvisor.com/media/photo-o/19/38/fe/d4/photo0jpg.jpg?w=1000&s=1", "address": "4-15-59 Maezu Bldg. 1F, Osu, Naka, Nagoya 460-0011 Qu\u00e2\u0323n Aichi", "lat": 35.157936, "lng": 136.90794, "ref_id": 10650617, "rating": 3.5, "num_reviews": 0, "website": "http://www.facebook.com/hotaru.kamimaezu", "contact_phone": "+81 52-212-7573", "contact_email": null, "status": 1, "source_type": 1, "numberReviews": 4}, {"name": "Wagyu Beef Yakiniku en-Ya", "type": "restaurant", "image": null, "address": "2-2302 Hidamarinooka, Kuwana Mie Prefecture", "lat": 35.08486, "lng": 136.64435, "ref_id": 7431013, "rating": 4, "num_reviews": 0, "website": null, "contact_phone": "+81 594-32-8558", "contact_email": null, "status": 1, "source_type": 1, "numberReviews": 4}, {"name": "Ajiichi", "type": "restaurant", "image": null, "address": "1-18-24 Nishiki, Naka, Nagoya 460-0003 Qu\u00e2\u0323n Aichi", "lat": 35.168392, "lng": 136.8941, "ref_id": 9466006, "rating": 4.5, "num_reviews": 0, "website": null, "contact_phone": "+81 52-211-3510", "contact_email": null, "status": 1, "source_type": 1, "numberReviews": 2}, {"name": "Goro Sushi", "type": "restaurant", "image": "https://dynamic-media-cdn.tripadvisor.com/media/photo-o/06/e2/25/4d/kani-sushi.jpg?w=1000&s=1", "address": "1-12-4, Sakae, Naka, Nagoya Qu\u00e2\u0323n Aichi", "lat": 35.165993, "lng": 136.89697, "ref_id": 3779846, "rating": 4, "num_reviews": 0, "website": null, "contact_phone": "+81 52-231-5634", "contact_email": null, "status": 1, "source_type": 1, "numberReviews": 4}, {"name": "Sakura Suisan Sakou Ekimae", "type": "restaurant", "image": "https://dynamic-media-cdn.tripadvisor.com/media/photo-o/08/39/83/7b/caption.jpg?w=1000&s=1", "address": "1-35-20 Sako Nishi-Ku Kawazu Bldg. 1F, Nagoya 451-0052 Qu\u00e2\u0323n Aichi", "lat": 35.183525, "lng": 136.87422, "ref_id": 4899215, "rating": 3.5, "num_reviews": 0, "website": "", "contact_phone": "+81 52-533-2415", "contact_email": null, "status": 1, "source_type": 1, "numberReviews": 7}, {"name": "Sun Cielo", "type": "restaurant", "image": "https://dynamic-media-cdn.tripadvisor.com/media/photo-o/0d/60/09/d1/photo0jpg.jpg?w=1000&s=1", "address": "2-19 Kikuzakacho Chikusa-Ku, Nagoya Qu\u00e2\u0323n Aichi", "lat": 35.165474, "lng": 136.94914, "ref_id": 7401005, "rating": 4.5, "num_reviews": 0, "website": null, "contact_phone": "+81 52-752-1661", "contact_email": null, "status": 1, "source_type": 1, "numberReviews": 2}, {"name": "Sagami Kinjo Futo", "type": "restaurant", "image": "https://dynamic-media-cdn.tripadvisor.com/media/photo-o/17/7a/cb/b7/photo1jpg.jpg?w=1000&s=1", "address": "2-7-1 Kinjofuto, Minato-Ku, Nagoya 455-0848 Qu\u00e2\u0323n Aichi", "lat": 35.050217, "lng": 136.84723, "ref_id": 17361335, "rating": 3.5, "num_reviews": 0, "website": "https://www.sagami-holdings.co.jp/store/sagami-%E9%87%91%E5%9F%8E%E3%81%B5%E9%A0%AD%E5%BA%97/", "contact_phone": "+81 52-364-8888", "contact_email": null, "status": 1, "source_type": 1, "numberReviews": 3}, {"name": "Le Pont Du Girl Yukinobu Tsukidate", "type": "restaurant", "image": "https://dynamic-media-cdn.tripadvisor.com/media/photo-o/18/e4/39/5d/caption.jpg?w=1000&s=1", "address": "3-17-30 Marunouchi Totani Bldg.1F, Naka, Nagoya 460-0002 Qu\u00e2\u0323n Aichi", "lat": 35.175262, "lng": 136.90523, "ref_id": 16936009, "rating": 5, "num_reviews": 0, "website": "http://tsukidate.info/", "contact_phone": "+81 52-953-8878", "contact_email": null, "status": 1, "source_type": 1, "numberReviews": 1}, {"name": "Chinese Saika Koga", "type": "restaurant", "image": "https://dynamic-media-cdn.tripadvisor.com/media/photo-o/19/24/da/ec/photo0jpg.jpg?w=1000&s=1", "address": "52-4 Kunotsubo Umeda, Kitanagoya Qu\u00e2\u0323n Aichi", "lat": 35.231895, "lng": 136.86787, "ref_id": 7582717, "rating": 4, "num_reviews": 0, "website": null, "contact_phone": "+81 568-23-1703", "contact_email": null, "status": 1, "source_type": 1, "numberReviews": 2}, {"name": "Kitsune Shinsakae", "type": "restaurant", "image": "https://dynamic-media-cdn.tripadvisor.com/media/photo-o/19/33/02/20/caption.jpg?w=1000&s=1", "address": "2-22-22 Higashisakura, Naka, Nagoya 460-0005 Qu\u00e2\u0323n Aichi", "lat": 35.16972, "lng": 136.91632, "ref_id": 17722408, "rating": 5, "num_reviews": 0, "website": "", "contact_phone": "+81 52-908-9077", "contact_email": null, "status": 1, "source_type": 1, "numberReviews": 1}, {"name": "Ushioi Dochu", "type": "restaurant", "image": "https://dynamic-media-cdn.tripadvisor.com/media/photo-o/12/8b/4a/da/1200.jpg?w=1000&s=1", "address": "1-9-21 Izumi, Higashi-Ku, Nagoya 461-0001 Qu\u00e2\u0323n Aichi", "lat": 35.176186, "lng": 136.9124, "ref_id": 13027256, "rating": 4, "num_reviews": 0, "website": null, "contact_phone": "+81 52-962-2929", "contact_email": null, "status": 1, "source_type": 1, "numberReviews": 2}, {"name": "Hisamatsu", "type": "restaurant", "image": null, "address": "1-129 Takabata, Nakagawa-Ku Takaoki B Corporation 1F, Nagoya 454-0911 Qu\u00e2\u0323n Aichi", "lat": 35.142075, "lng": 136.85669, "ref_id": 14724242, "rating": 5, "num_reviews": 0, "website": null, "contact_phone": "+81 52-362-8622", "contact_email": null, "status": 1, "source_type": 1, "numberReviews": 1}, {"name": "McDonald's Aeon Mall Nagoya Chaya", "type": "restaurant", "image": null, "address": "2-11 Nishi Chaya, Minato-Ku, Nagoya 455-0858 Qu\u00e2\u0323n Aichi", "lat": 35.10346, "lng": 136.82497, "ref_id": 9634274, "rating": 3.5, "num_reviews": 0, "website": null, "contact_phone": "+81 52-355-7151", "contact_email": null, "status": 1, "source_type": 1, "numberReviews": 3}, {"name": "Aona Shokudo", "type": "restaurant", "image": "https://dynamic-media-cdn.tripadvisor.com/media/photo-o/0c/20/13/36/cosy-restaurant.jpg?w=1000&s=1", "address": "1-9-13 Iseyama Iseyama Heights, Naka, Nagoya 460-0026 Qu\u00e2\u0323n Aichi", "lat": 35.14951, "lng": 136.89983, "ref_id": 9961132, "rating": 4.5, "num_reviews": 0, "website": null, "contact_phone": "+81 52-212-8191", "contact_email": null, "status": 1, "source_type": 1, "numberReviews": 2}, {"name": "Kotokotoya Lalaport Minato Aquls", "type": "restaurant", "image": null, "address": "2-3-2 Komei, Minato-Ku LaLaport Minato Aculus 1F, Nagoya 455-0018 Qu\u00e2\u0323n Aichi", "lat": 35.110207, "lng": 136.88252, "ref_id": 17224894, "rating": 5, "num_reviews": 0, "website": "http://www.kotokoto-cafe.com/contents8.html", "contact_phone": "+81 52-304-9003", "contact_email": null, "status": 1, "source_type": 1, "numberReviews": 2}, {"name": "Sushi Han", "type": "restaurant", "image": "https://dynamic-media-cdn.tripadvisor.com/media/photo-o/0a/53/ce/3a/caption.jpg?w=1000&s=1", "address": "1-9 Ayuchi-Tori, Showa-Ku, Nagoya Qu\u00e2\u0323n Aichi", "lat": 35.156597, "lng": 136.93512, "ref_id": 7403258, "rating": 4.5, "num_reviews": 0, "website": null, "contact_phone": "+81 52-741-0521", "contact_email": null, "status": 1, "source_type": 1, "numberReviews": 2}, {"name": "Bumbuku Corner", "type": "restaurant", "image": null, "address": "2-21 Akatsukacho Higashi-Ku, Nagoya Qu\u00e2\u0323n Aichi", "lat": 35.184742, "lng": 136.92384, "ref_id": 7401880, "rating": 4, "num_reviews": 0, "website": null, "contact_phone": "+81 52-932-3607", "contact_email": null, "status": 1, "source_type": 1, "numberReviews": 2}, {"name": "Nordic Club Barrow Takigawa", "type": "restaurant", "image": null, "address": "14-1 Takikawacho, Showa-Ku, Nagoya 466-0826 Qu\u00e2\u0323n Aichi", "lat": 35.145184, "lng": 136.95894, "ref_id": 14725437, "rating": 4, "num_reviews": 0, "website": null, "contact_phone": "+81 52-861-2900", "contact_email": null, "status": 1, "source_type": 1, "numberReviews": 2}, {"name": "Tokyosushi Hyakukoku", "type": "restaurant", "image": null, "address": "2-26-5 Marunouchi, Kofu 400-0031 Yamanashi Prefecture", "lat": 35.663807, "lng": 138.5662, "ref_id": 9611919, "rating": -1, "num_reviews": 0, "website": null, "contact_phone": "+81 55-222-6480", "contact_email": null, "status": 1, "source_type": 1, "numberReviews": 0}, {"name": "Takano", "type": "restaurant", "image": null, "address": "2-3-3 Marunouchi Imamura Bldg. 1F, Kofu 400-0031 Yamanashi Prefecture", "lat": 35.665417, "lng": 138.5678, "ref_id": 14961519, "rating": -1, "num_reviews": 0, "website": null, "contact_phone": "+81 55-233-5577", "contact_email": null, "status": 1, "source_type": 1, "numberReviews": 0}, {"name": "Wakao Hatsue", "type": "restaurant", "image": null, "address": "1-18-18 Chuo, Kofu 400-0032 Yamanashi Prefecture", "lat": 35.65911, "lng": 138.57056, "ref_id": 9670734, "rating": -1, "num_reviews": 0, "website": null, "contact_phone": "+81 55-233-1977", "contact_email": null, "status": 1, "source_type": 1, "numberReviews": 0}, {"name": "Wakadanna", "type": "restaurant", "image": null, "address": "1114-1 Osatocho, Kofu Yamanashi Prefecture", "lat": 35.628693, "lng": 138.54979, "ref_id": 7673215, "rating": -1, "num_reviews": 0, "website": null, "contact_phone": "+81 55-241-3300", "contact_email": null, "status": 1, "source_type": 1, "numberReviews": 0}, {"name": "Kumuteji Tei", "type": "restaurant", "image": "https://dynamic-media-cdn.tripadvisor.com/media/photo-o/19/f6/63/61/caption.jpg?w=1000&s=1", "address": "3-7-3 Kamiishida 1F, Kofu 400-0041 Yamanashi Prefecture", "lat": 35.652824, "lng": 138.55516, "ref_id": 15662869, "rating": -1, "num_reviews": 0, "website": "https://yamanashifuji.jp", "contact_phone": "+81 55-244-5119", "contact_email": null, "status": 1, "source_type": 1, "numberReviews": 0}, {"name": "Nama Soba An", "type": "restaurant", "image": null, "address": "Asahi 3-11-20, Kofu 400-0025 Yamanashi Prefecture", "lat": 35.671936, "lng": 138.56422, "ref_id": 9611916, "rating": -1, "num_reviews": 0, "website": null, "contact_phone": "+81 55-287-9039", "contact_email": null, "status": 1, "source_type": 1, "numberReviews": 0}, {"name": "Endo Shiyokuchiyo", "type": "restaurant", "image": null, "address": "8-12-26 Kokubo, Kofu 400-0043 Yamanashi Prefecture", "lat": 35.63371, "lng": 138.55508, "ref_id": 13257735, "rating": -1, "num_reviews": 0, "website": null, "contact_phone": "+81 55-224-2589", "contact_email": null, "status": 1, "source_type": 1, "numberReviews": 0}, {"name": "Waremoko", "type": "restaurant", "image": null, "address": "1148-6 Natsumehara, Misakacho, Fuefuki 406-0804 Yamanashi Prefecture", "lat": 35.63039, "lng": 138.65793, "ref_id": 9686053, "rating": -1, "num_reviews": 0, "website": null, "contact_phone": "+81 55-261-3310", "contact_email": null, "status": 1, "source_type": 1, "numberReviews": 0}, {"name": "Ohako", "type": "restaurant", "image": null, "address": "2656 Fuse, Chuo Yamanashi Prefecture", "lat": 35.595627, "lng": 138.52126, "ref_id": 7543824, "rating": -1, "num_reviews": 0, "website": null, "contact_phone": "+81 55-273-5995", "contact_email": null, "status": 1, "source_type": 1, "numberReviews": 0}, {"name": "Kaen", "type": "restaurant", "image": null, "address": "132-1 Kamiishimori, Yamanashi Yamanashi Prefecture", "lat": 35.68387, "lng": 138.69473, "ref_id": 7543681, "rating": -1, "num_reviews": 0, "website": null, "contact_phone": "+81 553-23-3353", "contact_email": null, "status": 1, "source_type": 1, "numberReviews": 0}, {"name": "Cafe Latable", "type": "restaurant", "image": null, "address": "3-3-24 Kitaguchi, Kofu Yamanashi Prefecture", "lat": 35.667713, "lng": 138.57336, "ref_id": 7411364, "rating": -1, "num_reviews": 0, "website": null, "contact_phone": "+81 55-251-3671", "contact_email": null, "status": 1, "source_type": 1, "numberReviews": 0}, {"name": "Yamato Shokudo", "type": "restaurant", "image": null, "address": "1154 ShimoNohara, Misakacho, Fuefuki 406-0811 Yamanashi Prefecture", "lat": 35.62112, "lng": 138.66853, "ref_id": 9686057, "rating": -1, "num_reviews": 0, "website": null, "contact_phone": "+81 55-262-4540", "contact_email": null, "status": 1, "source_type": 1, "numberReviews": 0}, {"name": "Nishikiya", "type": "restaurant", "image": null, "address": "1239 Terabe, Minami Alps 400-0337 Yamanashi Prefecture", "lat": 35.614532, "lng": 138.49461, "ref_id": 13041991, "rating": -1, "num_reviews": 0, "website": null, "contact_phone": "+81 55-282-1513", "contact_email": null, "status": 1, "source_type": 1, "numberReviews": 0}, {"name": "Jinya", "type": "restaurant", "image": null, "address": "4-7-31-1 Asahi, Kofu 400-0025 Yamanashi Prefecture", "lat": 35.673214, "lng": 138.5687, "ref_id": 9670759, "rating": -1, "num_reviews": 0, "website": null, "contact_phone": "+81 55-251-4252", "contact_email": null, "status": 1, "source_type": 1, "numberReviews": 0}, {"name": "Plus Bar", "type": "restaurant", "image": null, "address": "2-29-4 Shimo Ishida Feria 2F, Kofu 400-0046 Yamanashi Prefecture", "lat": 35.64459, "lng": 138.55338, "ref_id": 9635472, "rating": -1, "num_reviews": 0, "website": null, "contact_phone": "+81 55-228-2394", "contact_email": null, "status": 1, "source_type": 1, "numberReviews": 0}, {"name": "Ishoku Dining Kiraku", "type": "restaurant", "image": null, "address": "2307-10 Saijo, Showa-cho, Nakakoma-gun Yamanashi Prefecture", "lat": 35.63804, "lng": 138.53719, "ref_id": 7476915, "rating": -1, "num_reviews": 0, "website": null, "contact_phone": "+81 55-275-9177", "contact_email": null, "status": 1, "source_type": 1, "numberReviews": 0}, {"name": "Zildjian", "type": "restaurant", "image": null, "address": "5219-2 Saijo Matsunoki, Showa-cho, Nakakoma-gun Yamanashi Prefecture", "lat": 35.642, "lng": 138.54233, "ref_id": 7476860, "rating": -1, "num_reviews": 0, "website": null, "contact_phone": "+81 55-275-2907", "contact_email": null, "status": 1, "source_type": 1, "numberReviews": 0}, {"name": "Izakaya Hanachan", "type": "restaurant", "image": null, "address": "451-2 Tomitake Shinden, Kai 400-0113 Yamanashi Prefecture", "lat": 35.659706, "lng": 138.53108, "ref_id": 14757695, "rating": -1, "num_reviews": 0, "website": null, "contact_phone": "+81 55-276-8423", "contact_email": null, "status": 1, "source_type": 1, "numberReviews": 0}, {"name": "Ristorante Koen", "type": "restaurant", "image": null, "address": "2-12-9 Chuo, Kofu 400-0032 Yamanashi Prefecture", "lat": 35.66059, "lng": 138.57433, "ref_id": 13256406, "rating": -1, "num_reviews": 0, "website": null, "contact_phone": "+81 55-244-5511", "contact_email": null, "status": 1, "source_type": 1, "numberReviews": 0}, {"name": "Ikkyuan Buddhist Cuisine Chaya", "type": "restaurant", "image": null, "address": "2289-2 Enzanoyashiki, Koshu 404-0053 Yamanashi Prefecture", "lat": 35.728703, "lng": 138.71439, "ref_id": 13041886, "rating": -1, "num_reviews": 0, "website": null, "contact_phone": "+81 553-32-1919", "contact_email": null, "status": 1, "source_type": 1, "numberReviews": 0}, {"name": "Donya Tamaho", "type": "restaurant", "image": null, "address": "890-1 Osatocho, Kofu 400-0053 Yamanashi Prefecture", "lat": 35.62521, "lng": 138.55388, "ref_id": 13041849, "rating": -1, "num_reviews": 0, "website": null, "contact_phone": "+81 55-269-5629", "contact_email": null, "status": 1, "source_type": 1, "numberReviews": 0}, {"name": "Unagi & Kappo Shichigosan", "type": "restaurant", "image": null, "address": "3-15-11 Shiobe, Kofu 400-0026 Yamanashi Prefecture", "lat": 35.677086, "lng": 138.55713, "ref_id": 4897869, "rating": -1, "num_reviews": 0, "website": null, "contact_phone": "+81 55-251-4406", "contact_email": null, "status": 1, "source_type": 1, "numberReviews": 0}, {"name": "Fukugen", "type": "restaurant", "image": null, "address": "2334-24 Yagoshima, Minami Alps Yamanashi Prefecture", "lat": 35.66201, "lng": 138.47972, "ref_id": 7509533, "rating": -1, "num_reviews": 0, "website": null, "contact_phone": "+81 55-285-2171", "contact_email": null, "status": 1, "source_type": 1, "numberReviews": 0}, {"name": "Ishokuya Shu", "type": "restaurant", "image": null, "address": "1414-4 Tomitake Shinden, Kai Yamanashi Prefecture", "lat": 35.6623, "lng": 138.52368, "ref_id": 7543339, "rating": -1, "num_reviews": 0, "website": null, "contact_phone": "+81 55-278-1410", "contact_email": null, "status": 1, "source_type": 1, "numberReviews": 0}, {"name": "Matsukazetei Main Store", "type": "restaurant", "image": null, "address": "3147-2 Katsunumacho Katsunuma, Koshu 409-1316 Yamanashi Prefecture", "lat": 35.66342, "lng": 138.73306, "ref_id": 13041970, "rating": -1, "num_reviews": 0, "website": null, "contact_phone": "+81 553-44-0156", "contact_email": null, "status": 1, "source_type": 1, "numberReviews": 0}, {"name": "Uozen", "type": "restaurant", "image": null, "address": "953 Ichikawa Daimon, Ichikawamisato-cho, Nishiyatsushiro-gun 409-3601 Yamanashi Prefecture", "lat": 35.562244, "lng": 138.50256, "ref_id": 13042071, "rating": -1, "num_reviews": 0, "website": null, "contact_phone": "+81 55-272-0050", "contact_email": null, "status": 1, "source_type": 1, "numberReviews": 0}, {"name": "Daizushi", "type": "restaurant", "image": null, "address": "2407-1 Ishibashi, Sakaigawacho, Fuefuki 406-0842 Yamanashi Prefecture", "lat": 35.60231, "lng": 138.61684, "ref_id": 10659418, "rating": -1, "num_reviews": 0, "website": null, "contact_phone": "+81 55-266-2552", "contact_email": null, "status": 1, "source_type": 1, "numberReviews": 0}, {"name": "My Books Cafe Shosai", "type": "restaurant", "image": null, "address": "3-1-12 Asake East Mall 1F, Kofu 400-0862 Yamanashi Prefecture", "lat": 35.64994, "lng": 138.5844, "ref_id": 14757744, "rating": -1, "num_reviews": 0, "website": null, "contact_phone": "+81 55-268-2213", "contact_email": null, "status": 1, "source_type": 1, "numberReviews": 0}, {"name": "Dessert Okoku Aeon Mall Kofu Showa", "type": "restaurant", "image": null, "address": "TsuneHisashi land readjustment areas within a city block Aeon Mall Kofu Showa 3F, Showa-cho, Nakakoma-gun 409-3852 Yamanashi Prefecture", "lat": 35.623226, "lng": 138.5277, "ref_id": 13416968, "rating": -1, "num_reviews": 0, "website": null, "contact_phone": "+81 55-269-5336", "contact_email": null, "status": 1, "source_type": 1, "numberReviews": 0}, {"name": "Hagino-Ya", "type": "restaurant", "image": null, "address": "452-1 Saijo, Showa-cho, Nakakoma-gun 409-3866 Yamanashi Prefecture", "lat": 35.632683, "lng": 138.54817, "ref_id": 10009549, "rating": -1, "num_reviews": 0, "website": null, "contact_phone": "+81 55-275-3751", "contact_email": null, "status": 1, "source_type": 1, "numberReviews": 0}, {"name": "Subway Meijo University", "type": "restaurant", "image": null, "address": "1-501 Shiogamaguchi, Tenpaku-Ku Meijo University Tenpaku 6-Goukan 1F, Nagoya 468-8502 Qu\u00e2\u0323n Aichi", "lat": 35.135277, "lng": 136.97614, "ref_id": 9646190, "rating": -1, "num_reviews": 0, "website": null, "contact_phone": "+81 52-837-6377", "contact_email": null, "status": 1, "source_type": 1, "numberReviews": 0}, {"name": "Koryori Taka", "type": "restaurant", "image": null, "address": "3-1606-1 Hirabari, Tenpaku-ku, Nagoya 468-0011 Qu\u00e2\u0323n Aichi", "lat": 35.121452, "lng": 137.00815, "ref_id": 13089228, "rating": -1, "num_reviews": 0, "website": "https://www.koryouri-taka.com/", "contact_phone": "+81 52-918-2718", "contact_email": null, "status": 1, "source_type": 1, "numberReviews": 0}, {"name": "Izakaya Hitsuji", "type": "restaurant", "image": null, "address": "6-7-1 Nishimachi Toyota Bldg. 3F, Toyota 471-0025 Qu\u00e2\u0323n Aichi", "lat": 35.086327, "lng": 137.15454, "ref_id": 20254773, "rating": -1, "num_reviews": 0, "website": null, "contact_phone": "+81 565-35-0004", "contact_email": null, "status": 1, "source_type": 1, "numberReviews": 0}, {"name": "Bimi Saisai Amago", "type": "restaurant", "image": null, "address": "4-55-3 Miyagamicho, Toyota 471-0038 Qu\u00e2\u0323n Aichi", "lat": 35.089336, "lng": 137.13632, "ref_id": 13024056, "rating": -1, "num_reviews": 0, "website": null, "contact_phone": "+81 565-34-1634", "contact_email": null, "status": 1, "source_type": 1, "numberReviews": 0}, {"name": "Yakiniku Suzuki", "type": "restaurant", "image": null, "address": "1-8-4 Miyoshigaokasakura, Miyoshi 470-0202 Qu\u00e2\u0323n Aichi", "lat": 35.1273, "lng": 137.10793, "ref_id": 14725643, "rating": -1, "num_reviews": 0, "website": null, "contact_phone": "+81 561-76-9929", "contact_email": null, "status": 1, "source_type": 1, "numberReviews": 0}, {"name": "Kirakuya", "type": "restaurant", "image": null, "address": "1-12 Bentencho, Anjo Qu\u00e2\u0323n Aichi", "lat": 34.96409, "lng": 137.09106, "ref_id": 7580963, "rating": -1, "num_reviews": 0, "website": null, "contact_phone": "+81 566-76-3141", "contact_email": null, "status": 1, "source_type": 1, "numberReviews": 0}, {"name": "Shishamo", "type": "restaurant", "image": null, "address": "11-5 Hina Nishimachi, Okazaki 444-0917 Qu\u00e2\u0323n Aichi", "lat": 34.972874, "lng": 137.14977, "ref_id": 13256467, "rating": -1, "num_reviews": 0, "website": null, "contact_phone": "+81 564-73-0180", "contact_email": null, "status": 1, "source_type": 1, "numberReviews": 0}, {"name": "Sennen-no-utage Aratamabashi Ekimae", "type": "restaurant", "image": null, "address": "2-32 Suyamacho, Mizuho-Ku Aratama Terminal Bldg. B1, Nagoya 467-0066 Qu\u00e2\u0323n Aichi", "lat": 35.11744, "lng": 136.93771, "ref_id": 5125030, "rating": -1, "num_reviews": 0, "website": null, "contact_phone": "+81 52-842-1588", "contact_email": null, "status": 1, "source_type": 1, "numberReviews": 0}, {"name": "Karayama Aichi Nishio", "type": "restaurant", "image": null, "address": "3-86 Nagayoshi, Nishio 445-0870 Qu\u00e2\u0323n Aichi", "lat": 34.860474, "lng": 137.04704, "ref_id": 20324402, "rating": -1, "num_reviews": 0, "website": "https://pkg.navitime.co.jp/ae-shop/spot/detail?code=669", "contact_phone": "+81 563-64-3555", "contact_email": null, "status": 1, "source_type": 1, "numberReviews": 0}, {"name": "Cafe&Bar Fool", "type": "restaurant", "image": null, "address": "1-4-22 Toeicho, Anjo 446-0007 Qu\u00e2\u0323n Aichi", "lat": 34.98786, "lng": 137.08566, "ref_id": 9969078, "rating": -1, "num_reviews": 0, "website": null, "contact_phone": "+81 566-97-6868", "contact_email": null, "status": 1, "source_type": 1, "numberReviews": 0}, {"name": "Daruma Sushi Hosokawa", "type": "restaurant", "image": null, "address": "74-1 Ishida, Hosokawacho, Okazaki 444-2149 Qu\u00e2\u0323n Aichi", "lat": 35.023746, "lng": 137.17406, "ref_id": 9943241, "rating": -1, "num_reviews": 0, "website": null, "contact_phone": "+81 564-45-5691", "contact_email": null, "status": 1, "source_type": 1, "numberReviews": 0}, {"name": "Sound Dining Spark", "type": "restaurant", "image": null, "address": "17-21 Imacho, Toyota Qu\u00e2\u0323n Aichi", "lat": 35.040684, "lng": 137.17238, "ref_id": 7584343, "rating": -1, "num_reviews": 0, "website": null, "contact_phone": "+81 565-47-5278", "contact_email": null, "status": 1, "source_type": 1, "numberReviews": 0}, {"name": "SalonDuo", "type": "restaurant", "image": null, "address": "2-14 Koyomachi, Hekinan 447-0871 Qu\u00e2\u0323n Aichi", "lat": 34.888985, "lng": 136.9969, "ref_id": 16886565, "rating": -1, "num_reviews": 0, "website": null, "contact_phone": "+81 566-95-7717", "contact_email": null, "status": 1, "source_type": 1, "numberReviews": 0}, {"name": "Bentoman Hekinan Fushimi", "type": "restaurant", "image": null, "address": "2-3 Nisshincho, Hekinan 447-0882 Qu\u00e2\u0323n Aichi", "lat": 34.880062, "lng": 137.00322, "ref_id": 13024005, "rating": -1, "num_reviews": 0, "website": null, "contact_phone": "+81 566-46-4488", "contact_email": null, "status": 1, "source_type": 1, "numberReviews": 0}, {"name": "Chiritoriya", "type": "restaurant", "image": null, "address": "86 Izumimachi, Handa Qu\u00e2\u0323n Aichi", "lat": 34.895863, "lng": 136.92688, "ref_id": 7581403, "rating": -1, "num_reviews": 0, "website": null, "contact_phone": "+81 569-26-6007", "contact_email": null, "status": 1, "source_type": 1, "numberReviews": 0}, {"name": "Izakaya Kagonma", "type": "restaurant", "image": null, "address": "15-13 Hachiga Ike, Miyoshicho, Miyoshi 470-0224 Qu\u00e2\u0323n Aichi", "lat": 35.08485, "lng": 137.07607, "ref_id": 9957717, "rating": -1, "num_reviews": 0, "website": null, "contact_phone": "+81 561-32-4566", "contact_email": null, "status": 1, "source_type": 1, "numberReviews": 0}, {"name": "Hotto Motto Tokai Fukinodai", "type": "restaurant", "image": null, "address": "1-262 Fukinodai, Tokai 476-0014 Qu\u00e2\u0323n Aichi", "lat": 35.029026, "lng": 136.90236, "ref_id": 13025043, "rating": -1, "num_reviews": 0, "website": null, "contact_phone": "+81 52-689-3061", "contact_email": null, "status": 1, "source_type": 1, "numberReviews": 0}, {"name": "Azalea", "type": "restaurant", "image": null, "address": "1-1 Kuriyado Kakemachi, Okazaki 444-0011 Qu\u00e2\u0323n Aichi", "lat": 34.95195, "lng": 137.1914, "ref_id": 13280235, "rating": -1, "num_reviews": 0, "website": "http://www.nippon-shokunomori-azalea.com/", "contact_phone": "+81 564-73-1588", "contact_email": null, "status": 1, "source_type": 1, "numberReviews": 0}, {"name": "Ajisai", "type": "restaurant", "image": null, "address": "7-56 Yamanote, Toyota 471-0833 Qu\u00e2\u0323n Aichi", "lat": 35.05624, "lng": 137.143, "ref_id": 9959797, "rating": -1, "num_reviews": 0, "website": null, "contact_phone": "+81 565-24-5228", "contact_email": null, "status": 1, "source_type": 1, "numberReviews": 0}, {"name": "Kiku Sushi Togasaki", "type": "restaurant", "image": null, "address": "5-3-12 Togasaki, Nishio 445-0075 Qu\u00e2\u0323n Aichi", "lat": 34.883694, "lng": 137.0641, "ref_id": 9933550, "rating": -1, "num_reviews": 0, "website": null, "contact_phone": "+81 563-57-2748", "contact_email": null, "status": 1, "source_type": 1, "numberReviews": 0}, {"name": "Ginza Nishikawa Toyotamaeyama", "type": "restaurant", "image": null, "address": "5-19-20 Maeyamacho, Toyota 471-0828 Qu\u00e2\u0323n Aichi", "lat": 35.055984, "lng": 137.11945, "ref_id": 20814428, "rating": -1, "num_reviews": 0, "website": "", "contact_phone": "+81 565-24-2400", "contact_email": null, "status": 1, "source_type": 1, "numberReviews": 0}, {"name": "Juri's", "type": "restaurant", "image": null, "address": "1-17 Sakuramachi 1 Building, Kariya 448-0028 Qu\u00e2\u0323n Aichi", "lat": 34.992718, "lng": 137.00925, "ref_id": 14723770, "rating": -1, "num_reviews": 0, "website": null, "contact_phone": "+81 566-91-6911", "contact_email": null, "status": 1, "source_type": 1, "numberReviews": 0}, {"name": "Tokugawa", "type": "restaurant", "image": null, "address": "56-4 Nagahara, Hosokawacho, Okazaki 444-2149 Qu\u00e2\u0323n Aichi", "lat": 35.027275, "lng": 137.1767, "ref_id": 9912445, "rating": -1, "num_reviews": 0, "website": null, "contact_phone": "+81 564-45-3158", "contact_email": null, "status": 1, "source_type": 1, "numberReviews": 0}, {"name": "Red Blic", "type": "restaurant", "image": null, "address": "2-10-1 Shibatacho Minami-Ku, Nagoya Qu\u00e2\u0323n Aichi", "lat": 35.074955, "lng": 136.90994, "ref_id": 7402469, "rating": -1, "num_reviews": 0, "website": null, "contact_phone": "+81 52-612-5173", "contact_email": null, "status": 1, "source_type": 1, "numberReviews": 0}, {"name": "Azumazushi", "type": "restaurant", "image": null, "address": "83-2 Maeda Mikoshicho, Tokai 477-0031 Qu\u00e2\u0323n Aichi", "lat": 35.017838, "lng": 136.89626, "ref_id": 9962502, "rating": -1, "num_reviews": 0, "website": null, "contact_phone": "+81 562-32-1950", "contact_email": null, "status": 1, "source_type": 1, "numberReviews": 0}, {"name": "Maxi Manis Asian Court", "type": "restaurant", "image": null, "address": "4-1 Hiiragiyamacho, Obu 474-0053 Qu\u00e2\u0323n Aichi", "lat": 35.017406, "lng": 136.9494, "ref_id": 9942395, "rating": -1, "num_reviews": 0, "website": null, "contact_phone": "+81 562-47-0080", "contact_email": null, "status": 1, "source_type": 1, "numberReviews": 0}, {"name": "Tsuruya Confectionery", "type": "restaurant", "image": null, "address": "11-3 Matobaoka Ogawacho, Anjo 444-1162 Qu\u00e2\u0323n Aichi", "lat": 34.91116, "lng": 137.09209, "ref_id": 13027186, "rating": -1, "num_reviews": 0, "website": null, "contact_phone": "+81 566-99-0638", "contact_email": null, "status": 1, "source_type": 1, "numberReviews": 0}, {"name": "Momonoki", "type": "restaurant", "image": null, "address": "16-1 Miyuki Honcho, Anjo 446-0032 Qu\u00e2\u0323n Aichi", "lat": 34.95826, "lng": 137.08627, "ref_id": 9914864, "rating": -1, "num_reviews": 0, "website": null, "contact_phone": "+81 566-74-8606", "contact_email": null, "status": 1, "source_type": 1, "numberReviews": 0}, {"name": "Steakhouse Bronco Billy", "type": "restaurant", "image": null, "address": "1-119 Kumanomae, Midori-ku, Nagoya 458-0851 Qu\u00e2\u0323n Aichi", "lat": 35.096542, "lng": 137.00508, "ref_id": 23719814, "rating": -1, "num_reviews": 0, "website": "https://www.bronco.co.jp/shop/nagoya/tokushige-ten/?y_source=1_MjYxMzU5ODEtNzY5LWxvY2F0aW9uLndlYnNpdGU%3D", "contact_phone": "+81 52-879-2829", "contact_email": null, "status": 1, "source_type": 1, "numberReviews": 0}, {"name": "Eel Fuji", "type": "restaurant", "image": null, "address": "45-3 Hiromi-Cho Camino Off, Toyota 470-1215 Qu\u00e2\u0323n Aichi", "lat": 35.004368, "lng": 137.11827, "ref_id": 14725686, "rating": -1, "num_reviews": 0, "website": null, "contact_phone": "+81 565-21-2774", "contact_email": null, "status": 1, "source_type": 1, "numberReviews": 0}, {"name": "Marugame Seimen Gamagori", "type": "restaurant", "image": "https://dynamic-media-cdn.tripadvisor.com/media/photo-o/0a/65/b2/d9/caption.jpg?w=1000&s=1", "address": "35-1 Nishinohama Takenoyacho, Gamagori Qu\u00e2\u0323n Aichi", "lat": 34.82545, "lng": 137.21132, "ref_id": 7399771, "rating": 3.5, "num_reviews": 0, "website": null, "contact_phone": "+81 533-68-1160", "contact_email": null, "status": 1, "source_type": 1, "numberReviews": 3}, {"name": "Zubora Miyuki", "type": "restaurant", "image": "https://dynamic-media-cdn.tripadvisor.com/media/photo-o/02/31/27/d4/caption.jpg?w=1000&s=1", "address": "8-12 Miyukicho, Gamagori 443-0042 Qu\u00e2\u0323n Aichi", "lat": 34.829678, "lng": 137.22038, "ref_id": 2390785, "rating": 4.5, "num_reviews": 0, "website": "http://zubora.ti-da.net/", "contact_phone": "+81 533-68-9090", "contact_email": "", "status": 1, "source_type": 1, "numberReviews": 4}, {"name": "Izakaya Dining Sakuramachi Kariya", "type": "restaurant", "image": "https://dynamic-media-cdn.tripadvisor.com/media/photo-o/1b/14/d9/cc/caption.jpg?w=1000&s=1", "address": "3-7 Sakuramachi, Kariya 448-0028 Qu\u00e2\u0323n Aichi", "lat": 34.993465, "lng": 137.00804, "ref_id": 9686402, "rating": 3.5, "num_reviews": 0, "website": null, "contact_phone": "+81 566-24-1124", "contact_email": null, "status": 1, "source_type": 1, "numberReviews": 11}, {"name": "Yabu Fuku", "type": "restaurant", "image": null, "address": "109 Unagiike, Hanecho, Okazaki 444-0813 Qu\u00e2\u0323n Aichi", "lat": 34.92166, "lng": 137.1757, "ref_id": 9892472, "rating": 5, "num_reviews": 0, "website": null, "contact_phone": "+81 564-51-0893", "contact_email": null, "status": 1, "source_type": 1, "numberReviews": 1}, {"name": "Robatayaki Kimata", "type": "restaurant", "image": null, "address": "4-8-10 Tatsumi Minami, Okazaki Qu\u00e2\u0323n Aichi", "lat": 34.935604, "lng": 137.17305, "ref_id": 7578447, "rating": 5, "num_reviews": 0, "website": null, "contact_phone": "+81 564-53-9989", "contact_email": null, "status": 1, "source_type": 1, "numberReviews": 1}, {"name": "Mayamasala Karita", "type": "restaurant", "image": "https://dynamic-media-cdn.tripadvisor.com/media/photo-o/12/d3/53/e5/photo2jpg.jpg?w=1000&s=1", "address": "2-3-7 Saiwaicho, Kariya Qu\u00e2\u0323n Aichi", "lat": 34.99336, "lng": 137.01619, "ref_id": 7577446, "rating": 3.5, "num_reviews": 0, "website": null, "contact_phone": "+81 566-23-3220", "contact_email": null, "status": 1, "source_type": 1, "numberReviews": 5}, {"name": "Umewaka Sushi", "type": "restaurant", "image": "https://dynamic-media-cdn.tripadvisor.com/media/photo-o/0e/04/c5/5b/caption.jpg?w=1000&s=1", "address": "34 Kataya Horinouchimachi, Anjo 444-1155 Qu\u00e2\u0323n Aichi", "lat": 34.930695, "lng": 137.08815, "ref_id": 9890005, "rating": 3.5, "num_reviews": 0, "website": null, "contact_phone": "+81 566-99-2525", "contact_email": null, "status": 1, "source_type": 1, "numberReviews": 4}, {"name": "Japanese Restaurant Fugu Momo", "type": "restaurant", "image": null, "address": "3-21-2 Togocho, Handa Qu\u00e2\u0323n Aichi", "lat": 34.881603, "lng": 136.91803, "ref_id": 7581548, "rating": 4, "num_reviews": 0, "website": null, "contact_phone": "+81 569-23-7677", "contact_email": null, "status": 1, "source_type": 1, "numberReviews": 2}, {"name": "Yakiniku IZURE Higashiokazaki", "type": "restaurant", "image": "https://dynamic-media-cdn.tripadvisor.com/media/photo-o/1c/00/3c/76/getlstd-property-photo.jpg?w=1000&s=1", "address": "3-5 Miyodaiji Hommachi, Okazaki 444-0860 Qu\u00e2\u0323n Aichi", "lat": 34.95361, "lng": 137.16507, "ref_id": 21287439, "rating": 4, "num_reviews": 0, "website": "https://www.facebook.com/YAKINIKUIZURE/", "contact_phone": "+81 564-83-7112", "contact_email": null, "status": 1, "source_type": 1, "numberReviews": 1}, {"name": "Ikkokusakigakedotyotaminami", "type": "restaurant", "image": "https://dynamic-media-cdn.tripadvisor.com/media/photo-o/0a/27/ce/11/caption.jpg?w=1000&s=1", "address": "177-1 Shimonokire Fukujucho, Toyota Qu\u00e2\u0323n Aichi", "lat": 34.993645, "lng": 137.11877, "ref_id": 7584624, "rating": 3.5, "num_reviews": 0, "website": null, "contact_phone": "+81 565-21-3311", "contact_email": null, "status": 1, "source_type": 1, "numberReviews": 3}, {"name": "Hananokimura", "type": "restaurant", "image": "https://dynamic-media-cdn.tripadvisor.com/media/photo-o/0e/f1/4d/68/caption.jpg?w=1000&s=1", "address": "12 Utocho Higashigawa, Okazaki 444-0905 Qu\u00e2\u0323n Aichi", "lat": 34.971043, "lng": 137.12375, "ref_id": 7578241, "rating": 4.5, "num_reviews": 0, "website": "", "contact_phone": "+81 564-33-1066", "contact_email": null, "status": 1, "source_type": 1, "numberReviews": 2}, {"name": "McDonald's Okazaki Seiyu", "type": "restaurant", "image": "https://dynamic-media-cdn.tripadvisor.com/media/photo-o/10/34/23/f1/caption.jpg?w=1000&s=1", "address": "2-1 Tosakicho, Okazaki 444-0840 Qu\u00e2\u0323n Aichi", "lat": 34.931507, "lng": 137.16551, "ref_id": 4901020, "rating": 3.5, "num_reviews": 0, "website": null, "contact_phone": "+81 564-59-0590", "contact_email": null, "status": 1, "source_type": 1, "numberReviews": 3}, {"name": "Maido Okini Shokudo Okazaki Hosshoji Shokudo", "type": "restaurant", "image": "https://dynamic-media-cdn.tripadvisor.com/media/photo-o/0d/b9/b5/72/photo1jpg.jpg?w=1000&s=1", "address": "80 Sarumachi, Hosshojicho, Okazaki 444-0206 Qu\u00e2\u0323n Aichi", "lat": 34.93094, "lng": 137.14352, "ref_id": 9940416, "rating": 4, "num_reviews": 0, "website": null, "contact_phone": "+81 564-53-6111", "contact_email": null, "status": 1, "source_type": 1, "numberReviews": 2}, {"name": "Shiawase no Eki", "type": "restaurant", "image": "https://dynamic-media-cdn.tripadvisor.com/media/photo-o/0e/e9/a9/7c/caption.jpg?w=1000&s=1", "address": "59 Sakuraicho Sandoyama, Anjo 444-1154 Qu\u00e2\u0323n Aichi", "lat": 34.921795, "lng": 137.08542, "ref_id": 12297958, "rating": 3.5, "num_reviews": 0, "website": null, "contact_phone": "+81 566-99-8038", "contact_email": null, "status": 1, "source_type": 1, "numberReviews": 4}, {"name": "Hatsuhana", "type": "restaurant", "image": null, "address": "23-1 Fukada Kashimacho, Gamagori Qu\u00e2\u0323n Aichi", "lat": 34.816242, "lng": 137.19424, "ref_id": 7633249, "rating": 5, "num_reviews": 0, "website": null, "contact_phone": "+81 533-67-8834", "contact_email": null, "status": 1, "source_type": 1, "numberReviews": 1}, {"name": "Coco Ichibanya Anjo Minami", "type": "restaurant", "image": "https://dynamic-media-cdn.tripadvisor.com/media/photo-o/04/a0/3c/06/coco-ichibanya-anjo-minami.jpg?w=1000&s=1", "address": "5-61 Minamimachi, Anjo 446-0034 Qu\u00e2\u0323n Aichi", "lat": 34.949833, "lng": 137.08868, "ref_id": 4896479, "rating": 4, "num_reviews": 0, "website": null, "contact_phone": "+81 566-75-5523", "contact_email": null, "status": 1, "source_type": 1, "numberReviews": 3}, {"name": "Salut", "type": "restaurant", "image": "https://dynamic-media-cdn.tripadvisor.com/media/photo-o/0f/1e/3a/f1/caption.jpg?w=1000&s=1", "address": "6-3-30 Kuretakecho, Takahama 444-1336 Qu\u00e2\u0323n Aichi", "lat": 34.936897, "lng": 136.9893, "ref_id": 9898284, "rating": 3.5, "num_reviews": 0, "website": "http://salut-takahama.com/", "contact_phone": "+81 566-93-3912", "contact_email": null, "status": 1, "source_type": 1, "numberReviews": 3}, {"name": "Chikuan", "type": "restaurant", "image": "https://dynamic-media-cdn.tripadvisor.com/media/photo-o/0b/59/53/46/caption.jpg?w=1000&s=1", "address": "6 Honmachi, Nishio Qu\u00e2\u0323n Aichi", "lat": 34.8674, "lng": 137.05284, "ref_id": 7583398, "rating": 4, "num_reviews": 0, "website": null, "contact_phone": "+81 563-56-2783", "contact_email": null, "status": 1, "source_type": 1, "numberReviews": 2}, {"name": "Chateraise Agui", "type": "restaurant", "image": null, "address": "4 Oaza Planted Oaza Nozaki, Agui-cho, Chita-gun 470-2216 Qu\u00e2\u0323n Aichi", "lat": 34.914845, "lng": 136.92201, "ref_id": 13024269, "rating": 3.5, "num_reviews": 0, "website": null, "contact_phone": "+81 569-48-6656", "contact_email": null, "status": 1, "source_type": 1, "numberReviews": 3}, {"name": "Nishimikawa Sogochosha Shokudo", "type": "restaurant", "image": "https://dynamic-media-cdn.tripadvisor.com/media/photo-o/10/1e/21/0e/dsc-7464-largejpg.jpg?w=1000&s=1", "address": "1-4 Myodaiji Hommachi, Okazaki Qu\u00e2\u0323n Aichi", "lat": 34.954334, "lng": 137.16467, "ref_id": 7578483, "rating": 3.5, "num_reviews": 0, "website": null, "contact_phone": "+81 564-25-8051", "contact_email": null, "status": 1, "source_type": 1, "numberReviews": 4}, {"name": "Kyushu Chinese Restaurant", "type": "restaurant", "image": null, "address": "2-59 Hachimancho, Okazaki Qu\u00e2\u0323n Aichi", "lat": 34.960876, "lng": 137.16623, "ref_id": 7578328, "rating": 4, "num_reviews": 0, "website": null, "contact_phone": "+81 564-23-5438", "contact_email": null, "status": 1, "source_type": 1, "numberReviews": 2}, {"name": "Kitchen Nagashima", "type": "restaurant", "image": null, "address": "15-3 Kumoji Murocho, Nishio Qu\u00e2\u0323n Aichi", "lat": 34.853806, "lng": 137.0955, "ref_id": 7583242, "rating": 4, "num_reviews": 0, "website": null, "contact_phone": "+81 563-52-4326", "contact_email": null, "status": 1, "source_type": 1, "numberReviews": 2}, {"name": "Yakiniku Amiyakitei", "type": "restaurant", "image": null, "address": "3-15-3 Hamadacho, Handa Qu\u00e2\u0323n Aichi", "lat": 34.901596, "lng": 136.93652, "ref_id": 7581340, "rating": 4, "num_reviews": 0, "website": null, "contact_phone": "+81 569-23-4129", "contact_email": null, "status": 1, "source_type": 1, "numberReviews": 2}, {"name": "Brut Nature", "type": "restaurant", "image": null, "address": "2-5-4 Aioicho, Kariya Qu\u00e2\u0323n Aichi", "lat": 34.99256, "lng": 137.00961, "ref_id": 7577436, "rating": 4, "num_reviews": 0, "website": null, "contact_phone": "+81 566-63-6673", "contact_email": null, "status": 1, "source_type": 1, "numberReviews": 2}, {"name": "Shichifuku", "type": "restaurant", "image": "https://dynamic-media-cdn.tripadvisor.com/media/photo-o/19/0e/aa/e2/caption.jpg?w=1000&s=1", "address": "60-9 Higashiura Yorizumicho, Nishio Qu\u00e2\u0323n Aichi", "lat": 34.87001, "lng": 137.0656, "ref_id": 7642355, "rating": 3.5, "num_reviews": 0, "website": null, "contact_phone": "+81 563-53-0729", "contact_email": null, "status": 1, "source_type": 1, "numberReviews": 3}, {"name": "Baton", "type": "restaurant", "image": "https://dynamic-media-cdn.tripadvisor.com/media/photo-o/21/22/25/5d/caption.jpg?w=1000&s=1", "address": "122 Hajodocho Ogeba, Kariya Qu\u00e2\u0323n Aichi", "lat": 34.98427, "lng": 137.02127, "ref_id": 7577419, "rating": 3.5, "num_reviews": 0, "website": null, "contact_phone": "+81 566-21-8676", "contact_email": null, "status": 1, "source_type": 1, "numberReviews": 2}, {"name": "Tamagawa", "type": "restaurant", "image": null, "address": "26-1 Myodaiji Tokutsugicho, Nishio Qu\u00e2\u0323n Aichi", "lat": 34.86293, "lng": 137.07097, "ref_id": 7583288, "rating": 5, "num_reviews": 0, "website": null, "contact_phone": "+81 563-57-8400", "contact_email": null, "status": 1, "source_type": 1, "numberReviews": 1}, {"name": "Yakimaru Isshiki", "type": "restaurant", "image": null, "address": "66-5 Akaba Hamada, Isshikicho, Nishio 444-0427 Qu\u00e2\u0323n Aichi", "lat": 34.819748, "lng": 137.01794, "ref_id": 13027328, "rating": -1, "num_reviews": 0, "website": null, "contact_phone": "+81 563-65-0505", "contact_email": null, "status": 1, "source_type": 1, "numberReviews": 0}, {"name": "Sugakiya Handa Power Dome", "type": "restaurant", "image": "https://dynamic-media-cdn.tripadvisor.com/media/photo-o/0f/3d/e5/13/img-20170511-141320-largejpg.jpg?w=1000&s=1", "address": "9 Okkawa Yoshinocho Power Dome Handa B1F Food Court, Handa 475-0058 Qu\u00e2\u0323n Aichi", "lat": 34.90566, "lng": 136.93697, "ref_id": 10645404, "rating": 3.5, "num_reviews": 0, "website": null, "contact_phone": "+81 569-26-1783", "contact_email": null, "status": 1, "source_type": 1, "numberReviews": 4}, {"name": "Higashi Okazaki Fish Tavern Doon", "type": "restaurant", "image": null, "address": "2-8 Myodaijihommachi, Okazaki 444-0860 Qu\u00e2\u0323n Aichi", "lat": 34.952663, "lng": 137.1643, "ref_id": 5125111, "rating": 4, "num_reviews": 0, "website": null, "contact_phone": "+81 564-65-8719", "contact_email": null, "status": 1, "source_type": 1, "numberReviews": 2}, {"name": "Koen", "type": "restaurant", "image": null, "address": "2-128 Kamiwakicho, Nakagawa-Ku, Nagoya 454-0833 Qu\u00e2\u0323n Aichi", "lat": 35.13529, "lng": 136.872, "ref_id": 10649222, "rating": -1, "num_reviews": 0, "website": null, "contact_phone": "+81 52-362-0365", "contact_email": null, "status": 1, "source_type": 1, "numberReviews": 0}, {"name": "Cage", "type": "restaurant", "image": null, "address": "1-79-1 Yatsuyacho Nakagawa-ku, Nagoya 454-0835 Qu\u00e2\u0323n Aichi", "lat": 35.131355, "lng": 136.871, "ref_id": 13072925, "rating": -1, "num_reviews": 0, "website": null, "contact_phone": "+81 52-362-6466", "contact_email": null, "status": 1, "source_type": 1, "numberReviews": 0}, {"name": "Beniya", "type": "restaurant", "image": null, "address": "4-1-39 Shinsei, Ichinomiya Qu\u00e2\u0323n Aichi", "lat": 35.296333, "lng": 136.7975, "ref_id": 7581974, "rating": -1, "num_reviews": 0, "website": null, "contact_phone": "+81 586-45-2004", "contact_email": null, "status": 1, "source_type": 1, "numberReviews": 0}, {"name": "Torisho Inazawa", "type": "restaurant", "image": null, "address": "3-64 Inajima Higashi, Inazawa 492-8230 Qu\u00e2\u0323n Aichi", "lat": 35.260532, "lng": 136.79753, "ref_id": 17713962, "rating": -1, "num_reviews": 0, "website": "https://nis-torisho.com/store-cat/area23/", "contact_phone": "+81 587-23-2022", "contact_email": null, "status": 1, "source_type": 1, "numberReviews": 0}, {"name": "Torishin Meieki", "type": "restaurant", "image": null, "address": "3-26-8 Meieki, Nakamura-ku B1, Nagoya 450-0002 Qu\u00e2\u0323n Aichi", "lat": 35.171898, "lng": 136.88539, "ref_id": 26356334, "rating": -1, "num_reviews": 0, "website": "https://torishin-meieki.owst.jp/", "contact_phone": "+81 52-561-9636", "contact_email": null, "status": 1, "source_type": 1, "numberReviews": 0}, {"name": "Runrun", "type": "restaurant", "image": null, "address": "32 Nishinoho Aono Higashi, Kitanagoya Qu\u00e2\u0323n Aichi", "lat": 35.247704, "lng": 136.86723, "ref_id": 7642266, "rating": -1, "num_reviews": 0, "website": null, "contact_phone": "+81 568-23-7278", "contact_email": null, "status": 1, "source_type": 1, "numberReviews": 0}, {"name": "Korean Kitchen Nestal Meieki", "type": "restaurant", "image": null, "address": "3-26-25 Meieki Nakamura-ku, Nagoya 450-0002 Qu\u00e2\u0323n Aichi", "lat": 35.1726, "lng": 136.88536, "ref_id": 23571892, "rating": -1, "num_reviews": 0, "website": "https://nestal-meieki.owst.jp/", "contact_phone": "+81 52-566-4077", "contact_email": null, "status": 1, "source_type": 1, "numberReviews": 0}, {"name": "Ikoi", "type": "restaurant", "image": null, "address": "2-3-11 Ozawa, Inazawa Qu\u00e2\u0323n Aichi", "lat": 35.254906, "lng": 136.79617, "ref_id": 7582263, "rating": -1, "num_reviews": 0, "website": null, "contact_phone": "+81 587-23-1419", "contact_email": null, "status": 1, "source_type": 1, "numberReviews": 0}, {"name": "Cafe Time Owari", "type": "restaurant", "image": null, "address": "61 Haruhi Kawanaka, Kiyosu 452-0962 Qu\u00e2\u0323n Aichi", "lat": 35.23544, "lng": 136.8488, "ref_id": 9968905, "rating": -1, "num_reviews": 0, "website": null, "contact_phone": "+81 52-855-2200", "contact_email": null, "status": 1, "source_type": 1, "numberReviews": 0}, {"name": "Utagoe Kissa Natusmi", "type": "restaurant", "image": null, "address": "2-10-27 Hanaike, Ichinomiya 491-0914 Qu\u00e2\u0323n Aichi", "lat": 35.29211, "lng": 136.79169, "ref_id": 13027252, "rating": -1, "num_reviews": 0, "website": null, "contact_phone": "+81 586-64-9166", "contact_email": null, "status": 1, "source_type": 1, "numberReviews": 0}, {"name": "Yakitori No Hachiman", "type": "restaurant", "image": null, "address": "4-25-2 Meieki Nakamura-Ku, Nagoya Qu\u00e2\u0323n Aichi", "lat": 35.168736, "lng": 136.88814, "ref_id": 7403928, "rating": -1, "num_reviews": 0, "website": null, "contact_phone": "+81 52-561-1753", "contact_email": null, "status": 1, "source_type": 1, "numberReviews": 0}, {"name": "Sumire Meieki 3chome", "type": "restaurant", "image": null, "address": "3-17-18 Meieki, Nakamura-ku 2f, Nagoya 450-0002 Qu\u00e2\u0323n Aichi", "lat": 35.172726, "lng": 136.88603, "ref_id": 13961472, "rating": -1, "num_reviews": 0, "website": "http://y-smile.co.jp/", "contact_phone": "+81 52-446-7988", "contact_email": null, "status": 1, "source_type": 1, "numberReviews": 0}, {"name": "Kaisen-Ya Aro", "type": "restaurant", "image": null, "address": "3-18-9 Meieki, Nakamura-Ku Mizuno Bldg. 2 to 3F, Nagoya 453-0002 Qu\u00e2\u0323n Aichi", "lat": 35.172726, "lng": 136.8873, "ref_id": 9610916, "rating": -1, "num_reviews": 0, "website": null, "contact_phone": "+81 52-533-0068", "contact_email": null, "status": 1, "source_type": 1, "numberReviews": 0}, {"name": "Takoya Dotombori Kukuru Apita Inazawa", "type": "restaurant", "image": null, "address": "1 Gotandacho Amaike Apita Inazawaten 1F, Inazawa 492-8275 Qu\u00e2\u0323n Aichi", "lat": 35.25225, "lng": 136.77156, "ref_id": 15083067, "rating": -1, "num_reviews": 0, "website": "http://www.shirohato.com/kukuru/", "contact_phone": "+81 587-23-0630", "contact_email": null, "status": 1, "source_type": 1, "numberReviews": 0}, {"name": "Tonshabutei", "type": "restaurant", "image": null, "address": "2-22 Chuodori, Iida Nagano Prefecture", "lat": 35.517174, "lng": 137.8256, "ref_id": 7555326, "rating": -1, "num_reviews": 0, "website": null, "contact_phone": "+81 265-49-0035", "contact_email": null, "status": 1, "source_type": 1, "numberReviews": 0}, {"name": "Hota Pastry", "type": "restaurant", "image": null, "address": "2-17-7 Ikuracho, Iida 395-0152 Nagano Prefecture", "lat": 35.503872, "lng": 137.80217, "ref_id": 16886384, "rating": -1, "num_reviews": 0, "website": null, "contact_phone": "+81 265-24-2763", "contact_email": null, "status": 1, "source_type": 1, "numberReviews": 0}, {"name": "Tsumugi", "type": "restaurant", "image": null, "address": "749-1 Matsuo Shiroda, Iida Nagano Prefecture", "lat": 35.49619, "lng": 137.82967, "ref_id": 7555073, "rating": -1, "num_reviews": 0, "website": null, "contact_phone": "+81 265-52-6043", "contact_email": null, "status": 1, "source_type": 1, "numberReviews": 0}, {"name": "Yoshinoya Iida Daimoncho", "type": "restaurant", "image": null, "address": "85-1 Daimoncho, Iida 395-0011 Nagano Prefecture", "lat": 35.52315, "lng": 137.8293, "ref_id": 17467742, "rating": -1, "num_reviews": 0, "website": "https://stores.yoshinoya.com/ysn_043953", "contact_phone": "+81 265-49-0332", "contact_email": null, "status": 1, "source_type": 1, "numberReviews": 0}, {"name": "Kushi Wa Jirocho", "type": "restaurant", "image": null, "address": "8-9 Chuo, Komagane Nagano Prefecture", "lat": 35.73517, "lng": 137.93498, "ref_id": 7554791, "rating": -1, "num_reviews": 0, "website": null, "contact_phone": "+81 265-83-5057", "contact_email": null, "status": 1, "source_type": 1, "numberReviews": 0}, {"name": "Iroribi Suisha", "type": "restaurant", "image": null, "address": "4-19 Chuo, Komagane 399-4112 Nagano Prefecture", "lat": 35.735733, "lng": 137.93594, "ref_id": 14996294, "rating": -1, "num_reviews": 0, "website": "http://www.suisha-seigetsu.com/index.htm", "contact_phone": "+81 265-83-0322", "contact_email": null, "status": 1, "source_type": 1, "numberReviews": 0}, {"name": "Cafe\uff06Bar\u597d\u65e5\u5b50hao ri zi", "type": "restaurant", "image": "https://dynamic-media-cdn.tripadvisor.com/media/photo-o/1b/63/61/6a/caption.jpg?w=1000&s=1", "address": "503-2 Kumashiro, Toyookamura, Shimoina-gun 399-3202 Nagano Prefecture", "lat": 35.552345, "lng": 137.89874, "ref_id": 20983704, "rating": -1, "num_reviews": 0, "website": null, "contact_phone": "+81 90-1868-7604", "contact_email": null, "status": 1, "source_type": 1, "numberReviews": 0}, {"name": "Takechan", "type": "restaurant", "image": null, "address": "12-8 Nashinoki, Komagane Nagano Prefecture", "lat": 35.730824, "lng": 137.94576, "ref_id": 7554761, "rating": -1, "num_reviews": 0, "website": null, "contact_phone": "+81 265-81-5058", "contact_email": null, "status": 1, "source_type": 1, "numberReviews": 0}, {"name": "Nomi Dokoroogurogawa", "type": "restaurant", "image": null, "address": "4-8-2 Matsuocho, Iida Nagano Prefecture", "lat": 35.518337, "lng": 137.82199, "ref_id": 7555340, "rating": -1, "num_reviews": 0, "website": null, "contact_phone": "+81 265-24-3060", "contact_email": null, "status": 1, "source_type": 1, "numberReviews": 0}, {"name": "Soba Kobo Reireian", "type": "restaurant", "image": null, "address": "3017-170 Nanakubo, Iijima-machi, Kamiina-gun Nagano Prefecture", "lat": 35.667812, "lng": 137.89445, "ref_id": 7495904, "rating": -1, "num_reviews": 0, "website": null, "contact_phone": "+81 265-86-6456", "contact_email": null, "status": 1, "source_type": 1, "numberReviews": 0}, {"name": "Oshima Yakiniku", "type": "restaurant", "image": null, "address": "2-671 Habacho, Iida Nagano Prefecture", "lat": 35.520054, "lng": 137.80914, "ref_id": 7555201, "rating": -1, "num_reviews": 0, "website": null, "contact_phone": "+81 265-24-3636", "contact_email": null, "status": 1, "source_type": 1, "numberReviews": 0}, {"name": "Wheat of Hitotsubu", "type": "restaurant", "image": null, "address": "1663-5 Kamisatobeppu, Iida 395-0003 Nagano Prefecture", "lat": 35.510292, "lng": 137.84663, "ref_id": 13061810, "rating": -1, "num_reviews": 0, "website": null, "contact_phone": "+81 265-23-7588", "contact_email": null, "status": 1, "source_type": 1, "numberReviews": 0}, {"name": "Drive-In Suzukawa", "type": "restaurant", "image": null, "address": "3-2367-1 Minozecho, Iida Nagano Prefecture", "lat": 35.512444, "lng": 137.81775, "ref_id": 7555077, "rating": -1, "num_reviews": 0, "website": null, "contact_phone": "+81 265-22-1333", "contact_email": null, "status": 1, "source_type": 1, "numberReviews": 0}, {"name": "Izakaya Ichiriki", "type": "restaurant", "image": null, "address": "1-3 Towacho, Iida Nagano Prefecture", "lat": 35.5183, "lng": 137.82472, "ref_id": 7555219, "rating": -1, "num_reviews": 0, "website": null, "contact_phone": "+81 265-22-3735", "contact_email": null, "status": 1, "source_type": 1, "numberReviews": 0}, {"name": "Yakitateya Aeon Iida Apple Road", "type": "restaurant", "image": null, "address": "456 Kanaeisshiki, Iida 395-0805 Nagano Prefecture", "lat": 35.500793, "lng": 137.81662, "ref_id": 13148274, "rating": -1, "num_reviews": 0, "website": null, "contact_phone": "+81 265-53-9578", "contact_email": null, "status": 1, "source_type": 1, "numberReviews": 0}, {"name": "Hotto Motto Iida Zakoji", "type": "restaurant", "image": null, "address": "3737-1 Zakoji, Iida 395-0001 Nagano Prefecture", "lat": 35.52982, "lng": 137.85843, "ref_id": 13060944, "rating": -1, "num_reviews": 0, "website": null, "contact_phone": "+81 265-56-8570", "contact_email": null, "status": 1, "source_type": 1, "numberReviews": 0}, {"name": "Karashi-Tei", "type": "restaurant", "image": "https://dynamic-media-cdn.tripadvisor.com/media/photo-o/1a/da/66/95/wagyu-beef-premium-coursey1100.jpg?w=1000&s=1", "address": "16-3 Chuo, Komagane Nagano Prefecture", "lat": 35.73592, "lng": 137.93486, "ref_id": 7554801, "rating": -1, "num_reviews": 0, "website": null, "contact_phone": "+81 265-83-6273", "contact_email": null, "status": 1, "source_type": 1, "numberReviews": 0}, {"name": "Mos Burger Aeon Iida Apple Road", "type": "restaurant", "image": null, "address": "456 Kanae Isshiki, Iida 395-0805 Nagano Prefecture", "lat": 35.500793, "lng": 137.81662, "ref_id": 13155268, "rating": -1, "num_reviews": 0, "website": "http://www.mos.jp:443/shop/detail/00448/", "contact_phone": "+81 265-22-5043", "contact_email": null, "status": 1, "source_type": 1, "numberReviews": 0}, {"name": "Furusato no Aji, Michi No Eki Hana No Sato Iijima", "type": "restaurant", "image": null, "address": "2252 Nanakubo, Iijima-machi, Kamiina-gun 399-3705 Nagano Prefecture", "lat": 35.661293, "lng": 137.90987, "ref_id": 10014056, "rating": -1, "num_reviews": 0, "website": "http://hananosato-iijima.jp/shopping/furusatonoaji.html", "contact_phone": "+81 265-86-3755", "contact_email": null, "status": 1, "source_type": 1, "numberReviews": 0}, {"name": "Shinshu Garden", "type": "restaurant", "image": null, "address": "1646-12 Yamabuki, Takamori-machi, Shimoina-gun 399-3101 Nagano Prefecture", "lat": 35.566326, "lng": 137.89145, "ref_id": 13061599, "rating": -1, "num_reviews": 0, "website": null, "contact_phone": "+81 265-35-7768", "contact_email": null, "status": 1, "source_type": 1, "numberReviews": 0}, {"name": "Shokudo Matsuri", "type": "restaurant", "image": null, "address": "856-5 Kanaeshimoyama Shimoyama Building 1F, Iida 395-0803 Nagano Prefecture", "lat": 35.505436, "lng": 137.8331, "ref_id": 14757559, "rating": -1, "num_reviews": 0, "website": null, "contact_phone": "+81 265-52-9186", "contact_email": null, "status": 1, "source_type": 1, "numberReviews": 0}, {"name": "Ikesu Kappo Urashima", "type": "restaurant", "image": "https://dynamic-media-cdn.tripadvisor.com/media/photo-o/04/9f/e1/ba/ikesu-kappo-urashima.jpg?w=1000&s=1", "address": "3-3 Matsuomachi, Iida 395-0042 Nagano Prefecture", "lat": 35.517002, "lng": 137.8241, "ref_id": 4897651, "rating": -1, "num_reviews": 0, "website": null, "contact_phone": "+81 265-23-3315", "contact_email": null, "status": 1, "source_type": 1, "numberReviews": 0}, {"name": "Sakurakomachi", "type": "restaurant", "image": null, "address": "2-11 Nishikicho, Iida 395-0083 Nagano Prefecture", "lat": 35.521652, "lng": 137.82698, "ref_id": 1667299, "rating": -1, "num_reviews": 0, "website": "", "contact_phone": "+81 265-22-1686", "contact_email": "", "status": 1, "source_type": 1, "numberReviews": 0}, {"name": "Shoya Ida", "type": "restaurant", "image": null, "address": "4-42 Chuo-Dori, Iida Nagano Prefecture", "lat": 35.5188, "lng": 137.8216, "ref_id": 7555238, "rating": -1, "num_reviews": 0, "website": null, "contact_phone": "+81 265-24-0408", "contact_email": null, "status": 1, "source_type": 1, "numberReviews": 0}, {"name": "Pan No Jikan", "type": "restaurant", "image": null, "address": "4-5-11 Takabacho, Iida 395-0051 Nagano Prefecture", "lat": 35.522373, "lng": 137.81987, "ref_id": 20165655, "rating": -1, "num_reviews": 0, "website": null, "contact_phone": "+81 265-49-0706", "contact_email": null, "status": 1, "source_type": 1, "numberReviews": 0}, {"name": "Uoki", "type": "restaurant", "image": null, "address": "3-41 Chuodori, Iida Nagano Prefecture", "lat": 35.517826, "lng": 137.82501, "ref_id": 7555347, "rating": -1, "num_reviews": 0, "website": null, "contact_phone": "+81 265-22-1063", "contact_email": null, "status": 1, "source_type": 1, "numberReviews": 0}, {"name": "Makoto Sushi", "type": "restaurant", "image": null, "address": "1-2395-15 Minozecho, Iida Nagano Prefecture", "lat": 35.516987, "lng": 137.81963, "ref_id": 7555325, "rating": -1, "num_reviews": 0, "website": null, "contact_phone": "+81 265-22-1319", "contact_email": null, "status": 1, "source_type": 1, "numberReviews": 0}, {"name": "Edoichi", "type": "restaurant", "image": null, "address": "1108-26 Osegi, Iida Nagano Prefecture", "lat": 35.49946, "lng": 137.7893, "ref_id": 7555277, "rating": -1, "num_reviews": 0, "website": null, "contact_phone": "+81 265-25-2958", "contact_email": null, "status": 1, "source_type": 1, "numberReviews": 0}, {"name": "Momochan", "type": "restaurant", "image": null, "address": "4080-6 Katagiri, Nakagawa-mura, Kamiina-gun Nagano Prefecture", "lat": 35.63022, "lng": 137.92656, "ref_id": 7495919, "rating": -1, "num_reviews": 0, "website": null, "contact_phone": "+81 265-88-3773", "contact_email": null, "status": 1, "source_type": 1, "numberReviews": 0}, {"name": "Komatsuya", "type": "restaurant", "image": null, "address": "15-12 Chuo, Komagane Nagano Prefecture", "lat": 35.73651, "lng": 137.93414, "ref_id": 7554755, "rating": -1, "num_reviews": 0, "website": null, "contact_phone": "+81 265-82-8639", "contact_email": null, "status": 1, "source_type": 1, "numberReviews": 0}, {"name": "Shogen", "type": "restaurant", "image": null, "address": "13-6 Nakai-Machi, Owase Mie Prefecture", "lat": 34.07427, "lng": 136.19717, "ref_id": 7632052, "rating": -1, "num_reviews": 0, "website": null, "contact_phone": "+81 597-23-0800", "contact_email": null, "status": 1, "source_type": 1, "numberReviews": 0}, {"name": "Horai", "type": "restaurant", "image": null, "address": "6-52 Nakamuracho, Owase Mie Prefecture", "lat": 34.074287, "lng": 136.1922, "ref_id": 7587369, "rating": -1, "num_reviews": 0, "website": null, "contact_phone": "+81 597-22-8955", "contact_email": null, "status": 1, "source_type": 1, "numberReviews": 0}, {"name": "Hanaemi", "type": "restaurant", "image": null, "address": "4-4 Sakaemachi, Owase 519-3618 Mie Prefecture", "lat": 34.07502, "lng": 136.19534, "ref_id": 9676927, "rating": -1, "num_reviews": 0, "website": null, "contact_phone": "+81 597-22-0037", "contact_email": null, "status": 1, "source_type": 1, "numberReviews": 0}, {"name": "Penguin", "type": "restaurant", "image": null, "address": "840-9 Sonecho, Owase Mie Prefecture", "lat": 33.97262, "lng": 136.1895, "ref_id": 7641875, "rating": -1, "num_reviews": 0, "website": null, "contact_phone": "+81 597-27-3507", "contact_email": null, "status": 1, "source_type": 1, "numberReviews": 0}, {"name": "Taisho", "type": "restaurant", "image": null, "address": "3-2 Nojicho, Owase 519-3617 Mie Prefecture", "lat": 34.07494, "lng": 136.1926, "ref_id": 9687148, "rating": -1, "num_reviews": 0, "website": null, "contact_phone": "+81 597-22-5898", "contact_email": null, "status": 1, "source_type": 1, "numberReviews": 0}, {"name": "Icchan Part2", "type": "restaurant", "image": null, "address": "309 Aiga Miyama-Ku, Kihoku-cho, Kitamuro-gun 519-3406 Mie Prefecture", "lat": 34.111794, "lng": 136.22446, "ref_id": 10007852, "rating": -1, "num_reviews": 0, "website": null, "contact_phone": "+81 597-32-2162", "contact_email": null, "status": 1, "source_type": 1, "numberReviews": 0}, {"name": "Okonomiyaki Washio", "type": "restaurant", "image": null, "address": "10-43 Nanyocho, Owase 519-3614 Mie Prefecture", "lat": 34.068928, "lng": 136.19173, "ref_id": 9653993, "rating": -1, "num_reviews": 0, "website": null, "contact_phone": "+81 597-23-3214", "contact_email": null, "status": 1, "source_type": 1, "numberReviews": 0}, {"name": "Alive", "type": "restaurant", "image": null, "address": "9-34 Chuocho, Owase 519-3615 Mie Prefecture", "lat": 34.070198, "lng": 136.19157, "ref_id": 9666264, "rating": -1, "num_reviews": 0, "website": null, "contact_phone": "+81 597-22-9966", "contact_email": null, "status": 1, "source_type": 1, "numberReviews": 0}, {"name": "Chez Maman Rukupuru Cafe", "type": "restaurant", "image": null, "address": "195-1 Mukai, Owase 519-3625 Mie Prefecture", "lat": 34.060123, "lng": 136.2138, "ref_id": 14728072, "rating": -1, "num_reviews": 0, "website": null, "contact_phone": "+81 597-23-8556", "contact_email": null, "status": 1, "source_type": 1, "numberReviews": 0}, {"name": "Studio Top", "type": "restaurant", "image": null, "address": "6-14 Nojicho, Owase 519-3617 Mie Prefecture", "lat": 34.076954, "lng": 136.19188, "ref_id": 13041763, "rating": -1, "num_reviews": 0, "website": null, "contact_phone": "+81 597-25-2088", "contact_email": null, "status": 1, "source_type": 1, "numberReviews": 0}, {"name": "Gonta", "type": "restaurant", "image": null, "address": "8-6 Nakai-Machi, Owase Mie Prefecture", "lat": 34.075768, "lng": 136.19627, "ref_id": 7587330, "rating": -1, "num_reviews": 0, "website": null, "contact_phone": "+81 597-23-0335", "contact_email": null, "status": 1, "source_type": 1, "numberReviews": 0}, {"name": "Shiki No Sato Hongo", "type": "restaurant", "image": null, "address": "150 Asukacho Kozaka, Kumano Mie Prefecture", "lat": 33.950066, "lng": 136.09773, "ref_id": 7586690, "rating": -1, "num_reviews": 0, "website": null, "contact_phone": "+81 597-84-0567", "contact_email": null, "status": 1, "source_type": 1, "numberReviews": 0}, {"name": "Sanae", "type": "restaurant", "image": null, "address": "12-26 Nojicho, Owase Mie Prefecture", "lat": 34.076305, "lng": 136.19073, "ref_id": 7671080, "rating": -1, "num_reviews": 0, "website": null, "contact_phone": "+81 597-22-8668", "contact_email": null, "status": 1, "source_type": 1, "numberReviews": 0}, {"name": "Sakae", "type": "restaurant", "image": null, "address": "3-11 Nojimachi, Owase Mie Prefecture", "lat": 34.07513, "lng": 136.19203, "ref_id": 7587331, "rating": -1, "num_reviews": 0, "website": null, "contact_phone": "+81 597-22-6352", "contact_email": null, "status": 1, "source_type": 1, "numberReviews": 0}, {"name": "Cafe", "type": "restaurant", "image": null, "address": "11-4 Nakai-Machi, Owase Mie Prefecture", "lat": 34.07491, "lng": 136.19717, "ref_id": 7587327, "rating": -1, "num_reviews": 0, "website": null, "contact_phone": "+81 597-22-7010", "contact_email": null, "status": 1, "source_type": 1, "numberReviews": 0}, {"name": "Uchihon Sakanaten", "type": "restaurant", "image": null, "address": "6-8 Nakamuracho, Owase 519-3616 Mie Prefecture", "lat": 34.072906, "lng": 136.19202, "ref_id": 14857030, "rating": -1, "num_reviews": 0, "website": null, "contact_phone": "+81 597-22-2765", "contact_email": null, "status": 1, "source_type": 1, "numberReviews": 0}, {"name": "Hana", "type": "restaurant", "image": null, "address": "75-3 Mukai, Owase Mie Prefecture", "lat": 34.063057, "lng": 136.21326, "ref_id": 7587393, "rating": -1, "num_reviews": 0, "website": null, "contact_phone": "+81 597-23-2208", "contact_email": null, "status": 1, "source_type": 1, "numberReviews": 0}, {"name": "Kasuichi", "type": "restaurant", "image": null, "address": "1-580-11 Yanohama, Owase 519-3671 Mie Prefecture", "lat": 34.064453, "lng": 136.19954, "ref_id": 13041681, "rating": -1, "num_reviews": 0, "website": null, "contact_phone": "+81 597-25-0213", "contact_email": null, "status": 1, "source_type": 1, "numberReviews": 0}, {"name": "Koshiya", "type": "restaurant", "image": null, "address": "804 Noji-Machi, Owase Mie Prefecture", "lat": 34.07587, "lng": 136.19075, "ref_id": 7670715, "rating": -1, "num_reviews": 0, "website": null, "contact_phone": "+81 597-22-0887", "contact_email": null, "status": 1, "source_type": 1, "numberReviews": 0}, {"name": "Ayachan", "type": "restaurant", "image": null, "address": "6-13 Nojicho, Owase Mie Prefecture", "lat": 34.077007, "lng": 136.1921, "ref_id": 7587315, "rating": -1, "num_reviews": 0, "website": null, "contact_phone": "+81 597-22-6862", "contact_email": null, "status": 1, "source_type": 1, "numberReviews": 0}, {"name": "Etoile Kikuya", "type": "restaurant", "image": null, "address": "817-11 Aiga, Kihoku-cho, Kitamuro-gun 519-3406 Mie Prefecture", "lat": 34.113758, "lng": 136.22408, "ref_id": 13041627, "rating": -1, "num_reviews": 0, "website": null, "contact_phone": "+81 597-32-2717", "contact_email": null, "status": 1, "source_type": 1, "numberReviews": 0}, {"name": "Apricot", "type": "restaurant", "image": null, "address": "3-34 Nakamuracho, Owase Mie Prefecture", "lat": 34.074047, "lng": 136.19498, "ref_id": 7661449, "rating": -1, "num_reviews": 0, "website": null, "contact_phone": "+81 597-22-8008", "contact_email": null, "status": 1, "source_type": 1, "numberReviews": 0}, {"name": "Kiku Sushi", "type": "restaurant", "image": null, "address": "849-2 Aiga Kaizan-Ku, Kihoku-cho, Kitamuro-gun Mie Prefecture", "lat": 34.112057, "lng": 136.22362, "ref_id": 7636470, "rating": -1, "num_reviews": 0, "website": null, "contact_phone": "+81 597-32-2036", "contact_email": null, "status": 1, "source_type": 1, "numberReviews": 0}, {"name": "Yajikita", "type": "restaurant", "image": null, "address": "3-9 Nakai-Machi, Owase Mie Prefecture", "lat": 34.07524, "lng": 136.19775, "ref_id": 7587378, "rating": -1, "num_reviews": 0, "website": null, "contact_phone": "+81 597-22-0374", "contact_email": null, "status": 1, "source_type": 1, "numberReviews": 0}, {"name": "Unagiokowashuyo", "type": "restaurant", "image": null, "address": "4-2-2 Yanohama, Owase Mie Prefecture", "lat": 34.058136, "lng": 136.19981, "ref_id": 1695913, "rating": -1, "num_reviews": 0, "website": "", "contact_phone": "+81 597-22-6348", "contact_email": "", "status": 1, "source_type": 1, "numberReviews": 0}, {"name": "Hagi", "type": "restaurant", "image": null, "address": "480-117 Aiga Miyama-Ku, Kihoku-cho, Kitamuro-gun Mie Prefecture", "lat": 34.11212, "lng": 136.22794, "ref_id": 7479243, "rating": -1, "num_reviews": 0, "website": null, "contact_phone": "+81 597-32-2424", "contact_email": null, "status": 1, "source_type": 1, "numberReviews": 0}, {"name": "Kokoro", "type": "restaurant", "image": null, "address": "574-2 Miyamaku Aiga, Kihoku-cho, Kitamuro-gun Mie Prefecture", "lat": 34.108364, "lng": 136.2255, "ref_id": 7479197, "rating": -1, "num_reviews": 0, "website": null, "contact_phone": "+81 597-32-2678", "contact_email": null, "status": 1, "source_type": 1, "numberReviews": 0}, {"name": "Collector", "type": "restaurant", "image": null, "address": "12 Nojimachi Ekimae Daini Biora Bldg. 1F, Owase 519-3617 Mie Prefecture", "lat": 34.07595, "lng": 136.19138, "ref_id": 9654002, "rating": -1, "num_reviews": 0, "website": null, "contact_phone": "+81 597-22-6599", "contact_email": null, "status": 1, "source_type": 1, "numberReviews": 0}, {"name": "Takoyaki Maya", "type": "restaurant", "image": null, "address": "12-5 Shimakatsuura Miyama-Ku, Kihoku-cho, Kitamuro-gun 519-3412 Mie Prefecture", "lat": 34.121677, "lng": 136.28214, "ref_id": 10009173, "rating": -1, "num_reviews": 0, "website": null, "contact_phone": "+81 597-39-1237", "contact_email": null, "status": 1, "source_type": 1, "numberReviews": 0}, {"name": "Uoken", "type": "restaurant", "image": null, "address": "28-33 Oyamaura Miyama-Ku, Kihoku-cho, Kitamuro-gun Mie Prefecture", "lat": 34.105885, "lng": 136.22076, "ref_id": 7639986, "rating": -1, "num_reviews": 0, "website": null, "contact_phone": "+81 597-32-0139", "contact_email": null, "status": 1, "source_type": 1, "numberReviews": 0}, {"name": "Uomasa", "type": "restaurant", "image": null, "address": "2410-2 Kawashima Matsukuramachi, Kakamigahara 501-6022 Gifu Prefecture", "lat": 35.365692, "lng": 136.83286, "ref_id": 6057294, "rating": -1, "num_reviews": 0, "website": null, "contact_phone": "+81 586-89-3817", "contact_email": null, "status": 1, "source_type": 1, "numberReviews": 0}, {"name": "Nomuraya", "type": "restaurant", "image": null, "address": "2713-6 Kuwabaracho Yagami, Hashima 501-6321 Gifu Prefecture", "lat": 35.26929, "lng": 136.67949, "ref_id": 13033484, "rating": -1, "num_reviews": 0, "website": null, "contact_phone": "+81 58-398-8451", "contact_email": null, "status": 1, "source_type": 1, "numberReviews": 0}, {"name": "Nick's", "type": "restaurant", "image": null, "address": "2-16 Yatsuderamachi, Gifu 500-8825 Gifu Prefecture", "lat": 35.421284, "lng": 136.7584, "ref_id": 5123720, "rating": -1, "num_reviews": 0, "website": null, "contact_phone": "+81 58-265-3428", "contact_email": null, "status": 1, "source_type": 1, "numberReviews": 0}, {"name": "Daisuke", "type": "restaurant", "image": null, "address": "6-1-12 Kitajima, Gifu Gifu Prefecture", "lat": 35.429585, "lng": 136.73215, "ref_id": 7406245, "rating": -1, "num_reviews": 0, "website": null, "contact_phone": "+81 58-295-0660", "contact_email": null, "status": 1, "source_type": 1, "numberReviews": 0}, {"name": "Stamina Roho Kakazan", "type": "restaurant", "image": null, "address": "8-9-1 Kanda-Machi, Gifu Gifu Prefecture", "lat": 35.41239, "lng": 136.75992, "ref_id": 7406089, "rating": -1, "num_reviews": 0, "website": null, "contact_phone": "+81 58-263-5004", "contact_email": null, "status": 1, "source_type": 1, "numberReviews": 0}, {"name": "Shiki", "type": "restaurant", "image": null, "address": "1555 Egiracho, Hashima Gifu Prefecture", "lat": 35.311916, "lng": 136.70358, "ref_id": 7588434, "rating": -1, "num_reviews": 0, "website": null, "contact_phone": "+81 58-391-6154", "contact_email": null, "status": 1, "source_type": 1, "numberReviews": 0}, {"name": "Shokado", "type": "restaurant", "image": null, "address": "1-5 Matsuyacho, Gifu 500-8084 Gifu Prefecture", "lat": 35.42932, "lng": 136.7649, "ref_id": 13033654, "rating": -1, "num_reviews": 0, "website": null, "contact_phone": "+81 58-262-5741", "contact_email": null, "status": 1, "source_type": 1, "numberReviews": 0}, {"name": "Aya", "type": "restaurant", "image": null, "address": "1-15 Takasagocho Yamanaka Bldg. 1F, Ogaki 503-0889 Gifu Prefecture", "lat": 35.363438, "lng": 136.6164, "ref_id": 9666066, "rating": -1, "num_reviews": 0, "website": null, "contact_phone": "+81 584-75-5618", "contact_email": null, "status": 1, "source_type": 1, "numberReviews": 0}, {"name": "Yakiniku Juttsubotei Hommachi", "type": "restaurant", "image": null, "address": "2-4-5 Hommachi, Ichinomiya 491-0859 Qu\u00e2\u0323n Aichi", "lat": 35.30474, "lng": 136.80188, "ref_id": 16886671, "rating": -1, "num_reviews": 0, "website": null, "contact_phone": "+81 586-73-2900", "contact_email": null, "status": 1, "source_type": 1, "numberReviews": 0}, {"name": "Yumejidai", "type": "restaurant", "image": null, "address": "4-117-2 Ajikacho, Hashima 501-6207 Gifu Prefecture", "lat": 35.340008, "lng": 136.71652, "ref_id": 9686698, "rating": -1, "num_reviews": 0, "website": null, "contact_phone": "+81 58-391-1036", "contact_email": null, "status": 1, "source_type": 1, "numberReviews": 0}, {"name": "Kotengu", "type": "restaurant", "image": "https://dynamic-media-cdn.tripadvisor.com/media/photo-o/0a/ef/e0/2c/caption.jpg?w=1000&s=1", "address": "3-25 Wakamiyacho, Gifu Gifu Prefecture", "lat": 35.41973, "lng": 136.76126, "ref_id": 7670158, "rating": -1, "num_reviews": 0, "website": null, "contact_phone": "+81 58-262-7375", "contact_email": null, "status": 1, "source_type": 1, "numberReviews": 0}, {"name": "Tarafuku", "type": "restaurant", "image": null, "address": "1-9-8 Heiwa, Ichinomiya 491-0905 Qu\u00e2\u0323n Aichi", "lat": 35.30115, "lng": 136.7939, "ref_id": 15059994, "rating": -1, "num_reviews": 0, "website": null, "contact_phone": "+81 586-44-0971", "contact_email": null, "status": 1, "source_type": 1, "numberReviews": 0}, {"name": "Nakau Ichinomiya Park Dori", "type": "restaurant", "image": null, "address": "6-2 Koendori, Ichinomiya 491-0842 Qu\u00e2\u0323n Aichi", "lat": 35.29367, "lng": 136.8037, "ref_id": 17410899, "rating": -1, "num_reviews": 0, "website": "https://maps.nakau.co.jp/jp/detail/2515.html", "contact_phone": "+81 120-295-770", "contact_email": null, "status": 1, "source_type": 1, "numberReviews": 0}, {"name": "Ramen Mensaika", "type": "restaurant", "image": null, "address": "2-13 Takayaiseden, Kitagata-cho, Motosu-gun 501-0455 Gifu Prefecture", "lat": 35.41263, "lng": 136.68872, "ref_id": 19409126, "rating": -1, "num_reviews": 0, "website": null, "contact_phone": "+81 50-5304-8569", "contact_email": null, "status": 1, "source_type": 1, "numberReviews": 0}, {"name": "Dream Akane", "type": "restaurant", "image": null, "address": "1-52 Akanabe Hongo, Gifu 500-8262 Gifu Prefecture", "lat": 35.39455, "lng": 136.75298, "ref_id": 13032892, "rating": -1, "num_reviews": 0, "website": null, "contact_phone": "+81 58-274-6251", "contact_email": null, "status": 1, "source_type": 1, "numberReviews": 0}, {"name": "Tashizan to Hikizan", "type": "restaurant", "image": null, "address": "2-12-4 Noguchi, Ichinomiya 491-0911 Qu\u00e2\u0323n Aichi", "lat": 35.297756, "lng": 136.7935, "ref_id": 20032575, "rating": -1, "num_reviews": 0, "website": "https://tashizan-hikizan.com/", "contact_phone": "+81 90-6615-7003", "contact_email": null, "status": 1, "source_type": 1, "numberReviews": 0}, {"name": "Coco Ichibanya Yanaizu", "type": "restaurant", "image": null, "address": "4-44 Yanaizucho Hongo, Gifu 501-6104 Gifu Prefecture", "lat": 35.368347, "lng": 136.74535, "ref_id": 5114360, "rating": -1, "num_reviews": 0, "website": "http://www.ichibanya.co.jp/index.html", "contact_phone": "+81 58-387-4795", "contact_email": null, "status": 1, "source_type": 1, "numberReviews": 0}, {"name": "Manekineko Gifu Kitakata", "type": "restaurant", "image": null, "address": "7-51 Heisei Kitagata-Cho, Kitagata-cho, Motosu-gun 501-0438 Gifu Prefecture", "lat": 35.430416, "lng": 136.68108, "ref_id": 13255084, "rating": -1, "num_reviews": 0, "website": null, "contact_phone": "+81 58-323-7988", "contact_email": null, "status": 1, "source_type": 1, "numberReviews": 0}, {"name": "Karayoshi Itinomiya Ushino", "type": "restaurant", "image": null, "address": "3 Yamatocho Miyaji Hanaike Takami, Ichinomiya 491-0847 Qu\u00e2\u0323n Aichi", "lat": 35.29004, "lng": 136.80547, "ref_id": 20898841, "rating": -1, "num_reviews": 0, "website": "https://store-info.skylark.co.jp/karayoshi/map/018244", "contact_phone": "+81 586-26-1010", "contact_email": null, "status": 1, "source_type": 1, "numberReviews": 0}, {"name": "Kanemitsu Kagashima", "type": "restaurant", "image": null, "address": "3-10-6 Kagashimaseika, Gifu 501-0112 Gifu Prefecture", "lat": 35.413223, "lng": 136.71935, "ref_id": 9669952, "rating": -1, "num_reviews": 0, "website": null, "contact_phone": "+81 58-253-5722", "contact_email": null, "status": 1, "source_type": 1, "numberReviews": 0}, {"name": "Yurakuen", "type": "restaurant", "image": null, "address": "367-1 Koebi, Ono-cho, Ibi-gun Gifu Prefecture", "lat": 35.46174, "lng": 136.62776, "ref_id": 7671263, "rating": -1, "num_reviews": 0, "website": null, "contact_phone": "+81 585-32-0045", "contact_email": null, "status": 1, "source_type": 1, "numberReviews": 0}, {"name": "Tomo", "type": "restaurant", "image": null, "address": "11 Kibune Okumachi, Ichinomiya 491-0201 Qu\u00e2\u0323n Aichi", "lat": 35.327652, "lng": 136.75761, "ref_id": 13084756, "rating": -1, "num_reviews": 0, "website": null, "contact_phone": "+81 586-62-9496", "contact_email": null, "status": 1, "source_type": 1, "numberReviews": 0}, {"name": "Manraku", "type": "restaurant", "image": null, "address": "1-14-14 Suehiro, Ichinomiya 491-0918 Qu\u00e2\u0323n Aichi", "lat": 35.295643, "lng": 136.79341, "ref_id": 9940966, "rating": -1, "num_reviews": 0, "website": null, "contact_phone": "+81 586-85-8621", "contact_email": null, "status": 1, "source_type": 1, "numberReviews": 0}, {"name": "Chiso Dining Shuraku", "type": "restaurant", "image": null, "address": "1-59 Takayashiraki Kitagata-Cho, Kitagata-cho, Motosu-gun 501-0454 Gifu Prefecture", "lat": 35.41867, "lng": 136.6913, "ref_id": 14726962, "rating": -1, "num_reviews": 0, "website": null, "contact_phone": "+81 58-323-3664", "contact_email": null, "status": 1, "source_type": 1, "numberReviews": 0}, {"name": "English-Chan Bento", "type": "restaurant", "image": null, "address": "22-15 Fukumitsu Minami-Machi, Gifu 502-0815 Gifu Prefecture", "lat": 35.449703, "lng": 136.76875, "ref_id": 13032911, "rating": -1, "num_reviews": 0, "website": null, "contact_phone": "+81 58-231-8015", "contact_email": null, "status": 1, "source_type": 1, "numberReviews": 0}, {"name": "Yu Cafe", "type": "restaurant", "image": null, "address": "27 Nakatakeyacho, Gifu Gifu Prefecture", "lat": 35.42984, "lng": 136.76521, "ref_id": 7406180, "rating": -1, "num_reviews": 0, "website": null, "contact_phone": "+81 58-214-7456", "contact_email": null, "status": 1, "source_type": 1, "numberReviews": 0}, {"name": "Maruko-En", "type": "restaurant", "image": null, "address": "628-9 Tsurumicho, Ogaki Gifu Prefecture", "lat": 35.360344, "lng": 136.64198, "ref_id": 7579044, "rating": -1, "num_reviews": 0, "website": null, "contact_phone": "+81 584-73-3723", "contact_email": null, "status": 1, "source_type": 1, "numberReviews": 0}, {"name": "Bolsa Aeontownogaki", "type": "restaurant", "image": null, "address": "463-1 Mitsuzukacho, Ogaki Gifu Prefecture", "lat": 35.36535, "lng": 136.62874, "ref_id": 7578875, "rating": -1, "num_reviews": 0, "website": null, "contact_phone": "+81 584-74-0121", "contact_email": null, "status": 1, "source_type": 1, "numberReviews": 0}, {"name": "Ryusen Hosobatake", "type": "restaurant", "image": null, "address": "4-11-12 Hosobata, Gifu 500-8238 Gifu Prefecture", "lat": 35.400677, "lng": 136.79018, "ref_id": 9669986, "rating": -1, "num_reviews": 0, "website": null, "contact_phone": "+81 58-248-9838", "contact_email": null, "status": 1, "source_type": 1, "numberReviews": 0}, {"name": "And Road", "type": "restaurant", "image": null, "address": "1-72 Saikawa, Mizuho 501-0237 Gifu Prefecture", "lat": 35.370167, "lng": 136.6724, "ref_id": 13258507, "rating": -1, "num_reviews": 0, "website": null, "contact_phone": "+81 58-326-6947", "contact_email": null, "status": 1, "source_type": 1, "numberReviews": 0}, {"name": "Meshi-Dokoro Zeni-Ya", "type": "restaurant", "image": "https://dynamic-media-cdn.tripadvisor.com/media/photo-o/18/02/22/3c/caption.jpg?w=1000&s=1", "address": "7-26 Mizuhotori Mizuho-Ku, Nagoya Qu\u00e2\u0323n Aichi", "lat": 35.121014, "lng": 136.93634, "ref_id": 7402157, "rating": 4.5, "num_reviews": 0, "website": null, "contact_phone": "+81 52-842-7398", "contact_email": null, "status": 1, "source_type": 1, "numberReviews": 2}, {"name": "Muten Kura Sushi Jimokuji", "type": "restaurant", "image": "https://dynamic-media-cdn.tripadvisor.com/media/photo-o/0b/c6/07/ed/photo7jpg.jpg?w=1000&s=1", "address": "125-1 Sakamaki, Ama 490-1115 Qu\u00e2\u0323n Aichi", "lat": 35.18343, "lng": 136.83241, "ref_id": 4907161, "rating": 3.5, "num_reviews": 0, "website": null, "contact_phone": "+81 52-462-0610", "contact_email": null, "status": 1, "source_type": 1, "numberReviews": 8}, {"name": "First Kitchen", "type": "restaurant", "image": "https://dynamic-media-cdn.tripadvisor.com/media/photo-o/19/4a/98/98/dsc-1022-largejpg.jpg?w=1000&s=1", "address": "7-1-2 Nagano, Inazawa Qu\u00e2\u0323n Aichi", "lat": 35.26125, "lng": 136.81892, "ref_id": 7582372, "rating": 3.5, "num_reviews": 0, "website": null, "contact_phone": "+81 587-22-3117", "contact_email": null, "status": 1, "source_type": 1, "numberReviews": 6}, {"name": "Chusuke", "type": "restaurant", "image": "https://dynamic-media-cdn.tripadvisor.com/media/photo-o/0f/33/b7/7d/photo0jpg.jpg?w=1000&s=1", "address": "6-9 Tsubakicho, Nakamura-Ku Esca Underground Shopping Center, Nagoya 453-8565 Qu\u00e2\u0323n Aichi", "lat": 35.17034, "lng": 136.87943, "ref_id": 1704263, "rating": 3.5, "num_reviews": 0, "website": "http://www.esca-sc.com/rest_cafe_0041.html", "contact_phone": "+81 52-452-0707", "contact_email": "", "status": 1, "source_type": 1, "numberReviews": 13}, {"name": "Naoto", "type": "restaurant", "image": "https://dynamic-media-cdn.tripadvisor.com/media/photo-o/2a/2d/ca/6c/caption.jpg?w=1000&s=1", "address": "2-2-8 Jingu, Atsuta-Ku Kasai Bldg. 1F, Nagoya 456-0031 Qu\u00e2\u0323n Aichi", "lat": 35.12295, "lng": 136.91107, "ref_id": 9917213, "rating": 4, "num_reviews": 0, "website": null, "contact_phone": "+81 52-681-7558", "contact_email": null, "status": 1, "source_type": 1, "numberReviews": 2}, {"name": "Otaya Main Store", "type": "restaurant", "image": "https://dynamic-media-cdn.tripadvisor.com/media/photo-o/11/62/82/79/caption.jpg?w=1000&s=1", "address": "1-2-2 Omiya, Ichinomiya Qu\u00e2\u0323n Aichi", "lat": 35.30682, "lng": 136.79968, "ref_id": 7582103, "rating": 3.5, "num_reviews": 0, "website": null, "contact_phone": "+81 586-72-3136", "contact_email": null, "status": 1, "source_type": 1, "numberReviews": 7}, {"name": "Yayoiken Nagoyaobata", "type": "restaurant", "image": "https://dynamic-media-cdn.tripadvisor.com/media/photo-o/15/05/fa/b1/caption.jpg?w=1000&s=1", "address": "1-1-27 Obataminami, Moriyama-Ku, Nagoya 463-0048 Qu\u00e2\u0323n Aichi", "lat": 35.19631, "lng": 136.97652, "ref_id": 12952027, "rating": 4, "num_reviews": 0, "website": "http://www.yayoiken.com/store/detail.php?store_id=3739", "contact_phone": "+81 52-758-5030", "contact_email": null, "status": 1, "source_type": 1, "numberReviews": 4}, {"name": "Kitchen Daishin", "type": "restaurant", "image": "https://dynamic-media-cdn.tripadvisor.com/media/photo-o/21/ca/c9/de/caption.jpg?w=1000&s=1", "address": "1-13-14 Imaike, Chikusa-ku, Nagoya Qu\u00e2\u0323n Aichi", "lat": 35.16824, "lng": 136.93573, "ref_id": 3855240, "rating": 4, "num_reviews": 0, "website": null, "contact_phone": "+81 52-731-0220", "contact_email": null, "status": 1, "source_type": 1, "numberReviews": 2}, {"name": "Denny's, Kasugai Bypass", "type": "restaurant", "image": "https://dynamic-media-cdn.tripadvisor.com/media/photo-o/1b/43/cd/57/caption.jpg?w=1000&s=1", "address": "4-12 Toriimatsucho, Kasugai 486-0844 Qu\u00e2\u0323n Aichi", "lat": 35.247322, "lng": 136.97025, "ref_id": 6153889, "rating": 3.5, "num_reviews": 0, "website": "http://lbs.mapion.co.jp/map/uc/PoiInfo?grp=sevenandi_fs&poi_code=02379&vo=mbml&br=02&myshop=&opt=", "contact_phone": "+81 568-84-1261", "contact_email": null, "status": 1, "source_type": 1, "numberReviews": 6}, {"name": "Boite Blanche", "type": "restaurant", "image": "https://dynamic-media-cdn.tripadvisor.com/media/photo-o/18/a0/84/bf/photo0jpg.jpg?w=1000&s=1", "address": "1-1-51 Heian, Kita-ku, Nagoya 462-0819 Qu\u00e2\u0323n Aichi", "lat": 35.19304, "lng": 136.93034, "ref_id": 3233253, "rating": 4, "num_reviews": 0, "website": null, "contact_phone": "+81 52-919-6676", "contact_email": null, "status": 1, "source_type": 1, "numberReviews": 8}, {"name": "Torikai Sohonke Nishiki", "type": "restaurant", "image": "https://dynamic-media-cdn.tripadvisor.com/media/photo-o/11/44/23/35/img-20171110-173936-largejpg.jpg?w=1000&s=1", "address": "3-21-14 Nishiki Astor Bldg. 1F, Naka, Nagoya 460-0003 Qu\u00e2\u0323n Aichi", "lat": 35.169125, "lng": 136.90308, "ref_id": 4906161, "rating": 3.5, "num_reviews": 0, "website": null, "contact_phone": "+81 52-955-8808", "contact_email": null, "status": 1, "source_type": 1, "numberReviews": 9}, {"name": "Issei", "type": "restaurant", "image": "https://dynamic-media-cdn.tripadvisor.com/media/photo-o/16/a6/76/0c/caption.jpg?w=1000&s=1", "address": "123-1 Fujigaoka, Meito-Ku, Nagoya 465-0032 Qu\u00e2\u0323n Aichi", "lat": 35.18354, "lng": 137.02017, "ref_id": 13025157, "rating": 5, "num_reviews": 0, "website": null, "contact_phone": "+81 52-771-5527", "contact_email": null, "status": 1, "source_type": 1, "numberReviews": 2}, {"name": "Dong Khoi Mon An Viet Nam", "type": "restaurant", "image": "https://dynamic-media-cdn.tripadvisor.com/media/photo-o/04/9c/0d/4b/caption_rotated_90.jpg?w=1000&s=1", "address": "41 Kawaicho Hakusan, Iwakura Qu\u00e2\u0323n Aichi", "lat": 35.26493, "lng": 136.86842, "ref_id": 3883659, "rating": 4, "num_reviews": 0, "website": null, "contact_phone": "+81 587-37-2221", "contact_email": null, "status": 1, "source_type": 1, "numberReviews": 9}, {"name": "Yakiniku Hachiya", "type": "restaurant", "image": "https://dynamic-media-cdn.tripadvisor.com/media/photo-o/19/2a/fa/fc/photo4jpg.jpg?w=1000&s=1", "address": "1-207 Sakuta, Nagakute 480-1153 Qu\u00e2\u0323n Aichi", "lat": 35.179188, "lng": 137.02754, "ref_id": 17362291, "rating": 4.5, "num_reviews": 0, "website": null, "contact_phone": "+81 561-63-8077", "contact_email": null, "status": 1, "source_type": 1, "numberReviews": 2},