[{"name": "Nagono Salon", "type": "restaurant", "image": "https://dynamic-media-cdn.tripadvisor.com/media/photo-o/0a/53/9d/42/caption.jpg?w=1000&s=1", "address": "1-36-29 Nagono Nishi-Ku, Nagoya Qu\u00e2\u0323n Aichi", "lat": 35.173878, "lng": 136.89235, "ref_id": 7401514, "rating": 4, "num_reviews": 0, "website": null, "contact_phone": "+81 52-586-3373", "contact_email": null, "status": 1, "source_type": 1, "numberReviews": 6}, {"name": "Ramen Kairikiya Kanare", "type": "restaurant", "image": "https://dynamic-media-cdn.tripadvisor.com/media/photo-o/18/12/c7/bc/caption.jpg?w=1000&s=1", "address": "2-111 Yamanote, Meito-Ku, Nagoya 465-0011 Qu\u00e2\u0323n Aichi", "lat": 35.186134, "lng": 136.99219, "ref_id": 14725348, "rating": 4.5, "num_reviews": 0, "website": null, "contact_phone": "+81 75-211-3338", "contact_email": null, "status": 1, "source_type": 1, "numberReviews": 5}, {"name": "Kappa Sushi Nagoya Shirakabe", "type": "restaurant", "image": "https://dynamic-media-cdn.tripadvisor.com/media/photo-o/1d/03/1f/f2/img20210522131618-largejpg.jpg?w=1000&s=1", "address": "3-11-25 Shirakabe Higashi-Ku, Nagoya Qu\u00e2\u0323n Aichi", "lat": 35.183514, "lng": 136.91508, "ref_id": 7400504, "rating": 3.5, "num_reviews": 0, "website": "http://www.kappasushi.jp/", "contact_phone": "+81 52-930-6801", "contact_email": null, "status": 1, "source_type": 1, "numberReviews": 9}, {"name": "Subway Mei Station Underground Unimall", "type": "restaurant", "image": null, "address": "4-5-26 Meieki, Nakamura-Ku Unimall, Nagoya 450-0002 Qu\u00e2\u0323n Aichi", "lat": 35.171333, "lng": 136.88623, "ref_id": 10654901, "rating": 4, "num_reviews": 0, "website": null, "contact_phone": "+81 52-462-8316", "contact_email": null, "status": 1, "source_type": 1, "numberReviews": 7}, {"name": "Ma Maison Hoshigaoka Honten", "type": "restaurant", "image": "https://dynamic-media-cdn.tripadvisor.com/media/photo-o/0f/fe/0b/03/caption.jpg?w=1000&s=1", "address": "1-15 Sakusaku Hoshigaokamotomachi, Nagoya 464-0802 Qu\u00e2\u0323n Aichi", "lat": 35.160534, "lng": 136.98045, "ref_id": 3865589, "rating": 4, "num_reviews": 0, "website": "http://www.ma-maison.co.jp/404.php", "contact_phone": "+81 52-781-6562", "contact_email": null, "status": 1, "source_type": 1, "numberReviews": 32}, {"name": "Okinawa Takarajima Nirai Nagoya", "type": "restaurant", "image": "https://dynamic-media-cdn.tripadvisor.com/media/photo-o/1b/69/81/6e/caption.jpg?w=1000&s=1", "address": "3-30-40 Banshoji Bldg. 1F, Osu, Naka, Nagoya 460-0011 Qu\u00e2\u0323n Aichi", "lat": 35.159145, "lng": 136.90536, "ref_id": 9920036, "rating": 4, "num_reviews": 0, "website": null, "contact_phone": "+81 52-269-7953", "contact_email": null, "status": 1, "source_type": 1, "numberReviews": 6}, {"name": "Minoya Kitamurasake", "type": "restaurant", "image": "https://dynamic-media-cdn.tripadvisor.com/media/photo-o/0c/9e/69/6c/photo0jpg.jpg?w=1000&s=1", "address": "1-5-33 Yada, Higashi-ku, Nagoya 461-0042 Qu\u00e2\u0323n Aichi", "lat": 35.192394, "lng": 136.93864, "ref_id": 6226270, "rating": 4, "num_reviews": 0, "website": null, "contact_phone": "+81 52-722-0308", "contact_email": null, "status": 1, "source_type": 1, "numberReviews": 5}, {"name": "Komeda Coffee Sakae Hirokoji", "type": "restaurant", "image": null, "address": "3-21-18 Nishiki, Naka, Nagoya 460-0003 Qu\u00e2\u0323n Aichi", "lat": 35.16886, "lng": 136.90306, "ref_id": 6774481, "rating": 4, "num_reviews": 0, "website": "http://www.komeda.co.jp/search/shopdetail.php?id=272", "contact_phone": "+81 52-973-4321", "contact_email": null, "status": 1, "source_type": 1, "numberReviews": 10}, {"name": "Haguriya", "type": "restaurant", "image": "https://dynamic-media-cdn.tripadvisor.com/media/photo-o/17/47/bf/98/line-1555213561860-largejpg.jpg?w=1000&s=1", "address": "2-2-20 Otobashi, Nakagawa-ku, Nagoya Qu\u00e2\u0323n Aichi", "lat": 35.143208, "lng": 136.89229, "ref_id": 3818265, "rating": 3.5, "num_reviews": 0, "website": null, "contact_phone": "+81 52-321-4809", "contact_email": null, "status": 1, "source_type": 1, "numberReviews": 12}, {"name": "Asakuma, Ichinomiya Asano", "type": "restaurant", "image": "https://dynamic-media-cdn.tripadvisor.com/media/photo-o/10/f6/f0/04/photo0jpg.jpg?w=1000&s=1", "address": "18-1 Asano Nishidaido, Ichinomiya 491-0871 Qu\u00e2\u0323n Aichi", "lat": 35.295055, "lng": 136.82585, "ref_id": 7851118, "rating": 4, "num_reviews": 0, "website": "http://www.asakuma.co.jp/shoplist/asano.html", "contact_phone": "+81 586-75-2160", "contact_email": null, "status": 1, "source_type": 1, "numberReviews": 9}, {"name": "Sushiro Nagoya Shinsakae", "type": "restaurant", "image": "https://dynamic-media-cdn.tripadvisor.com/media/photo-o/15/b7/f9/a9/20181213-182308-largejpg.jpg?w=1000&s=1", "address": "1-39-5 Shinsakae, Naka, Nagoya 460-0007 Qu\u00e2\u0323n Aichi", "lat": 35.165775, "lng": 136.9157, "ref_id": 13787566, "rating": 4, "num_reviews": 0, "website": "https://www.akindo-sushiro.co.jp/shop/list.php?city=19&pref=23", "contact_phone": "+81 52-249-8840", "contact_email": null, "status": 1, "source_type": 1, "numberReviews": 7}, {"name": "Shellfish Restaurant Marukei", "type": "restaurant", "image": "https://dynamic-media-cdn.tripadvisor.com/media/photo-o/10/90/7b/f6/shellfish-restaurant.jpg?w=1000&s=1", "address": "3-43-1 Higashi-niomon-tori Street, Osu, Naka, Nagoya 460-0011 Qu\u00e2\u0323n Aichi", "lat": 35.158157, "lng": 136.90427, "ref_id": 4902276, "rating": 4, "num_reviews": 0, "website": null, "contact_phone": "+81 52-251-8541", "contact_email": null, "status": 1, "source_type": 1, "numberReviews": 16}, {"name": "Sushi Urayama", "type": "restaurant", "image": "https://dynamic-media-cdn.tripadvisor.com/media/photo-o/15/b4/d4/7e/dsc-2200-largejpg.jpg?w=1000&s=1", "address": "5-1-33 1F, Sakae, Naka, Nagoya 460-0008 Qu\u00e2\u0323n Aichi", "lat": 35.165455, "lng": 136.90965, "ref_id": 14855627, "rating": 4, "num_reviews": 0, "website": "http://sushi-urayama.com/jp/", "contact_phone": "+81 52-251-3366", "contact_email": null, "status": 1, "source_type": 1, "numberReviews": 5}, {"name": "Umaya Ramen Nishiki", "type": "restaurant", "image": "https://dynamic-media-cdn.tripadvisor.com/media/photo-o/0c/37/d2/39/photo1jpg.jpg?w=1000&s=1", "address": "3-20-5 Nishiki, Naka, Nagoya Qu\u00e2\u0323n Aichi", "lat": 35.17039, "lng": 136.90262, "ref_id": 3857955, "rating": 4, "num_reviews": 0, "website": "http://www.umaya.co.jp/", "contact_phone": "+81 52-957-3444", "contact_email": null, "status": 1, "source_type": 1, "numberReviews": 11}, {"name": "Mogni", "type": "restaurant", "image": "https://dynamic-media-cdn.tripadvisor.com/media/photo-o/07/43/2f/82/mogni.jpg?w=1000&s=1", "address": "2-20-7 Nagono Nishi-Ku, Nagoya Qu\u00e2\u0323n Aichi", "lat": 35.175785, "lng": 136.88948, "ref_id": 7404531, "rating": 4, "num_reviews": 0, "website": null, "contact_phone": "+81 52-564-6092", "contact_email": null, "status": 1, "source_type": 1, "numberReviews": 6}, {"name": "Naniwarobata Hakkaku Dainagoyabldg", "type": "restaurant", "image": "https://dynamic-media-cdn.tripadvisor.com/media/photo-o/0d/29/26/1f/photo5jpg.jpg?w=1000&s=1", "address": "Meieki, Nakamura-Ku, Nagoya 450-0002 Qu\u00e2\u0323n Aichi", "lat": 35.172123, "lng": 136.88457, "ref_id": 1678804, "rating": 4, "num_reviews": 0, "website": "", "contact_phone": "+81 52-551-0728", "contact_email": "", "status": 1, "source_type": 1, "numberReviews": 7}, {"name": "Texas King Steak Aeon Mall Nagakute", "type": "restaurant", "image": "https://dynamic-media-cdn.tripadvisor.com/media/photo-o/19/5c/6c/64/photo1jpg.jpg?w=1000&s=1", "address": "Nagakute Chuo Tochikukaku Seirijigyochinai 5, 10, 11gaiku Aeon Mall Nagakute 3F, Nagakute 480-1100 Qu\u00e2\u0323n Aichi", "lat": 35.173473, "lng": 137.05115, "ref_id": 15080080, "rating": 4.5, "num_reviews": 0, "website": "http://nagakute-aeonmall.com/shop/detail/137", "contact_phone": "+81 561-65-3150", "contact_email": null, "status": 1, "source_type": 1, "numberReviews": 4}, {"name": "Monshushu", "type": "restaurant", "image": "https://dynamic-media-cdn.tripadvisor.com/media/photo-o/01/c7/58/b4/caption.jpg?w=1000&s=1", "address": "2-17-21 Nishiki, Naka, Nagoya 460-0003 Qu\u00e2\u0323n Aichi", "lat": 35.16862, "lng": 136.89824, "ref_id": 1671502, "rating": 4, "num_reviews": 0, "website": null, "contact_phone": "+81 52-222-0551", "contact_email": "", "status": 1, "source_type": 1, "numberReviews": 13}, {"name": "Yama Chan Ramen", "type": "restaurant", "image": "https://dynamic-media-cdn.tripadvisor.com/media/photo-o/14/56/41/21/photo0jpg.jpg?w=1000&s=1", "address": "4-64 Motoyagoto, Tenpaku-Ku, Nagoya 468-0066 Qu\u00e2\u0323n Aichi", "lat": 35.13126, "lng": 136.97733, "ref_id": 873156, "rating": 4, "num_reviews": 0, "website": null, "contact_phone": "+81 52-835-8740", "contact_email": "", "status": 1, "source_type": 1, "numberReviews": 7}, {"name": "Unagitomita", "type": "restaurant", "image": "https://dynamic-media-cdn.tripadvisor.com/media/photo-o/11/44/7a/dc/photo1jpg.jpg?w=1000&s=1", "address": "3-19-1 Kikuzonocho, Showa-Ku, Nagoya Qu\u00e2\u0323n Aichi", "lat": 35.138756, "lng": 136.9408, "ref_id": 7404603, "rating": 4, "num_reviews": 0, "website": null, "contact_phone": "+81 52-853-0386", "contact_email": null, "status": 1, "source_type": 1, "numberReviews": 10}, {"name": "Fujiya Honten", "type": "restaurant", "image": "https://dynamic-media-cdn.tripadvisor.com/media/photo-o/0c/be/2b/28/broiled-eel.jpg?w=1000&s=1", "address": "3-10-8, Sakae, Naka, Nagoya 460-0008 Qu\u00e2\u0323n Aichi", "lat": 35.167427, "lng": 136.90321, "ref_id": 3817609, "rating": 4, "num_reviews": 0, "website": "http://fujiya.me/", "contact_phone": "+81 52-262-4001", "contact_email": null, "status": 1, "source_type": 1, "numberReviews": 9}, {"name": "Kushikatsu Tanaka Osone", "type": "restaurant", "image": "https://dynamic-media-cdn.tripadvisor.com/media/photo-o/19/24/ed/fa/photo0jpg.jpg?w=1000&s=1", "address": "1-4-52 Yamada, Kita-Ku, Nagoya 462-0810 Qu\u00e2\u0323n Aichi", "lat": 35.19335, "lng": 136.9354, "ref_id": 13535763, "rating": 4, "num_reviews": 0, "website": "http://kushi-tanaka.com/restaurant/detail/osone", "contact_phone": "+81 52-914-0094", "contact_email": null, "status": 1, "source_type": 1, "numberReviews": 6}, {"name": "Salle a Manger de Kajino", "type": "restaurant", "image": "https://dynamic-media-cdn.tripadvisor.com/media/photo-o/13/42/10/b8/caption.jpg?w=1000&s=1", "address": "5-33-10 Meieki, Nakamura-Ku, Nagoya 450-0002 Qu\u00e2\u0323n Aichi", "lat": 35.16832, "lng": 136.89098, "ref_id": 4096767, "rating": 4.5, "num_reviews": 0, "website": null, "contact_phone": "+81 52-562-2080", "contact_email": null, "status": 1, "source_type": 1, "numberReviews": 5}, {"name": "Petit Grill Sato", "type": "restaurant", "image": null, "address": "257 Aranakacho, Nakagawa-Ku, Nagoya Qu\u00e2\u0323n Aichi", "lat": 35.133747, "lng": 136.85367, "ref_id": 7401817, "rating": 4.5, "num_reviews": 0, "website": null, "contact_phone": "+81 52-351-6721", "contact_email": null, "status": 1, "source_type": 1, "numberReviews": 8}, {"name": "Marugameseimen, Osu", "type": "restaurant", "image": "https://dynamic-media-cdn.tripadvisor.com/media/photo-o/16/8d/f0/46/20190220-164916-largejpg.jpg?w=1000&s=1", "address": "4-10-66, Osu, Naka, Nagoya 460-0011 Qu\u00e2\u0323n Aichi", "lat": 35.159256, "lng": 136.90648, "ref_id": 9727684, "rating": 3.5, "num_reviews": 0, "website": "http://www.marugame-seimen.com/", "contact_phone": "+81 52-252-9335", "contact_email": null, "status": 1, "source_type": 1, "numberReviews": 13}, {"name": "Flying Dog", "type": "restaurant", "image": "https://dynamic-media-cdn.tripadvisor.com/media/photo-o/11/8b/c6/58/photo0jpg.jpg?w=1000&s=1", "address": "6-11 Hokke Nishimachi, Nakagawa-Ku, Nagoya 454-0937 Qu\u00e2\u0323n Aichi", "lat": 35.12757, "lng": 136.84251, "ref_id": 11664509, "rating": 5, "num_reviews": 0, "website": null, "contact_phone": "+81 52-355-0024", "contact_email": null, "status": 1, "source_type": 1, "numberReviews": 4}, {"name": "Hibino", "type": "restaurant", "image": null, "address": "5-90 Wakakusadori, Kasugai 486-0914 Qu\u00e2\u0323n Aichi", "lat": 35.242954, "lng": 136.96223, "ref_id": 4906548, "rating": 4.5, "num_reviews": 0, "website": "http://kisetsuryourihibino.com/", "contact_phone": "+81 568-29-4741", "contact_email": null, "status": 1, "source_type": 1, "numberReviews": 3}, {"name": "Uochu Honten", "type": "restaurant", "image": "https://dynamic-media-cdn.tripadvisor.com/media/photo-o/0e/6a/50/63/2016-11.jpg?w=1000&s=1", "address": "4-2-29 Nagoya Hirokoji Place 2F, Sakae, Naka, Nagoya 460-0008 Qu\u00e2\u0323n Aichi", "lat": 35.168785, "lng": 136.91087, "ref_id": 3829753, "rating": 4, "num_reviews": 0, "website": "http://www.uochu.net/sakanaya.htm", "contact_phone": "+81 52-264-1212", "contact_email": null, "status": 1, "source_type": 1, "numberReviews": 9}, {"name": "Siculamente", "type": "restaurant", "image": "https://dynamic-media-cdn.tripadvisor.com/media/photo-o/09/96/82/d9/photo0jpg.jpg?w=1000&s=1", "address": "2-3-6 Chiyoda, Naka, Nagoya 460-0012 Qu\u00e2\u0323n Aichi", "lat": 35.15919, "lng": 136.91167, "ref_id": 8760880, "rating": 4.5, "num_reviews": 0, "website": null, "contact_phone": "+81 52-252-5090", "contact_email": null, "status": 1, "source_type": 1, "numberReviews": 6}, {"name": "Honha", "type": "restaurant", "image": null, "address": "734-1 Hachiman-Yama, Tenpaku-Ku, Nagoya Qu\u00e2\u0323n Aichi", "lat": 35.133625, "lng": 136.97318, "ref_id": 7401956, "rating": 4.5, "num_reviews": 0, "website": null, "contact_phone": "+81 52-835-8533", "contact_email": null, "status": 1, "source_type": 1, "numberReviews": 5}, {"name": "Full House", "type": "restaurant", "image": null, "address": "3-6-18 Chuocho, Shibata 957-0053 Niigata Prefecture", "lat": 37.94833, "lng": 139.32489, "ref_id": 13044866, "rating": -1, "num_reviews": 0, "website": null, "contact_phone": "+81 254-22-8277", "contact_email": null, "status": 1, "source_type": 1, "numberReviews": 0}, {"name": "Roman-Kan", "type": "restaurant", "image": null, "address": "4-5-15 Chuocho, Shibata Niigata Prefecture", "lat": 37.949715, "lng": 139.32603, "ref_id": 7557180, "rating": -1, "num_reviews": 0, "website": null, "contact_phone": "+81 254-26-0576", "contact_email": null, "status": 1, "source_type": 1, "numberReviews": 0}, {"name": "Kappo Uota", "type": "restaurant", "image": null, "address": "7-38 Nishi Sakaecho, Tainai Niigata Prefecture", "lat": 38.05168, "lng": 139.4003, "ref_id": 7559079, "rating": -1, "num_reviews": 0, "website": null, "contact_phone": "+81 254-43-3851", "contact_email": null, "status": 1, "source_type": 1, "numberReviews": 0}, {"name": "Fukuya Honcho", "type": "restaurant", "image": null, "address": "2-2-2 Honcho, Shibata 957-0054 Niigata Prefecture", "lat": 37.94717, "lng": 139.331, "ref_id": 13044860, "rating": -1, "num_reviews": 0, "website": null, "contact_phone": "+81 254-26-0801", "contact_email": null, "status": 1, "source_type": 1, "numberReviews": 0}, {"name": "Oshokuji Dokoro Iwafune Bekkan", "type": "restaurant", "image": null, "address": "2130-1 Iwafune, Murakami 958-0000 Niigata Prefecture", "lat": 38.185074, "lng": 139.43407, "ref_id": 9655005, "rating": -1, "num_reviews": 0, "website": null, "contact_phone": "+81 254-56-8217", "contact_email": null, "status": 1, "source_type": 1, "numberReviews": 0}, {"name": "Kintsubaya Branch Store", "type": "restaurant", "image": null, "address": "3-10-11 Chuocho, Shibata Niigata Prefecture", "lat": 37.949123, "lng": 139.32559, "ref_id": 7557201, "rating": -1, "num_reviews": 0, "website": null, "contact_phone": "+81 254-22-2301", "contact_email": null, "status": 1, "source_type": 1, "numberReviews": 0}, {"name": "Appoggi Lunghi", "type": "restaurant", "image": null, "address": "1-3-5 Honcho, Shibata Niigata Prefecture", "lat": 37.946682, "lng": 139.33237, "ref_id": 7557062, "rating": -1, "num_reviews": 0, "website": null, "contact_phone": "+81 254-21-4488", "contact_email": null, "status": 1, "source_type": 1, "numberReviews": 0}, {"name": "Montreux", "type": "restaurant", "image": null, "address": "2-4-15 Chuocho, Shibata Niigata Prefecture", "lat": 37.94682, "lng": 139.32744, "ref_id": 7667301, "rating": -1, "num_reviews": 0, "website": null, "contact_phone": "+81 254-26-1526", "contact_email": null, "status": 1, "source_type": 1, "numberReviews": 0}, {"name": "Baron", "type": "restaurant", "image": null, "address": "25-50 Higashihoncho, Tainai 959-2643 Niigata Prefecture", "lat": 38.059444, "lng": 139.40564, "ref_id": 17843648, "rating": -1, "num_reviews": 0, "website": null, "contact_phone": "+81 254-43-6060", "contact_email": null, "status": 1, "source_type": 1, "numberReviews": 0}, {"name": "Senya", "type": "restaurant", "image": null, "address": "3-11-10 Chuocho, Shibata Niigata Prefecture", "lat": 37.94854, "lng": 139.32602, "ref_id": 7557070, "rating": -1, "num_reviews": 0, "website": null, "contact_phone": "+81 254-28-1374", "contact_email": null, "status": 1, "source_type": 1, "numberReviews": 0}, {"name": "Sugayoshi", "type": "restaurant", "image": null, "address": "3006-1 Saka-Machi, Murakami Niigata Prefecture", "lat": 38.10791, "lng": 139.43819, "ref_id": 7557492, "rating": -1, "num_reviews": 0, "website": null, "contact_phone": "+81 254-62-3945", "contact_email": null, "status": 1, "source_type": 1, "numberReviews": 0}, {"name": "Kawasato", "type": "restaurant", "image": null, "address": "2-17-11 Nakatacho, Shibata 957-0006 Niigata Prefecture", "lat": 37.967308, "lng": 139.32834, "ref_id": 9693690, "rating": -1, "num_reviews": 0, "website": null, "contact_phone": "+81 254-24-8863", "contact_email": null, "status": 1, "source_type": 1, "numberReviews": 0}, {"name": "Boo Run Julie Pazapa", "type": "restaurant", "image": null, "address": "4-12-10 Miyukicho, Shibata 957-0057 Niigata Prefecture", "lat": 37.94185, "lng": 139.31306, "ref_id": 13044656, "rating": -1, "num_reviews": 0, "website": null, "contact_phone": "+81 254-26-2287", "contact_email": null, "status": 1, "source_type": 1, "numberReviews": 0}, {"name": "Nishimura Pastry", "type": "restaurant", "image": null, "address": "1818 Tsuiji, Tainai 959-2712 Niigata Prefecture", "lat": 38.05719, "lng": 139.35641, "ref_id": 13045435, "rating": -1, "num_reviews": 0, "website": null, "contact_phone": "+81 254-45-2136", "contact_email": null, "status": 1, "source_type": 1, "numberReviews": 0}, {"name": "Dining Bar Geronimo", "type": "restaurant", "image": null, "address": "3-9-9 Chuocho, Shibata 957-0053 Niigata Prefecture", "lat": 37.950027, "lng": 139.32526, "ref_id": 9642974, "rating": -1, "num_reviews": 0, "website": null, "contact_phone": "+81 254-22-2736", "contact_email": null, "status": 1, "source_type": 1, "numberReviews": 0}, {"name": "Teshigotoya Kiyofusa", "type": "restaurant", "image": null, "address": "3-9-12 Chuocho, Shibata Niigata Prefecture", "lat": 37.94969, "lng": 139.32549, "ref_id": 7557084, "rating": -1, "num_reviews": 0, "website": null, "contact_phone": "+81 254-26-3443", "contact_email": null, "status": 1, "source_type": 1, "numberReviews": 0}, {"name": "Tea Room Poem", "type": "restaurant", "image": null, "address": "4-5-8 Chuocho, Shibata 957-0053 Niigata Prefecture", "lat": 37.950424, "lng": 139.32623, "ref_id": 13045836, "rating": -1, "num_reviews": 0, "website": null, "contact_phone": "+81 254-24-3985", "contact_email": null, "status": 1, "source_type": 1, "numberReviews": 0}, {"name": "Tsukasa", "type": "restaurant", "image": null, "address": "2-1-33 Funairi-Machi, Shibata Niigata Prefecture", "lat": 37.95588, "lng": 139.3128, "ref_id": 7557082, "rating": -1, "num_reviews": 0, "website": null, "contact_phone": "+81 254-24-2355", "contact_email": null, "status": 1, "source_type": 1, "numberReviews": 0}, {"name": "Shogetsu Dou Confectionery", "type": "restaurant", "image": null, "address": "6-30 Honcho, Tainai 959-2645 Niigata Prefecture", "lat": 38.050163, "lng": 139.40286, "ref_id": 13045709, "rating": -1, "num_reviews": 0, "website": null, "contact_phone": "+81 254-43-2248", "contact_email": null, "status": 1, "source_type": 1, "numberReviews": 0}, {"name": "Shokudo Fujikura", "type": "restaurant", "image": null, "address": "1532 Ijimino, Shibata Niigata Prefecture", "lat": 37.92933, "lng": 139.3476, "ref_id": 7557212, "rating": -1, "num_reviews": 0, "website": null, "contact_phone": "+81 254-23-2095", "contact_email": null, "status": 1, "source_type": 1, "numberReviews": 0}, {"name": "Marhaba Restaurant", "type": "restaurant", "image": null, "address": "7-861-2 Higashiko, Seiro-machi, Kitakanbara-gun 957-0101 Niigata Prefecture", "lat": 37.9804, "lng": 139.24924, "ref_id": 13045312, "rating": -1, "num_reviews": 0, "website": null, "contact_phone": "+81 25-288-1218", "contact_email": null, "status": 1, "source_type": 1, "numberReviews": 0}, {"name": "Chinese Dining Karen", "type": "restaurant", "image": null, "address": "4-8-31 Yutakacho, Shibata 957-0016 Niigata Prefecture", "lat": 37.942867, "lng": 139.3405, "ref_id": 9625118, "rating": -1, "num_reviews": 0, "website": null, "contact_phone": "+81 254-23-7255", "contact_email": null, "status": 1, "source_type": 1, "numberReviews": 0}, {"name": "Tomokazu", "type": "restaurant", "image": null, "address": "1-35 Shinsakaecho, Tainai Niigata Prefecture", "lat": 38.048584, "lng": 139.40063, "ref_id": 7669240, "rating": -1, "num_reviews": 0, "website": null, "contact_phone": "+81 254-44-7330", "contact_email": null, "status": 1, "source_type": 1, "numberReviews": 0}, {"name": "Seirojiba Bussankan Oshokuji Corner", "type": "restaurant", "image": null, "address": "708-2 Hasuno, Seiro-machi, Kitakanbara-gun 957-0124 Niigata Prefecture", "lat": 37.969616, "lng": 139.25479, "ref_id": 10013693, "rating": -1, "num_reviews": 0, "website": null, "contact_phone": "+81 254-27-1212", "contact_email": null, "status": 1, "source_type": 1, "numberReviews": 0}, {"name": "Bumbun", "type": "restaurant", "image": null, "address": "1-2-2 Ote-Machi, Shibata Niigata Prefecture", "lat": 37.94872, "lng": 139.32376, "ref_id": 7557098, "rating": -1, "num_reviews": 0, "website": null, "contact_phone": "+81 254-24-7553", "contact_email": null, "status": 1, "source_type": 1, "numberReviews": 0}, {"name": "Dining Hina", "type": "restaurant", "image": "https://dynamic-media-cdn.tripadvisor.com/media/photo-o/05/d6/6b/ae/dining-hina.jpg?w=1000&s=1", "address": "1-11-6 Otemachi, Shibata 957-0052 Niigata Prefecture", "lat": 37.95055, "lng": 139.32378, "ref_id": 6045061, "rating": -1, "num_reviews": 0, "website": null, "contact_phone": "+81 254-24-2650", "contact_email": null, "status": 1, "source_type": 1, "numberReviews": 0}, {"name": "Iwai", "type": "restaurant", "image": null, "address": "3-10-5 Chuocho, Shibata 957-0053 Niigata Prefecture", "lat": 37.949577, "lng": 139.3256, "ref_id": 9654982, "rating": -1, "num_reviews": 0, "website": null, "contact_phone": "+81 254-26-3585", "contact_email": null, "status": 1, "source_type": 1, "numberReviews": 0}, {"name": "Akanoern", "type": "restaurant", "image": null, "address": "5-6-26 Chuocho, Shibata 957-0053 Niigata Prefecture", "lat": 37.953495, "lng": 139.33395, "ref_id": 6068541, "rating": -1, "num_reviews": 0, "website": null, "contact_phone": "+81 254-23-2685", "contact_email": null, "status": 1, "source_type": 1, "numberReviews": 0}, {"name": "Imai", "type": "restaurant", "image": null, "address": "7-5-11 Daieicho, Shibata Niigata Prefecture", "lat": 37.944824, "lng": 139.3266, "ref_id": 7557031, "rating": -1, "num_reviews": 0, "website": null, "contact_phone": "+81 254-24-1793", "contact_email": null, "status": 1, "source_type": 1, "numberReviews": 0}, {"name": "Yamasen", "type": "restaurant", "image": null, "address": "4-3-22 Chuocho, Shibata Niigata Prefecture", "lat": 37.94983, "lng": 139.32735, "ref_id": 7557161, "rating": -1, "num_reviews": 0, "website": null, "contact_phone": "+81 254-26-1183", "contact_email": null, "status": 1, "source_type": 1, "numberReviews": 0}, {"name": "Cafe de Tohemboku", "type": "restaurant", "image": null, "address": "1163-3 Tochihara, Odai-cho, Taki-gun 519-2424 Mie Prefecture", "lat": 34.437794, "lng": 136.50728, "ref_id": 14728040, "rating": -1, "num_reviews": 0, "website": null, "contact_phone": "+81 598-85-1077", "contact_email": null, "status": 1, "source_type": 1, "numberReviews": 0}, {"name": "Full House", "type": "restaurant", "image": null, "address": "513-2 Maenohetacho, Matsusaka Mie Prefecture", "lat": 34.549408, "lng": 136.52548, "ref_id": 7586901, "rating": -1, "num_reviews": 0, "website": null, "contact_phone": "+81 598-26-1477", "contact_email": null, "status": 1, "source_type": 1, "numberReviews": 0}, {"name": "Takarabune Piago Ueji", "type": "restaurant", "image": null, "address": "2136 Misonocho Nagaya, Ise 516-0804 Mie Prefecture", "lat": 34.50164, "lng": 136.65714, "ref_id": 13416689, "rating": -1, "num_reviews": 0, "website": null, "contact_phone": "+81 596-29-1733", "contact_email": null, "status": 1, "source_type": 1, "numberReviews": 0}, {"name": "Ozu-Ya Udon Restaurant", "type": "restaurant", "image": null, "address": "2609 Kawaicho, Matsusaka Mie Prefecture", "lat": 34.58382, "lng": 136.5236, "ref_id": 7637212, "rating": -1, "num_reviews": 0, "website": null, "contact_phone": "+81 598-23-9611", "contact_email": null, "status": 1, "source_type": 1, "numberReviews": 0}, {"name": "Sokano Sushi", "type": "restaurant", "image": null, "address": "256-4 Kamikawacho, Matsusaka Mie Prefecture", "lat": 34.545887, "lng": 136.5498, "ref_id": 7587155, "rating": -1, "num_reviews": 0, "website": null, "contact_phone": "+81 598-28-2322", "contact_email": null, "status": 1, "source_type": 1, "numberReviews": 0}, {"name": "Gyoko Meshiya Makihara Sengyo Aeonmall Tsunan", "type": "restaurant", "image": null, "address": "145 Komoricho Takadjaya Aeonmall Tsunan 3F, Tsu 514-0817 Mie Prefecture", "lat": 34.67098, "lng": 136.5178, "ref_id": 15339606, "rating": -1, "num_reviews": 0, "website": "http://www.makiharasuisan.co.jp/", "contact_phone": "+81 59-253-2127", "contact_email": null, "status": 1, "source_type": 1, "numberReviews": 0}, {"name": "Sweet Monster", "type": "restaurant", "image": null, "address": "412-1 Komatacho motomachi Mugiwara, Ise 519-0503 Mie Prefecture", "lat": 34.508423, "lng": 136.6787, "ref_id": 25283926, "rating": -1, "num_reviews": 0, "website": null, "contact_phone": "+81 596-24-6006", "contact_email": null, "status": 1, "source_type": 1, "numberReviews": 0}, {"name": "Kiss Me", "type": "restaurant", "image": null, "address": "3097 Tsuoki Shimobenzai-Machi, Tsu Mie Prefecture", "lat": 34.70369, "lng": 136.51231, "ref_id": 7466116, "rating": -1, "num_reviews": 0, "website": null, "contact_phone": "+81 59-227-3647", "contact_email": null, "status": 1, "source_type": 1, "numberReviews": 0}, {"name": "Mittens No Shippo", "type": "restaurant", "image": null, "address": "2610-2 Hisai Myojincho, Tsu Mie Prefecture", "lat": 34.683273, "lng": 136.46864, "ref_id": 7466270, "rating": -1, "num_reviews": 0, "website": null, "contact_phone": "+81 59-256-2328", "contact_email": null, "status": 1, "source_type": 1, "numberReviews": 0}, {"name": "Kisenoka", "type": "restaurant", "image": null, "address": "1365-1 Shoka, Taki-cho, Taki-gun Mie Prefecture", "lat": 34.49603, "lng": 136.55061, "ref_id": 7479081, "rating": -1, "num_reviews": 0, "website": null, "contact_phone": "+81 598-38-1011", "contact_email": null, "status": 1, "source_type": 1, "numberReviews": 0}, {"name": "Jardin", "type": "restaurant", "image": null, "address": "1017-4 Handa, Tsu Mie Prefecture", "lat": 34.701195, "lng": 136.5029, "ref_id": 7631659, "rating": -1, "num_reviews": 0, "website": null, "contact_phone": "+81 59-226-7555", "contact_email": null, "status": 1, "source_type": 1, "numberReviews": 0}, {"name": "Fureai", "type": "restaurant", "image": null, "address": "141 Nishi Toyohamacho, Ise 515-0505 Mie Prefecture", "lat": 34.518047, "lng": 136.68576, "ref_id": 9640937, "rating": -1, "num_reviews": 0, "website": null, "contact_phone": "+81 596-37-6331", "contact_email": null, "status": 1, "source_type": 1, "numberReviews": 0}, {"name": "Taishu Shokudo Uoyoshi", "type": "restaurant", "image": null, "address": "339 Kumozu Hongocho, Tsu Mie Prefecture", "lat": 34.657932, "lng": 136.51993, "ref_id": 7466396, "rating": -1, "num_reviews": 0, "website": null, "contact_phone": "+81 59-234-7310", "contact_email": null, "status": 1, "source_type": 1, "numberReviews": 0}, {"name": "Kyusoku No Hara Aki", "type": "restaurant", "image": null, "address": "2022-7 Hara, Tamaki-cho, Watarai-gun 519-0438 Mie Prefecture", "lat": 34.467762, "lng": 136.58423, "ref_id": 17358481, "rating": -1, "num_reviews": 0, "website": null, "contact_phone": "+81 596-63-8220", "contact_email": null, "status": 1, "source_type": 1, "numberReviews": 0}, {"name": "Karaoke Banban Matsusaka", "type": "restaurant", "image": null, "address": "85 Maenohetacho, Matsusaka 515-0045 Mie Prefecture", "lat": 34.555035, "lng": 136.52507, "ref_id": 13252210, "rating": -1, "num_reviews": 0, "website": null, "contact_phone": "+81 598-31-2578", "contact_email": null, "status": 1, "source_type": 1, "numberReviews": 0}, {"name": "Miyou", "type": "restaurant", "image": null, "address": "142-5 Katsurasecho, Matsusaka 515-1104 Mie Prefecture", "lat": 34.542706, "lng": 136.48862, "ref_id": 9676898, "rating": -1, "num_reviews": 0, "website": null, "contact_phone": "+81 598-36-0840", "contact_email": null, "status": 1, "source_type": 1, "numberReviews": 0}, {"name": "Araiso Ryori Anotsu", "type": "restaurant", "image": null, "address": "13-18 Otobe, Tsu 514-0016 Mie Prefecture", "lat": 34.718174, "lng": 136.51778, "ref_id": 9672032, "rating": -1, "num_reviews": 0, "website": null, "contact_phone": "+81 59-226-6681", "contact_email": null, "status": 1, "source_type": 1, "numberReviews": 0}, {"name": "Bread Factory Meiwa", "type": "restaurant", "image": null, "address": "1123 Nakamura Aeon Meiwa Shop 1F, Meiwa-cho, Taki-gun 515-0348 Mie Prefecture", "lat": 34.5813, "lng": 136.61429, "ref_id": 10010042, "rating": -1, "num_reviews": 0, "website": null, "contact_phone": "+81 596-55-6207", "contact_email": null, "status": 1, "source_type": 1, "numberReviews": 0}, {"name": "Kei-Chan", "type": "restaurant", "image": null, "address": "641-6 Shinseicho, Matsusaka Mie Prefecture", "lat": 34.575203, "lng": 136.54185, "ref_id": 7586793, "rating": -1, "num_reviews": 0, "website": null, "contact_phone": "+81 598-51-7744", "contact_email": null, "status": 1, "source_type": 1, "numberReviews": 0}, {"name": "Ryusanchi Chuo", "type": "restaurant", "image": null, "address": "510-1 Chuocho, Matsusaka 515-0019 Mie Prefecture", "lat": 34.583565, "lng": 136.54277, "ref_id": 13270401, "rating": -1, "num_reviews": 0, "website": null, "contact_phone": "+81 598-67-5465", "contact_email": null, "status": 1, "source_type": 1, "numberReviews": 0}, {"name": "Shokusui-Kan Hanaguruma", "type": "restaurant", "image": null, "address": "520 Oshiroimachi, Matsusaka 515-0076 Mie Prefecture", "lat": 34.57203, "lng": 136.53279, "ref_id": 9676913, "rating": -1, "num_reviews": 0, "website": null, "contact_phone": "+81 598-21-0145", "contact_email": null, "status": 1, "source_type": 1, "numberReviews": 0}, {"name": "Komeda Coffee Matsusaka Tonomachi", "type": "restaurant", "image": null, "address": "1465-7 Tonomachi, Matsusaka 515-0073 Mie Prefecture", "lat": 34.572063, "lng": 136.52539, "ref_id": 9653977, "rating": -1, "num_reviews": 0, "website": null, "contact_phone": "+81 598-30-6677", "contact_email": null, "status": 1, "source_type": 1, "numberReviews": 0}, {"name": "Aokiya", "type": "restaurant", "image": null, "address": "16-15 Iwata, Tsu Mie Prefecture", "lat": 34.711975, "lng": 136.50568, "ref_id": 3866335, "rating": -1, "num_reviews": 0, "website": null, "contact_phone": "+81 59-224-0925", "contact_email": null, "status": 1, "source_type": 1, "numberReviews": 0}, {"name": "Umakaya", "type": "restaurant", "image": null, "address": "38-1 Chumancho, Matsusaka Mie Prefecture", "lat": 34.512383, "lng": 136.54524, "ref_id": 7586754, "rating": -1, "num_reviews": 0, "website": null, "contact_phone": "+81 598-29-4455", "contact_email": null, "status": 1, "source_type": 1, "numberReviews": 0}, {"name": "Aozora Shokudo", "type": "restaurant", "image": null, "address": "10-2 Hiraocho, Matsusaka 515-0036 Mie Prefecture", "lat": 34.571754, "lng": 136.5347, "ref_id": 17477221, "rating": -1, "num_reviews": 0, "website": null, "contact_phone": "+81 598-26-7266", "contact_email": null, "status": 1, "source_type": 1, "numberReviews": 0}, {"name": "Sapphire", "type": "restaurant", "image": null, "address": "290 Nishitoyohama Cho, Ise 515-0505 Mie Prefecture", "lat": 34.519363, "lng": 136.68703, "ref_id": 13041742, "rating": -1, "num_reviews": 0, "website": null, "contact_phone": "+81 596-37-2617", "contact_email": null, "status": 1, "source_type": 1, "numberReviews": 0}, {"name": "Yakitori Minochan", "type": "restaurant", "image": null, "address": "12-8 Daimon, Tsu 514-0027 Mie Prefecture", "lat": 34.718426, "lng": 136.51337, "ref_id": 9629661, "rating": -1, "num_reviews": 0, "website": null, "contact_phone": "+81 59-246-6066", "contact_email": null, "status": 1, "source_type": 1, "numberReviews": 0}, {"name": "Merry England", "type": "restaurant", "image": "https://dynamic-media-cdn.tripadvisor.com/media/photo-o/1a/53/2c/ca/caption.jpg?w=1000&s=1", "address": "10-3 Hanyuderacho, Matsusaka 515-0832 Mie Prefecture", "lat": 34.54509, "lng": 136.48972, "ref_id": 7586922, "rating": -1, "num_reviews": 0, "website": "http://www.merryengland.com/", "contact_phone": "+81 598-58-3280", "contact_email": null, "status": 1, "source_type": 1, "numberReviews": 0}, {"name": "Kushi", "type": "restaurant", "image": null, "address": "1-55-3 Atagocho, Matsusaka Mie Prefecture", "lat": 34.57034, "lng": 136.53668, "ref_id": 7586977, "rating": -1, "num_reviews": 0, "website": null, "contact_phone": "+81 598-23-5608", "contact_email": null, "status": 1, "source_type": 1, "numberReviews": 0}, {"name": "Loop Line", "type": "restaurant", "image": null, "address": "4-1 Funaecho, Matsusaka Mie Prefecture", "lat": 34.58849, "lng": 136.51938, "ref_id": 7586947, "rating": -1, "num_reviews": 0, "website": null, "contact_phone": "+81 598-26-4563", "contact_email": null, "status": 1, "source_type": 1, "numberReviews": 0}, {"name": "Oshokujidokoro Myogin", "type": "restaurant", "image": null, "address": "170-2 Hiruicho, Ogaki Gifu Prefecture", "lat": 35.38801, "lng": 136.57101, "ref_id": 7578915, "rating": -1, "num_reviews": 0, "website": null, "contact_phone": "+81 584-71-2075", "contact_email": null, "status": 1, "source_type": 1, "numberReviews": 0}, {"name": "Ikkanro Nagara", "type": "restaurant", "image": null, "address": "4-20 Obusa Sakuramachi, Gifu Gifu Prefecture", "lat": 35.441895, "lng": 136.78839, "ref_id": 7406203, "rating": -1, "num_reviews": 0, "website": null, "contact_phone": "+81 58-294-2900", "contact_email": null, "status": 1, "source_type": 1, "numberReviews": 0}, {"name": "Chezvous", "type": "restaurant", "image": null, "address": "1-26-6 Kamurocho Kobekan Bldg. 1F, Gifu 500-8878 Gifu Prefecture", "lat": 35.417923, "lng": 136.75871, "ref_id": 5254714, "rating": -1, "num_reviews": 0, "website": "http://www.chezvous.jp/information/", "contact_phone": "+81 58-262-0277", "contact_email": "chezvous1213@gmail.com", "status": 1, "source_type": 1, "numberReviews": 0}, {"name": "Toyodaya Sakaeten", "type": "restaurant", "image": null, "address": "1-75 Sakaemachi, Kitagata-cho, Motosu-gun 501-0427 Gifu Prefecture", "lat": 35.439587, "lng": 136.68588, "ref_id": 16888692, "rating": -1, "num_reviews": 0, "website": null, "contact_phone": "+81 58-324-0557", "contact_email": null, "status": 1, "source_type": 1, "numberReviews": 0}, {"name": "Oshokujidokoro Miki", "type": "restaurant", "image": null, "address": "1-859 Iwatanishi, Gifu Gifu Prefecture", "lat": 35.436474, "lng": 136.82999, "ref_id": 7406030, "rating": -1, "num_reviews": 0, "website": null, "contact_phone": "+81 58-241-7335", "contact_email": null, "status": 1, "source_type": 1, "numberReviews": 0}, {"name": "Karyu", "type": "restaurant", "image": null, "address": "3-167 Akanabe Hishino, Gifu 500-8268 Gifu Prefecture", "lat": 35.38396, "lng": 136.75095, "ref_id": 9686584, "rating": -1, "num_reviews": 0, "website": null, "contact_phone": "+81 58-271-1700", "contact_email": null, "status": 1, "source_type": 1, "numberReviews": 0}, {"name": "Food & Drinks Tajima", "type": "restaurant", "image": null, "address": "5-28-2 Nakauzura, Gifu 500-8288 Gifu Prefecture", "lat": 35.381054, "lng": 136.73141, "ref_id": 9669963, "rating": -1, "num_reviews": 0, "website": null, "contact_phone": "+81 58-273-6882", "contact_email": null, "status": 1, "source_type": 1, "numberReviews": 0}, {"name": "Encontro Golf Cafe", "type": "restaurant", "image": null, "address": "1-9-8 Maeisshiki 2f, Gifu 500-8232 Gifu Prefecture", "lat": 35.40723, "lng": 136.79866, "ref_id": 9658563, "rating": -1, "num_reviews": 0, "website": null, "contact_phone": "+81 58-215-7830", "contact_email": null, "status": 1, "source_type": 1, "numberReviews": 0}, {"name": "Hotto Motto Gifu Yashiro", "type": "restaurant", "image": null, "address": "1-16-1 Yashiro, Gifu 502-0812 Gifu Prefecture", "lat": 35.459045, "lng": 136.77554, "ref_id": 13033072, "rating": -1, "num_reviews": 0, "website": null, "contact_phone": "+81 58-296-6008", "contact_email": null, "status": 1, "source_type": 1, "numberReviews": 0}, {"name": "Naoki", "type": "restaurant", "image": null, "address": "4031-3 Noda Shinden, Mizuho Gifu Prefecture", "lat": 35.385826, "lng": 136.6804, "ref_id": 7563609, "rating": -1, "num_reviews": 0, "website": null, "contact_phone": "+81 58-326-1556", "contact_email": null, "status": 1, "source_type": 1, "numberReviews": 0}, {"name": "Mifuku", "type": "restaurant", "image": null, "address": "13 Yayoicho Orange Street Yayoi 2F, Gifu 500-8831 Gifu Prefecture", "lat": 35.419647, "lng": 136.75829, "ref_id": 5498652, "rating": -1, "num_reviews": 0, "website": null, "contact_phone": "+81 58-266-5526", "contact_email": null, "status": 1, "source_type": 1, "numberReviews": 0}, {"name": "Temmari", "type": "restaurant", "image": null, "address": "2-41 Miyamachi, Ogaki 503-0905 Gifu Prefecture", "lat": 35.365257, "lng": 136.6123, "ref_id": 14727197, "rating": -1, "num_reviews": 0, "website": null, "contact_phone": "+81 584-73-8877", "contact_email": null, "status": 1, "source_type": 1, "numberReviews": 0}, {"name": "Kashun", "type": "restaurant", "image": null, "address": "3-12-4 Kano Jonandori, Gifu 500-8486 Gifu Prefecture", "lat": 35.40016, "lng": 136.75127, "ref_id": 5461284, "rating": -1, "num_reviews": 0, "website": null, "contact_phone": "+81 58-273-4755", "contact_email": null, "status": 1, "source_type": 1, "numberReviews": 0}, {"name": "Tojiya Gifu Morela", "type": "restaurant", "image": null, "address": "1100 Mitsuhashi, Motosu Gifu Prefecture", "lat": 35.459183, "lng": 136.67474, "ref_id": 7665027, "rating": -1, "num_reviews": 0, "website": null, "contact_phone": "+81 58-323-7540", "contact_email": null, "status": 1, "source_type": 1, "numberReviews": 0}, {"name": "Sushimasayanai Zuten", "type": "restaurant", "image": null, "address": "3-76 Yanaizucho Higashizuka, Gifu 501-6102 Gifu Prefecture", "lat": 35.368423, "lng": 136.75233, "ref_id": 13033694, "rating": -1, "num_reviews": 0, "website": null, "contact_phone": "+81 58-388-0344", "contact_email": null, "status": 1, "source_type": 1, "numberReviews": 0}, {"name": "Ramenhouse Sumika0", "type": "restaurant", "image": null, "address": "1-137-2 Nakaishiyamacho, Kakamigahara 504-0044 Gifu Prefecture", "lat": 35.407352, "lng": 136.82669, "ref_id": 20378718, "rating": -1, "num_reviews": 0, "website": null, "contact_phone": null, "contact_email": null, "status": 1, "source_type": 1, "numberReviews": 0}, {"name": "Bluhen", "type": "restaurant", "image": null, "address": "2-3 Hinodecho, Ogaki Gifu Prefecture", "lat": 35.358112, "lng": 136.60399, "ref_id": 7579030, "rating": -1, "num_reviews": 0, "website": null, "contact_phone": "+81 584-73-6265", "contact_email": null, "status": 1, "source_type": 1, "numberReviews": 0}, {"name": "Yakiniku Senju", "type": "restaurant", "image": "https://dynamic-media-cdn.tripadvisor.com/media/photo-o/07/44/36/c9/caption.jpg?w=1000&s=1", "address": "5-85 Noginomoricho, Ogaki Gifu Prefecture", "lat": 35.350246, "lng": 136.6222, "ref_id": 7579199, "rating": -1, "num_reviews": 0, "website": null, "contact_phone": "+81 584-75-0803", "contact_email": null, "status": 1, "source_type": 1, "numberReviews": 0}, {"name": "Jizake Honkaku Shochu Maruko", "type": "restaurant", "image": null, "address": "1-77 Kandacho, Ogaki Gifu Prefecture", "lat": 35.360214, "lng": 136.61009, "ref_id": 7579132, "rating": -1, "num_reviews": 0, "website": null, "contact_phone": "+81 584-75-0039", "contact_email": null, "status": 1, "source_type": 1, "numberReviews": 0}, {"name": "Yakitori Daikichi, Massa Branch", "type": "restaurant", "image": null, "address": "1870-5 Masaki, Gifu 502-0857 Gifu Prefecture", "lat": 35.447193, "lng": 136.74603, "ref_id": 9631406, "rating": -1, "num_reviews": 0, "website": null, "contact_phone": "+81 58-295-5992", "contact_email": null, "status": 1, "source_type": 1, "numberReviews": 0}, {"name": "Usuzumi Zakura Furusato-Ya", "type": "restaurant", "image": "https://dynamic-media-cdn.tripadvisor.com/media/photo-o/12/88/ac/7d/caption.jpg?w=1000&s=1", "address": "1014 Neoitasho, Motosu 501-1524 Gifu Prefecture", "lat": 35.63253, "lng": 136.60948, "ref_id": 9618940, "rating": -1, "num_reviews": 0, "website": null, "contact_phone": "+81 581-38-2739", "contact_email": null, "status": 1, "source_type": 1, "numberReviews": 0}, {"name": "Happy Town", "type": "restaurant", "image": null, "address": "515-130 Nishikaiden Uenomachi, Gifu 501-1159 Gifu Prefecture", "lat": 35.443287, "lng": 136.70255, "ref_id": 13032996, "rating": -1, "num_reviews": 0, "website": null, "contact_phone": "+81 58-239-2626", "contact_email": null, "status": 1, "source_type": 1, "numberReviews": 0}, {"name": "Runa", "type": "restaurant", "image": null, "address": "148 Busshoji, Motosu Gifu Prefecture", "lat": 35.546234, "lng": 136.67184, "ref_id": 7667870, "rating": -1, "num_reviews": 0, "website": null, "contact_phone": "+81 58-323-2838", "contact_email": null, "status": 1, "source_type": 1, "numberReviews": 0}, {"name": "Cafe C'Estjoli", "type": "restaurant", "image": null, "address": "917-1 Horinouchi Hinokicho, Ogaki Gifu Prefecture", "lat": 35.36849, "lng": 136.58926, "ref_id": 7578929, "rating": -1, "num_reviews": 0, "website": null, "contact_phone": "+81 584-47-9538", "contact_email": null, "status": 1, "source_type": 1, "numberReviews": 0}, {"name": "Spaghetti-Ya Abbondare", "type": "restaurant", "image": "https://dynamic-media-cdn.tripadvisor.com/media/photo-o/0a/55/a7/ab/spaghetti-ya-abbondare.jpg?w=1000&s=1", "address": "5-8 Hasuike Yanaizucho 1f, Gifu 501-6103 Gifu Prefecture", "lat": 35.367626, "lng": 136.7492, "ref_id": 9646501, "rating": -1, "num_reviews": 0, "website": null, "contact_phone": "+81 58-387-8868", "contact_email": null, "status": 1, "source_type": 1, "numberReviews": 0}, {"name": "Fukusuke Branch", "type": "restaurant", "image": null, "address": "1-8 Murotsu-Machi, Gifu Gifu Prefecture", "lat": 35.41371, "lng": 136.75136, "ref_id": 7406318, "rating": -1, "num_reviews": 0, "website": null, "contact_phone": "+81 58-251-7850", "contact_email": null, "status": 1, "source_type": 1, "numberReviews": 0}, {"name": "Ariake", "type": "restaurant", "image": null, "address": "4-41 Oi, Ogaki Gifu Prefecture", "lat": 35.345005, "lng": 136.63052, "ref_id": 7578887, "rating": -1, "num_reviews": 0, "website": null, "contact_phone": "+81 584-89-6622", "contact_email": null, "status": 1, "source_type": 1, "numberReviews": 0}, {"name": "Sakura", "type": "restaurant", "image": null, "address": "5-1-25 Kita Isshiki, Gifu 500-8227 Gifu Prefecture", "lat": 35.413155, "lng": 136.78877, "ref_id": 9646467, "rating": -1, "num_reviews": 0, "website": null, "contact_phone": "+81 58-248-9815", "contact_email": null, "status": 1, "source_type": 1, "numberReviews": 0}, {"name": "Marufuku", "type": "restaurant", "image": null, "address": "4-7 Nagazumicho Gifu Yokocho Bldg. 2F, Gifu 500-8175 Gifu Prefecture", "lat": 35.41233, "lng": 136.75755, "ref_id": 15320812, "rating": -1, "num_reviews": 0, "website": "http://gifuyokocho.jp/", "contact_phone": "+81 50-3531-0312", "contact_email": null, "status": 1, "source_type": 1, "numberReviews": 0}, {"name": "Kitchen&Bar King of Kings", "type": "restaurant", "image": null, "address": "30 Yahachicho Kitamura Bldg. 1F, Gifu 500-8827 Gifu Prefecture", "lat": 35.420856, "lng": 136.75835, "ref_id": 9658582, "rating": -1, "num_reviews": 0, "website": null, "contact_phone": "+81 58-263-7076", "contact_email": null, "status": 1, "source_type": 1, "numberReviews": 0}, {"name": "Chinese Restaurant Kazen", "type": "restaurant", "image": "https://dynamic-media-cdn.tripadvisor.com/media/photo-o/17/2b/b9/5f/ta-img-20190415-123223.jpg?w=1000&s=1", "address": "2-14-3 Tabata Kita-Ku, Nagoya Qu\u00e2\u0323n Aichi", "lat": 35.196453, "lng": 136.91035, "ref_id": 7402628, "rating": 4, "num_reviews": 0, "website": null, "contact_phone": "+81 52-914-3181", "contact_email": null, "status": 1, "source_type": 1, "numberReviews": 1}, {"name": "Ajimori", "type": "restaurant", "image": null, "address": "265 Shikata Sakae, Kitanagoya Qu\u00e2\u0323n Aichi", "lat": 35.24635, "lng": 136.87534, "ref_id": 7636292, "rating": 3.5, "num_reviews": 0, "website": null, "contact_phone": "+81 568-24-3308", "contact_email": null, "status": 1, "source_type": 1, "numberReviews": 3}, {"name": "Makino", "type": "restaurant", "image": "https://dynamic-media-cdn.tripadvisor.com/media/photo-o/17/16/87/d5/caption.jpg?w=1000&s=1", "address": "2-40 Kano Nanyocho, Gifu 500-8276 Gifu Prefecture", "lat": 35.3976, "lng": 136.7517, "ref_id": 9611118, "rating": 4, "num_reviews": 0, "website": null, "contact_phone": "+81 58-273-7687", "contact_email": null, "status": 1, "source_type": 1, "numberReviews": 1}, {"name": "Josui Nishiharu-branch", "type": "restaurant", "image": "https://dynamic-media-cdn.tripadvisor.com/media/photo-o/0f/70/8d/74/caption.jpg?w=1000&s=1", "address": "140 Tenjin, Ufukuji, Kitanagoya 481-0035 Qu\u00e2\u0323n Aichi", "lat": 35.24971, "lng": 136.84474, "ref_id": 4760129, "rating": 3, "num_reviews": 0, "website": "http://nbmm600.gorp.jp/", "contact_phone": "+81 568-23-3578", "contact_email": null, "status": 1, "source_type": 1, "numberReviews": 15}, {"name": "McDonald's Konan Nishi Apita", "type": "restaurant", "image": "https://dynamic-media-cdn.tripadvisor.com/media/photo-o/14/8c/a8/ae/caption.jpg?w=1000&s=1", "address": "206 Matsutakecho Kamino, Konan 483-8342 Qu\u00e2\u0323n Aichi", "lat": 35.343124, "lng": 136.85529, "ref_id": 5420648, "rating": 3, "num_reviews": 0, "website": "http://map.mcdonalds.co.jp/map/23720", "contact_phone": "+81 587-54-0302", "contact_email": null, "status": 1, "source_type": 1, "numberReviews": 7}, {"name": "Chandani Moriyama", "type": "restaurant", "image": null, "address": "110 Aoyamadai, Moriyama-Ku, Nagoya 463-0805 Qu\u00e2\u0323n Aichi", "lat": 35.2271, "lng": 137.01488, "ref_id": 14725147, "rating": 4, "num_reviews": 0, "website": null, "contact_phone": "+81 52-736-2001", "contact_email": null, "status": 1, "source_type": 1, "numberReviews": 1}, {"name": "Ringer Hut Leaf Walk Inazawa", "type": "restaurant", "image": null, "address": "7-1-2 Nagano, Inazawa 492-8142 Qu\u00e2\u0323n Aichi", "lat": 35.261246, "lng": 136.81891, "ref_id": 13084324, "rating": 4, "num_reviews": 0, "website": "https://shop.ringerhut.jp/shop/r0841", "contact_phone": "+81 587-96-8630", "contact_email": null, "status": 1, "source_type": 1, "numberReviews": 1}, {"name": "Tavern Nohohon", "type": "restaurant", "image": "https://dynamic-media-cdn.tripadvisor.com/media/photo-o/0e/8e/65/54/caption.jpg?w=1000&s=1", "address": "2 Tamamiyacho, Gifu 500-8835 Gifu Prefecture", "lat": 35.412594, "lng": 136.75803, "ref_id": 6200400, "rating": 3.5, "num_reviews": 0, "website": null, "contact_phone": "+81 120-638-171", "contact_email": null, "status": 1, "source_type": 1, "numberReviews": 5}, {"name": "Tenten Apita Takakuraji", "type": "restaurant", "image": "https://dynamic-media-cdn.tripadvisor.com/media/photo-o/16/ee/88/fa/caption.jpg?w=1000&s=1", "address": "2-5 Chuodai Apita Kozoji 1F, Kasugai 487-0011 Qu\u00e2\u0323n Aichi", "lat": 35.282833, "lng": 137.04886, "ref_id": 9911173, "rating": 4, "num_reviews": 0, "website": null, "contact_phone": "+81 568-92-7166", "contact_email": null, "status": 1, "source_type": 1, "numberReviews": 1}, {"name": "Yakitori Shichifuku", "type": "restaurant", "image": "https://dynamic-media-cdn.tripadvisor.com/media/photo-o/16/e6/4e/da/dsc-0155-largejpg.jpg?w=1000&s=1", "address": "1-23 Chuocho, Iwakura Qu\u00e2\u0323n Aichi", "lat": 35.278484, "lng": 136.86966, "ref_id": 7582575, "rating": 4, "num_reviews": 0, "website": null, "contact_phone": "+81 587-66-1787", "contact_email": null, "status": 1, "source_type": 1, "numberReviews": 2}, {"name": "Restaurant Monogatari", "type": "restaurant", "image": "https://dynamic-media-cdn.tripadvisor.com/media/photo-o/16/e1/81/8e/caption.jpg?w=1000&s=1", "address": "5505 Shimoedo, Kani 509-0203 Gifu Prefecture", "lat": 35.41722, "lng": 137.05106, "ref_id": 6165262, "rating": 4, "num_reviews": 0, "website": "http://j47.jp/monogatari/", "contact_phone": "+81 574-63-1710", "contact_email": null, "status": 1, "source_type": 1, "numberReviews": 1}, {"name": "Horse Or Dojo", "type": "restaurant", "image": "https://dynamic-media-cdn.tripadvisor.com/media/photo-o/16/e0/2c/f0/photo0jpg.jpg?w=1000&s=1", "address": "1-10-5 Nishihommachi, Kasugai 486-0958 Qu\u00e2\u0323n Aichi", "lat": 35.235603, "lng": 136.93605, "ref_id": 13257576, "rating": 4, "num_reviews": 0, "website": null, "contact_phone": "+81 568-37-0368", "contact_email": null, "status": 1, "source_type": 1, "numberReviews": 1}, {"name": "Dining Emz", "type": "restaurant", "image": null, "address": "2-2-1 Katsukawacho, Kasugai 486-0945 Qu\u00e2\u0323n Aichi", "lat": 35.221523, "lng": 136.94714, "ref_id": 9943787, "rating": 4, "num_reviews": 0, "website": null, "contact_phone": "+81 568-34-0234", "contact_email": null, "status": 1, "source_type": 1, "numberReviews": 1}, {"name": "Yakiniku Baaba", "type": "restaurant", "image": "https://dynamic-media-cdn.tripadvisor.com/media/photo-o/16/94/e3/79/opening-hour-lunch-mon.jpg?w=1000&s=1", "address": "8 Tamamoricho, Gifu 500-8837 Gifu Prefecture", "lat": 35.41398, "lng": 136.75923, "ref_id": 14726912, "rating": 4, "num_reviews": 0, "website": "https://baaba.owst.jp/", "contact_phone": "+81 58-263-8088", "contact_email": null, "status": 1, "source_type": 1, "numberReviews": 1}, {"name": "Ramen 21-Ban", "type": "restaurant", "image": "https://dynamic-media-cdn.tripadvisor.com/media/photo-o/16/d6/42/26/8.jpg?w=1000&s=1", "address": "3-40 Unuma Hoshakujicho, Kakamigahara Gifu Prefecture", "lat": 35.405243, "lng": 136.96053, "ref_id": 7588688, "rating": 4, "num_reviews": 0, "website": null, "contact_phone": "+81 58-384-2621", "contact_email": null, "status": 1, "source_type": 1, "numberReviews": 1}, {"name": "Karayoshi Moriyama Sekohigashi", "type": "restaurant", "image": "https://dynamic-media-cdn.tripadvisor.com/media/photo-o/16/ce/e3/3f/dsc-0664-largejpg.jpg?w=1000&s=1", "address": "1-1715 Sekohigashi, Moriyama-Ku, Nagoya 463-0090 Qu\u00e2\u0323n Aichi", "lat": 35.205944, "lng": 136.94339, "ref_id": 15293287, "rating": 4, "num_reviews": 0, "website": "https://store-info.skylark.co.jp/karayoshi/spot/list/map?address=23113&search=address&bc=eNqLVnq2ZM7zLYseN3c8bm5%2B3DxdSUcJiJ61zH4%2Bf%2BnzOT1AdmJKSlFqcbF%2BTmZxiX1xamJRckZMqYGBcQpUAsQxMkPiGKcYGSvFAgCJsSWj", "contact_phone": "+81 52-797-9530", "contact_email": null, "status": 1, "source_type": 1, "numberReviews": 1}, {"name": "Cafe de Sarara", "type": "restaurant", "image": null, "address": "1-54 Akanabe Nakajima, Gifu 500-8269 Gifu Prefecture", "lat": 35.39321, "lng": 136.75002, "ref_id": 14726826, "rating": 4, "num_reviews": 0, "website": null, "contact_phone": "+81 58-277-6621", "contact_email": null, "status": 1, "source_type": 1, "numberReviews": 1}, {"name": "Nanigashi Kokoro", "type": "restaurant", "image": null, "address": "77 Orizu Miyanishicho, Inazawa 492-8076 Qu\u00e2\u0323n Aichi", "lat": 35.255016, "lng": 136.82889, "ref_id": 6154207, "rating": 3.5, "num_reviews": 0, "website": "http://www.nanigashi.jp/shop/kokoro/index.html", "contact_phone": "+81 587-33-7204", "contact_email": null, "status": 1, "source_type": 1, "numberReviews": 2}, {"name": "Dante", "type": "restaurant", "image": "https://dynamic-media-cdn.tripadvisor.com/media/photo-o/16/e2/a6/40/photo1jpg.jpg?w=1000&s=1", "address": "9-1-24 Higashinocho, Kasugai 486-0817 Qu\u00e2\u0323n Aichi", "lat": 35.260044, "lng": 136.98518, "ref_id": 16851354, "rating": 3.5, "num_reviews": 0, "website": null, "contact_phone": "+81 568-37-1223", "contact_email": null, "status": 1, "source_type": 1, "numberReviews": 2}, {"name": "Darfrutto", "type": "restaurant", "image": "https://dynamic-media-cdn.tripadvisor.com/media/photo-o/16/7f/71/81/dsc-0348-01-largejpg.jpg?w=1000&s=1", "address": "27-2 Hommachi Itchoda Meitetsu Iwakura Building 1F, Iwakura 482-0043 Qu\u00e2\u0323n Aichi", "lat": 35.27768, "lng": 136.87376, "ref_id": 14726117, "rating": 4, "num_reviews": 0, "website": null, "contact_phone": "+81 587-22-7533", "contact_email": null, "status": 1, "source_type": 1, "numberReviews": 1}, {"name": "Kitanoichiba Meitetsu Gifuekimae", "type": "restaurant", "image": "https://dynamic-media-cdn.tripadvisor.com/media/photo-o/16/78/fb/84/photo1jpg.jpg?w=1000&s=1", "address": "3-3-1 Nagasumicho 4F OX Gifu Bldg., Gifu 500-8175 Gifu Prefecture", "lat": 35.412617, "lng": 136.75848, "ref_id": 15245925, "rating": 4, "num_reviews": 0, "website": "http://www.monteroza.co.jp/shop.html?utm_source=gmaps&?shop=873049", "contact_phone": "+81 58-266-4988", "contact_email": null, "status": 1, "source_type": 1, "numberReviews": 1}, {"name": "Dosanko Kamida", "type": "restaurant", "image": null, "address": "1-21 Kami Iida-Dori, Kita-Ku, Nagoya 462-0808 Qu\u00e2\u0323n Aichi", "lat": 35.20249, "lng": 136.92993, "ref_id": 9944400, "rating": 4, "num_reviews": 0, "website": null, "contact_phone": "+81 52-915-9845", "contact_email": null, "status": 1, "source_type": 1, "numberReviews": 1}, {"name": "Wako Aeon Mall Kagamihara", "type": "restaurant", "image": "https://dynamic-media-cdn.tripadvisor.com/media/photo-o/16/66/21/4f/caption.jpg?w=1000&s=1", "address": "3-8 Nakakayabacho Aeon Mall Kakamigahara 1F, Kakamigahara 504-0943 Gifu Prefecture", "lat": 35.3924, "lng": 136.82272, "ref_id": 10659497, "rating": 4.5, "num_reviews": 0, "website": null, "contact_phone": "+81 58-375-3255", "contact_email": null, "status": 1, "source_type": 1, "numberReviews": 2}, {"name": "Bread Factory Maxvalu Kakamigahara", "type": "restaurant", "image": "https://dynamic-media-cdn.tripadvisor.com/media/photo-o/16/5e/63/f0/caption.jpg?w=1000&s=1", "address": "1-20-1 Sohara Hanazonocho, Kakamigahara 504-0832 Gifu Prefecture", "lat": 35.412006, "lng": 136.84671, "ref_id": 13032779, "rating": 4, "num_reviews": 0, "website": null, "contact_phone": "+81 58-371-3535", "contact_email": null, "status": 1, "source_type": 1, "numberReviews": 1}, {"name": "Hansel and Gretel Shinmoriyama", "type": "restaurant", "image": null, "address": "1-1318 Koshin, Moriyama-Ku, Nagoya 463-0079 Qu\u00e2\u0323n Aichi", "lat": 35.204834, "lng": 136.94592, "ref_id": 14725137, "rating": 4, "num_reviews": 0, "website": null, "contact_phone": "+81 52-793-4887", "contact_email": null, "status": 1, "source_type": 1, "numberReviews": 1}, {"name": "Rago Jishoku Kappo", "type": "restaurant", "image": "https://dynamic-media-cdn.tripadvisor.com/media/photo-o/16/3e/21/c3/20181230-092924-largejpg.jpg?w=1000&s=1", "address": "2-13-7 Morimoto, Ichinomiya 491-0831 Qu\u00e2\u0323n Aichi", "lat": 35.292194, "lng": 136.8111, "ref_id": 9924141, "rating": 4, "num_reviews": 0, "website": null, "contact_phone": "+81 586-72-0373", "contact_email": null, "status": 1, "source_type": 1, "numberReviews": 1}, {"name": "Japanese Bal Fuwari", "type": "restaurant", "image": null, "address": "1 Hanemachi Holic Spear B1F, Gifu 500-8834 Gifu Prefecture", "lat": 35.41326, "lng": 136.75916, "ref_id": 14726905, "rating": 4, "num_reviews": 0, "website": null, "contact_phone": "+81 58-265-6225", "contact_email": null, "status": 1, "source_type": 1, "numberReviews": 1}, {"name": "Noodle Shop Shoki", "type": "restaurant", "image": null, "address": "2-239 Toriimatsucho, Kasugai 486-0844 Qu\u00e2\u0323n Aichi", "lat": 35.242477, "lng": 136.9697, "ref_id": 4907210, "rating": 4, "num_reviews": 0, "website": null, "contact_phone": "+81 568-82-6388", "contact_email": null, "status": 1, "source_type": 1, "numberReviews": 4}, {"name": "Kakigoya Fever Nagoya Ozone Station", "type": "restaurant", "image": "https://dynamic-media-cdn.tripadvisor.com/media/photo-o/16/51/5b/26/photo1jpg.jpg?w=1000&s=1", "address": "4-5-3 Ozone, Kita-Ku, Nagoya 462-0825 Qu\u00e2\u0323n Aichi", "lat": 35.191536, "lng": 136.93073, "ref_id": 12155021, "rating": 3.5, "num_reviews": 0, "website": "http://kakigoyafever.jp/", "contact_phone": "+81 52-981-0744", "contact_email": null, "status": 1, "source_type": 1, "numberReviews": 2}, {"name": "Ryujimmaru Aeon Mall Kisogawa", "type": "restaurant", "image": null, "address": "25-1 Minamiyatsugaike Kisogawacho Kuroda Aeon Mall Kisogawa 3F, Ichinomiya 493-0001 Qu\u00e2\u0323n Aichi", "lat": 35.34927, "lng": 136.77359, "ref_id": 15765906, "rating": 4, "num_reviews": 0, "website": "http://kisogawa-aeonmall.com/shop/detail/269/", "contact_phone": "+81 586-82-0560", "contact_email": null, "status": 1, "source_type": 1, "numberReviews": 1}, {"name": "Junteuchi Sanuki Udon Kimuraya", "type": "restaurant", "image": "https://dynamic-media-cdn.tripadvisor.com/media/photo-o/0a/79/d6/0d/caption.jpg?w=1000&s=1", "address": "9-28 Sugawaracho Naka-Ku, Hamamatsu Shizuoka Prefecture", "lat": 34.69953, "lng": 137.72543, "ref_id": 7447164, "rating": 4.5, "num_reviews": 0, "website": null, "contact_phone": "+81 53-453-9548", "contact_email": null, "status": 1, "source_type": 1, "numberReviews": 3}, {"name": "Parmenara Aeon Mall Hamamatsu Ichino", "type": "restaurant", "image": "https://dynamic-media-cdn.tripadvisor.com/media/photo-o/0e/55/17/8f/caption.jpg?w=1000&s=1", "address": "1981-3 Aza Suwa, Tennocho, Higashi-Ku Aeon Mall Hamamatsu Ichino 2F, Hamamatsu 435-0052 Shizuoka Prefecture", "lat": 34.74029, "lng": 137.76337, "ref_id": 10654266, "rating": 4, "num_reviews": 0, "website": null, "contact_phone": "+81 53-468-1795", "contact_email": null, "status": 1, "source_type": 1, "numberReviews": 4}, {"name": "Shunnoryoriouchi", "type": "restaurant", "image": "https://dynamic-media-cdn.tripadvisor.com/media/photo-o/0f/d8/bc/09/photo2jpg.jpg?w=1000&s=1", "address": "672 Itayacho Naka-Ku, Hamamatsu Shizuoka Prefecture", "lat": 34.706997, "lng": 137.73575, "ref_id": 7447061, "rating": 4, "num_reviews": 0, "website": null, "contact_phone": "+81 53-452-8600", "contact_email": null, "status": 1, "source_type": 1, "numberReviews": 4}, {"name": "Inohachi", "type": "restaurant", "image": "https://dynamic-media-cdn.tripadvisor.com/media/photo-o/11/33/92/31/caption.jpg?w=1000&s=1", "address": "10-8 Asahimachi, Naka-Ku Hamamatsu Ekimae Bldg. 1F, Hamamatsu 430-0927 Shizuoka Prefecture", "lat": 34.70494, "lng": 137.7329, "ref_id": 9955694, "rating": 4.5, "num_reviews": 0, "website": "https://www.ryo-bun.com/inohachi/", "contact_phone": "+81 53-454-6464", "contact_email": null, "status": 1, "source_type": 1, "numberReviews": 3}, {"name": "Hambergu no Mori Greengreen", "type": "restaurant", "image": "https://dynamic-media-cdn.tripadvisor.com/media/photo-o/09/e1/2b/17/photo1jpg.jpg?w=1000&s=1", "address": "120 Chitosecho, Naka-ku Temma Bldg. 2F, Hamamatsu 430-0934 Shizuoka Prefecture", "lat": 34.70324, "lng": 137.729, "ref_id": 6157622, "rating": 4.5, "num_reviews": 0, "website": null, "contact_phone": "+81 53-453-1517", "contact_email": null, "status": 1, "source_type": 1, "numberReviews": 3}, {"name": "Sato", "type": "restaurant", "image": null, "address": "1-7-8 Kami Asada, Naka-Ku, Hamamatsu 432-8042 Shizuoka Prefecture", "lat": 34.697083, "lng": 137.72704, "ref_id": 9899243, "rating": 5, "num_reviews": 0, "website": null, "contact_phone": "+81 53-455-0283", "contact_email": null, "status": 1, "source_type": 1, "numberReviews": 4}, {"name": "Bonjour Stand", "type": "restaurant", "image": null, "address": "143-24 Tokiwacho, Hamamatsu 430-0917 Shizuoka Prefecture", "lat": 34.710102, "lng": 137.73259, "ref_id": 16889137, "rating": 4.5, "num_reviews": 0, "website": null, "contact_phone": "+81 53-525-7557", "contact_email": null, "status": 1, "source_type": 1, "numberReviews": 2}, {"name": "Cake Cafe N's Ground", "type": "restaurant", "image": "https://dynamic-media-cdn.tripadvisor.com/media/photo-o/1b/c9/1f/d1/caption.jpg?w=1000&s=1", "address": "1132-1 Shimokanzo 1F West, Iwata 438-0126 Shizuoka Prefecture", "lat": 34.811287, "lng": 137.83743, "ref_id": 4896422, "rating": 4, "num_reviews": 0, "website": null, "contact_phone": "+81 539-63-5335", "contact_email": null, "status": 1, "source_type": 1, "numberReviews": 3}, {"name": "Banrai", "type": "restaurant", "image": null, "address": "2148-1 Tomitsukacho, Naka-Ku, Hamamatsu 432-8002 Shizuoka Prefecture", "lat": 34.7253, "lng": 137.695, "ref_id": 9962945, "rating": 4.5, "num_reviews": 0, "website": null, "contact_phone": "+81 53-523-9907", "contact_email": null, "status": 1, "source_type": 1, "numberReviews": 2}, {"name": "Tachinomi Izakaya Doramukan Hamamatsu", "type": "restaurant", "image": "https://dynamic-media-cdn.tripadvisor.com/media/photo-o/18/5f/a3/20/photo0jpg.jpg?w=1000&s=1", "address": "1-59 Kajicho Kaji 10 Chome Pe Bldg.1F, Hamamatsu 430-0933 Shizuoka Prefecture", "lat": 34.7029, "lng": 137.732, "ref_id": 17482318, "rating": 4.5, "num_reviews": 0, "website": null, "contact_phone": null, "contact_email": null, "status": 1, "source_type": 1, "numberReviews": 2}, {"name": "Bartriangle", "type": "restaurant", "image": "https://dynamic-media-cdn.tripadvisor.com/media/photo-o/12/81/88/9d/photo0jpg.jpg?w=1000&s=1", "address": "626 Itayacho Naka-Ku, Hamamatsu Shizuoka Prefecture", "lat": 34.707294, "lng": 137.7349, "ref_id": 7446579, "rating": 4.5, "num_reviews": 0, "website": null, "contact_phone": "+81 53-456-5111", "contact_email": null, "status": 1, "source_type": 1, "numberReviews": 3}, {"name": "Kinta Zushi", "type": "restaurant", "image": "https://dynamic-media-cdn.tripadvisor.com/media/photo-o/0b/e4/3e/e2/caption.jpg?w=1000&s=1", "address": "3-29-25 Kamoe, Naka-Ku, Hamamatsu 432-8023 Shizuoka Prefecture", "lat": 34.708935, "lng": 137.71477, "ref_id": 9933988, "rating": 4.5, "num_reviews": 0, "website": null, "contact_phone": "+81 53-453-3036", "contact_email": null, "status": 1, "source_type": 1, "numberReviews": 3}, {"name": "Unagi No Kagawa", "type": "restaurant", "image": "https://dynamic-media-cdn.tripadvisor.com/media/photo-o/09/e1/b2/ab/photo0jpg.jpg?w=1000&s=1", "address": "53-4 Funakoshicho Naka-Ku, Hamamatsu Shizuoka Prefecture", "lat": 34.7195, "lng": 137.75035, "ref_id": 7446283, "rating": 4, "num_reviews": 0, "website": null, "contact_phone": "+81 53-464-5300", "contact_email": null, "status": 1, "source_type": 1, "numberReviews": 4}, {"name": "Les Quatre Saisons Hamamatsu", "type": "restaurant", "image": "https://dynamic-media-cdn.tripadvisor.com/media/photo-o/15/d8/f3/62/caption.jpg?w=1000&s=1", "address": "223-21 Tamachi, Naka-ku Viola Tamachi 1F\u30fb2F, Hamamatsu 430-0944 Shizuoka Prefecture", "lat": 34.708523, "lng": 137.7292, "ref_id": 15662758, "rating": 4.5, "num_reviews": 0, "website": "http://www.l-qsh.com/restaurant/", "contact_phone": "+81 53-413-0880", "contact_email": null, "status": 1, "source_type": 1, "numberReviews": 2}, {"name": "Tonkaraten", "type": "restaurant", "image": "https://dynamic-media-cdn.tripadvisor.com/media/photo-o/0b/21/90/6b/photo0jpg.jpg?w=1000&s=1", "address": "2-8-30 Takabayashi, Naka-Ku, Hamamatsu 430-0907 Shizuoka Prefecture", "lat": 34.725044, "lng": 137.73425, "ref_id": 9887092, "rating": 4, "num_reviews": 0, "website": null, "contact_phone": "+81 53-474-3335", "contact_email": null, "status": 1, "source_type": 1, "numberReviews": 6}, {"name": "Hanano Sampomichi", "type": "restaurant", "image": "https://dynamic-media-cdn.tripadvisor.com/media/photo-o/10/cf/2f/75/2.jpg?w=1000&s=1", "address": "195 Kanzanjicho Nishi-Ku, Hamamatsu Shizuoka Prefecture", "lat": 34.76183, "lng": 137.63445, "ref_id": 7447190, "rating": 4, "num_reviews": 0, "website": null, "contact_phone": "+81 53-487-0511", "contact_email": null, "status": 1, "source_type": 1, "numberReviews": 5}, {"name": "Sushi Sensui", "type": "restaurant", "image": "https://dynamic-media-cdn.tripadvisor.com/media/photo-o/12/27/be/e4/photo0jpg.jpg?w=1000&s=1", "address": "2 Itayacho Naka-Ku, Hamamatsu Shizuoka Prefecture", "lat": 34.706837, "lng": 137.73367, "ref_id": 7447303, "rating": 5, "num_reviews": 0, "website": null, "contact_phone": "+81 53-457-3535", "contact_email": null, "status": 1, "source_type": 1, "numberReviews": 2}, {"name": "Ryoke Nikusho Grilled Beef Ryunosuke", "type": "restaurant", "image": null, "address": "3-2-6 Ryoke Naka-Ku, Hamamatsu 430-0852 Shizuoka Prefecture", "lat": 34.69546, "lng": 137.75006, "ref_id": 4907415, "rating": 4.5, "num_reviews": 0, "website": null, "contact_phone": "+81 53-469-5445", "contact_email": null, "status": 1, "source_type": 1, "numberReviews": 3}, {"name": "Biwa no Ki Niitsu Main branch", "type": "restaurant", "image": "https://dynamic-media-cdn.tripadvisor.com/media/photo-o/16/56/3b/d8/caption.jpg?w=1000&s=1", "address": "574 Shinzucho, Naka-ku, Hamamatsu Shizuoka Prefecture", "lat": 34.72183, "lng": 137.74213, "ref_id": 3865874, "rating": 3.5, "num_reviews": 0, "website": null, "contact_phone": "+81 53-411-3388", "contact_email": null, "status": 1, "source_type": 1, "numberReviews": 6}, {"name": "Shisen Hansp Weirin", "type": "restaurant", "image": "https://dynamic-media-cdn.tripadvisor.com/media/photo-o/18/01/a7/50/photo0jpg.jpg?w=1000&s=1", "address": "14-10 Shogencho Higashi-Ku, Hamamatsu 430-0802 Shizuoka Prefecture", "lat": 34.716328, "lng": 137.75345, "ref_id": 13267143, "rating": 4.5, "num_reviews": 0, "website": null, "contact_phone": "+81 53-570-8884", "contact_email": null, "status": 1, "source_type": 1, "numberReviews": 2}, {"name": "Aimasho", "type": "restaurant", "image": "https://dynamic-media-cdn.tripadvisor.com/media/photo-o/1c/ff/48/bf/dsc-0420-largejpg.jpg?w=1000&s=1", "address": "4-24-28 Izumi Naka-Ku, Hamamatsu Shizuoka Prefecture", "lat": 34.74603, "lng": 137.71545, "ref_id": 7447232, "rating": 4.5, "num_reviews": 0, "website": null, "contact_phone": "+81 53-473-3911", "contact_email": null, "status": 1, "source_type": 1, "numberReviews": 2}, {"name": "Mos Burger Hamamatsu Mikatahara", "type": "restaurant", "image": null, "address": "781-1 Mikatahara Kita-Ku, Hamamatsu Shizuoka Prefecture", "lat": 34.780605, "lng": 137.71915, "ref_id": 7446722, "rating": 4, "num_reviews": 0, "website": null, "contact_phone": "+81 53-439-8822", "contact_email": null, "status": 1, "source_type": 1, "numberReviews": 7}, {"name": "Surfers Dining & Bar", "type": "restaurant", "image": "https://dynamic-media-cdn.tripadvisor.com/media/photo-o/18/9c/d4/79/photo0jpg.jpg?w=1000&s=1", "address": "331-5 Tamachi Nakaku, Hamamatsu 430-0944 Shizuoka Prefecture", "lat": 34.70685, "lng": 137.7323, "ref_id": 17227560, "rating": 4.5, "num_reviews": 0, "website": "https://surfers.gorp.jp/", "contact_phone": "+81 50-3461-5207", "contact_email": null, "status": 1, "source_type": 1, "numberReviews": 2}, {"name": "Cafe Soco", "type": "restaurant", "image": "https://dynamic-media-cdn.tripadvisor.com/media/photo-o/1b/50/85/8e/caption.jpg?w=1000&s=1", "address": "954-1 Suwa Tennocho, Hamamatsu 435-0052 Shizuoka Prefecture", "lat": 34.7341, "lng": 137.77573, "ref_id": 14722915, "rating": 4.5, "num_reviews": 0, "website": null, "contact_phone": "+81 53-548-6095", "contact_email": null, "status": 1, "source_type": 1, "numberReviews": 2}, {"name": "Chinese Cuisine Tendan", "type": "restaurant", "image": "https://dynamic-media-cdn.tripadvisor.com/media/photo-o/23/e6/13/26/caption.jpg?w=1000&s=1", "address": "4396-1 Yamazaki, Yutocho, Nishi-Ku The Hamanako 1F, Hamamatsu 431-0101 Shizuoka Prefecture", "lat": 34.707123, "lng": 137.61537, "ref_id": 19764236, "rating": 3.5, "num_reviews": 0, "website": "http://www.daiwaresort.jp/hamanako/restaurant/index.html", "contact_phone": "+81 53-592-2222", "contact_email": null, "status": 1, "source_type": 1, "numberReviews": 3}, {"name": "Kabuto", "type": "restaurant", "image": "https://dynamic-media-cdn.tripadvisor.com/media/photo-o/22/ff/4d/a8/caption.jpg?w=1000&s=1", "address": "673 Itayamachi, Naka-Ku A-Bia Building 2F, Hamamatsu 430-0928 Shizuoka Prefecture", "lat": 34.70698, "lng": 137.73584, "ref_id": 9652776, "rating": 4.5, "num_reviews": 0, "website": null, "contact_phone": "+81 53-523-9222", "contact_email": null, "status": 1, "source_type": 1, "numberReviews": 2}, {"name": "Orange Papa", "type": "restaurant", "image": "https://dynamic-media-cdn.tripadvisor.com/media/photo-o/0f/d0/66/5e/caption.jpg?w=1000&s=1", "address": "331-5 Tamachi Naka-Ku, Hamamatsu Shizuoka Prefecture", "lat": 34.70689, "lng": 137.7323, "ref_id": 7446317, "rating": 5, "num_reviews": 0, "website": null, "contact_phone": "+81 53-456-0088", "contact_email": null, "status": 1, "source_type": 1, "numberReviews": 2}, {"name": "Drink & Food Leader Bentenjima", "type": "restaurant", "image": "https://dynamic-media-cdn.tripadvisor.com/media/photo-o/04/a0/62/f2/drink-food-leader-bentenjima.jpg?w=1000&s=1", "address": "3775-10 Maisakacho Bentenjima Nishi-Ku 2f, Hamamatsu 431-0214 Shizuoka Prefecture", "lat": 34.688942, "lng": 137.60277, "ref_id": 4900045, "rating": 4, "num_reviews": 0, "website": "http://www.leader-bg.jp/benten.html", "contact_phone": "+81 53-596-1873", "contact_email": null, "status": 1, "source_type": 1, "numberReviews": 5}, {"name": "Daifuku", "type": "restaurant", "image": "https://dynamic-media-cdn.tripadvisor.com/media/photo-o/0f/46/ab/01/caption.jpg?w=1000&s=1", "address": "57-15 Nishi Ibacho Naka-Ku, Hamamatsu Shizuoka Prefecture", "lat": 34.69937, "lng": 137.70074, "ref_id": 7636791, "rating": 3.5, "num_reviews": 0, "website": null, "contact_phone": "+81 53-457-1169", "contact_email": null, "status": 1, "source_type": 1, "numberReviews": 6}, {"name": "Katsuharu, Mikatahara", "type": "restaurant", "image": "https://dynamic-media-cdn.tripadvisor.com/media/photo-o/12/56/c7/20/photo0jpg.jpg?w=1000&s=1", "address": "754 Mikataharacho, Kita-ku, Hamamatsu 433-8105 Shizuoka Prefecture", "lat": 34.77998, "lng": 137.71643, "ref_id": 5815768, "rating": 4, "num_reviews": 0, "website": "http://jisuke.net/index.php?tn=index&in=311706&pan=28", "contact_phone": "+81 53-420-0588", "contact_email": null, "status": 1, "source_type": 1, "numberReviews": 6}, {"name": "Maid Cafe MAID MADE", "type": "restaurant", "image": "https://dynamic-media-cdn.tripadvisor.com/media/photo-o/23/3b/c6/0e/caption.jpg?w=1000&s=1", "address": "3-35-23, Osu, Naka, Nagoya 460-0011 Qu\u00e2\u0323n Aichi", "lat": 35.158466, "lng": 136.90361, "ref_id": 23459785, "rating": 5, "num_reviews": 0, "website": "http://made-maid.com", "contact_phone": "+81 52-887-3034", "contact_email": "maidmaid.magiaroid06@gmail.com", "status": 1, "source_type": 1, "numberReviews": 80}, {"name": "maidreamin Osu Manekineko-mae", "type": "restaurant", "image": "https://dynamic-media-cdn.tripadvisor.com/media/photo-o/2b/43/bb/a2/welcome-to-maidreamin.jpg?w=1000&s=1", "address": "3-31-45 Miu Bldg., Osu, Naka, Nagoya 460-0011 Qu\u00e2\u0323n Aichi", "lat": 35.158684, "lng": 136.90518, "ref_id": 11538685, "rating": 5, "num_reviews": 0, "website": "http://maidreamin.com/shop/detail.html?id=13", "contact_phone": "+81 3-6744-6726", "contact_email": "info@neodelight.biz", "status": 1, "source_type": 1, "numberReviews": 401}, {"name": "Atsuta Horaiken Matsuzakaya", "type": "restaurant", "image": "https://dynamic-media-cdn.tripadvisor.com/media/daodao/photo-o/10/bd/c6/30/photo1jpg.jpg?w=1000&s=1", "address": "3-30-8 Matsuzakaya Nagoya South Bldg. 10F, Sakae, Naka, Nagoya 460-0008 Qu\u00e2\u0323n Aichi", "lat": 35.164555, "lng": 136.9081, "ref_id": 1772996, "rating": 4.5, "num_reviews": 0, "website": "http://www.houraiken.com/sp/matsuzakaya.html#tenpo_news", "contact_phone": "+81 52-264-3825", "contact_email": "", "status": 1, "source_type": 1, "numberReviews": 851}, {"name": "Maruya Honten Meieki", "type": "restaurant", "image": "https://dynamic-media-cdn.tripadvisor.com/media/daodao/photo-o/12/a4/28/29/caption.jpg?w=1000&s=1", "address": "1-2-1 Meieki, Nakamuraku Meitetsu Department Store 9F, Nagoya 450-0002 Qu\u00e2\u0323n Aichi", "lat": 35.16972, "lng": 136.88399, "ref_id": 1679828, "rating": 4.5, "num_reviews": 0, "website": "http://www.maruya-honten.com/", "contact_phone": "+81 52-585-7108", "contact_email": "", "status": 1, "source_type": 1, "numberReviews": 531}, {"name": "Atsuta Horaiken Honten", "type": "restaurant", "image": "https://dynamic-media-cdn.tripadvisor.com/media/photo-o/0e/0c/93/d1/eel-liver.jpg?w=1000&s=1", "address": "503 Godocho, Atsuta-Ku, Nagoya 456-0043 Qu\u00e2\u0323n Aichi", "lat": 35.120163, "lng": 136.9069, "ref_id": 1390013, "rating": 4.5, "num_reviews": 0, "website": "http://www.houraiken.com/honten/", "contact_phone": "+81 52-671-8686", "contact_email": "", "status": 1, "source_type": 1, "numberReviews": 660}, {"name": "Atsuta Horaiken Jingu", "type": "restaurant", "image": "https://dynamic-media-cdn.tripadvisor.com/media/photo-o/17/9d/89/19/unadon-eel-bowl.jpg?w=1000&s=1", "address": "2-10-26 Jingu, Atsuta-Ku, Nagoya 456-0031 Qu\u00e2\u0323n Aichi", "lat": 35.122272, "lng": 136.90855, "ref_id": 1174087, "rating": 4.5, "num_reviews": 0, "website": "http://www.houraiken.com/jingu/", "contact_phone": "+81 52-682-5598", "contact_email": "", "status": 1, "source_type": 1, "numberReviews": 367}, {"name": "Hokkaido Cheese Factory Wagyu & Grill", "type": "restaurant", "image": "https://dynamic-media-cdn.tripadvisor.com/media/photo-o/2b/4f/82/03/caption.jpg?w=1000&s=1", "address": "4-60-12 Hiraikecho, Nakamura-ku Global Gate 107-2, Nagoya 453-6190 Qu\u00e2\u0323n Aichi", "lat": 35.162514, "lng": 136.88408, "ref_id": 19448897, "rating": 4.5, "num_reviews": 0, "website": "http://www.instagram.com/hokkaidocheesefactory/", "contact_phone": "+81 52-485-8862", "contact_email": "hcf.nagoya@gmail.com", "status": 1, "source_type": 1, "numberReviews": 87}, {"name": "Yabaton Yabacho Honten", "type": "restaurant", "image": "https://dynamic-media-cdn.tripadvisor.com/media/photo-o/15/47/c6/4c/regular-pork-chop-in.jpg?w=1000&s=1", "address": "3-6-18, Osu, Naka, Nagoya 460-0011 Qu\u00e2\u0323n Aichi", "lat": 35.161674, "lng": 136.9062, "ref_id": 1663907, "rating": 4, "num_reviews": 0, "website": "http://www.yabaton.com/modules/shop/index.php?content_id=2", "contact_phone": "+81 52-252-8810", "contact_email": "", "status": 1, "source_type": 1, "numberReviews": 586}, {"name": "Yabaton Nagoya Station Esca", "type": "restaurant", "image": "https://dynamic-media-cdn.tripadvisor.com/media/photo-o/0f/da/f1/72/photo0jpg.jpg?w=1000&s=1", "address": "6-9 Tsubakicho, Nakamura-Ku Esca Underground Shopping Center, Nagoya 453-0015 Qu\u00e2\u0323n Aichi", "lat": 35.171005, "lng": 136.87979, "ref_id": 3749709, "rating": 4, "num_reviews": 0, "website": "http://www.yabaton.com/modules/shop/index.php?content_id=5", "contact_phone": "+81 52-452-6500", "contact_email": null, "status": 1, "source_type": 1, "numberReviews": 322}, {"name": "Hitsumabushi Nagoya Bincho Lachic Location", "type": "restaurant", "image": "https://dynamic-media-cdn.tripadvisor.com/media/photo-o/0e/41/98/34/caption.jpg?w=1000&s=1", "address": "3-6-1 Lachic 7F, Sakae, Naka, Nagoya 460-0008 Qu\u00e2\u0323n Aichi", "lat": 35.167324, "lng": 136.90813, "ref_id": 1680012, "rating": 4.5, "num_reviews": 0, "website": "http://hitsumabushi.co.jp/", "contact_phone": "+81 52-259-6703", "contact_email": "", "status": 1, "source_type": 1, "numberReviews": 143}, {"name": "Antica Roma", "type": "restaurant", "image": "https://dynamic-media-cdn.tripadvisor.com/media/photo-o/0c/81/cb/9e/antica-roma.jpg?w=1000&s=1", "address": "39-18 Daikancho Higashi-ku Nihon Tojiki Center 1F, Nagoya 461-0002 Qu\u00e2\u0323n Aichi", "lat": 35.17448, "lng": 136.92206, "ref_id": 1730505, "rating": 5, "num_reviews": 0, "website": "http://www.anticaroma.jp/", "contact_phone": "+81 52-930-2770", "contact_email": "Info@anticaroma.jp", "status": 1, "source_type": 1, "numberReviews": 111}, {"name": "Hitsumabushi Nagoya Bincho Esca Location", "type": "restaurant", "image": "https://dynamic-media-cdn.tripadvisor.com/media/photo-o/0e/4d/4b/55/caption.jpg?w=1000&s=1", "address": "6-9 Tsubakicho, Nakamura-Ku Esca Underground Shopping Center, Nagoya 453-0015 Qu\u00e2\u0323n Aichi", "lat": 35.169594, "lng": 136.8808, "ref_id": 3758908, "rating": 4, "num_reviews": 0, "website": "http://hitsumabushi.co.jp/", "contact_phone": "+81 52-451-5557", "contact_email": null, "status": 1, "source_type": 1, "numberReviews": 146}, {"name": "Komeda Coffee Esca", "type": "restaurant", "image": "https://dynamic-media-cdn.tripadvisor.com/media/photo-o/14/b5/d7/ae/photo0jpg.jpg?w=1000&s=1", "address": "6-9 Tsubakicho, Nakamura-Ku Nagoya Station Esca Underground Shopping Mall, Nagoya 453-8565 Qu\u00e2\u0323n Aichi", "lat": 35.16993, "lng": 136.88065, "ref_id": 1702156, "rating": 4, "num_reviews": 0, "website": "http://www.komeda.co.jp/search/shopdetail.php?id=303", "contact_phone": "+81 52-454-3883", "contact_email": "", "status": 1, "source_type": 1, "numberReviews": 230}, {"name": "Yabaton Nagoyaeki Meitetsu Branch", "type": "restaurant", "image": "https://dynamic-media-cdn.tripadvisor.com/media/photo-o/0e/7c/31/ca/photo1jpg.jpg?w=1000&s=1", "address": "1-2-1 Meieki Nakamuraku Meitetsu Department Store Honten 9F, Nagoya 450-0002 Qu\u00e2\u0323n Aichi", "lat": 35.169643, "lng": 136.88397, "ref_id": 5122356, "rating": 4, "num_reviews": 0, "website": "http://www.yabaton.com/modules/shop/index.php?content_id=4", "contact_phone": "+81 52-563-7373", "contact_email": null, "status": 1, "source_type": 1, "numberReviews": 276}, {"name": "Miyakishimen Jingu", "type": "restaurant", "image": "https://dynamic-media-cdn.tripadvisor.com/media/photo-o/15/07/29/2b/img-20181004-105311-668.jpg?w=1000&s=1", "address": "1-1-1 Jingu, Atsuta-Ku inside Atsuta Jingu Shrine, Nagoya 456-8585 Qu\u00e2\u0323n Aichi", "lat": 35.12462, "lng": 136.9098, "ref_id": 3336090, "rating": 4, "num_reviews": 0, "website": "http://www.miyakishimen.co.jp/jingu/", "contact_phone": "+81 52-682-6340", "contact_email": null, "status": 1, "source_type": 1, "numberReviews": 145}, {"name": "Midtown BBQ Nagoya", "type": "restaurant", "image": "https://dynamic-media-cdn.tripadvisor.com/media/photo-o/1b/67/d5/59/bbq-platters.jpg?w=1000&s=1", "address": "5-24-3 Meieki, Naka, Nagoya 450-0002 Qu\u00e2\u0323n Aichi", "lat": 35.168346, "lng": 136.8919, "ref_id": 7373907, "rating": 4.5, "num_reviews": 0, "website": "http://www.midtown-bbq.com/nagoya", "contact_phone": "+81 52-898-5080", "contact_email": "nagoya@midtown-bbq.com", "status": 1, "source_type": 1, "numberReviews": 96}, {"name": "Yaba Misen", "type": "restaurant", "image": "https://dynamic-media-cdn.tripadvisor.com/media/photo-o/09/92/c3/42/caption.jpg?w=1000&s=1", "address": "3-6-3, Osu, Naka, Nagoya 460-0011 Qu\u00e2\u0323n Aichi", "lat": 35.161797, "lng": 136.90562, "ref_id": 2463611, "rating": 4, "num_reviews": 0, "website": "http://yabamisen.jp", "contact_phone": "+81 52-238-7357", "contact_email": "", "status": 1, "source_type": 1, "numberReviews": 317}, {"name": "Unagi Shirakawa Joshin Honten", "type": "restaurant", "image": "https://dynamic-media-cdn.tripadvisor.com/media/photo-o/14/ce/23/c2/photo1jpg.jpg?w=1000&s=1", "address": "4-20-12 Josai, Nishi-Ku, Nagoya 451-0031 Qu\u00e2\u0323n Aichi", "lat": 35.191555, "lng": 136.89188, "ref_id": 1237990, "rating": 4.5, "num_reviews": 0, "website": "http://hitsumabushi.jp/tenpo", "contact_phone": "+81 52-524-1415", "contact_email": "", "status": 1, "source_type": 1, "numberReviews": 138}, {"name": "Tajimaya Lalaport Nagoya Minato Aquls", "type": "restaurant", "image": "https://dynamic-media-cdn.tripadvisor.com/media/photo-o/2b/16/24/7b/caption.jpg?w=1000&s=1", "address": "2-3-2Komei, Minato-Ku Mitsui shopping park Lalaport Nagoya Minato Aquls 1F, Nagoya 455-0002 Qu\u00e2\u0323n Aichi", "lat": 35.108513, "lng": 136.8829, "ref_id": 15181129, "rating": 5, "num_reviews": 0, "website": "https://tajimaya-minatoaquls.manzo.club/", "contact_phone": "+81 52-655-5219", "contact_email": null, "status": 1, "source_type": 1, "numberReviews": 30}, {"name": "Sekai no Yamachan Nishiki", "type": "restaurant", "image": "https://dynamic-media-cdn.tripadvisor.com/media/photo-o/1a/82/06/60/caption.jpg?w=1000&s=1", "address": "3-1-9 Nishiki Sakuramachi Bldg. 1 to 2F, Naka, Nagoya 460-8679 Qu\u00e2\u0323n Aichi", "lat": 35.17307, "lng": 136.9028, "ref_id": 1701083, "rating": 4, "num_reviews": 0, "website": "http://www.yamachan.co.jp/shop/aichi/nishiki.php", "contact_phone": "+81 52-971-0521", "contact_email": "", "status": 1, "source_type": 1, "numberReviews": 163}, {"name": "Maruya Honten, JR Nagoya Station", "type": "restaurant", "image": "https://dynamic-media-cdn.tripadvisor.com/media/photo-o/12/d7/98/32/caption.jpg?w=1000&s=1", "address": "1-1-4 Meieki, Nakamura-Ku Nagoya Umaimon Dori, Nagoya 450-0002 Qu\u00e2\u0323n Aichi", "lat": 35.171146, "lng": 136.8842, "ref_id": 10397085, "rating": 4.5, "num_reviews": 0, "website": "http://www.maruya-honten.com/shop/%E3%81%BE%E3%82%8B%E3%82%84%E6%9C%AC%E5%BA%97%E3%80%80jr%E5%90%8D%E5%8F%A4%E5%B1%8B%E9%A7%85%E5%BA%97", "contact_phone": "+81 52-589-1208", "contact_email": null, "status": 1, "source_type": 1, "numberReviews": 77}, {"name": "Yamamotoya Honten Esca", "type": "restaurant", "image": "https://dynamic-media-cdn.tripadvisor.com/media/photo-o/15/07/7e/ce/caption.jpg?w=1000&s=1", "address": "6-9 Tsubakicho Nakamuraku Esca Underground Shopping Center, Nagoya 453-8565 Qu\u00e2\u0323n Aichi", "lat": 35.169563, "lng": 136.88054, "ref_id": 1701124, "rating": 4, "num_reviews": 0, "website": "http://yamamotoyahonten.co.jp/storeguidance/", "contact_phone": "+81 52-452-1889", "contact_email": "", "status": 1, "source_type": 1, "numberReviews": 260}, {"name": "Pizzeria Braceria Cesari", "type": "restaurant", "image": "https://dynamic-media-cdn.tripadvisor.com/media/photo-o/1b/dc/8d/c6/caption.jpg?w=1000&s=1", "address": "3-36-44, Osu, Naka, Nagoya 460-0011 Qu\u00e2\u0323n Aichi", "lat": 35.15856, "lng": 136.90263, "ref_id": 1681497, "rating": 4.5, "num_reviews": 0, "website": "http://www.cesari.jp/", "contact_phone": "+81 52-238-0372", "contact_email": "", "status": 1, "source_type": 1, "numberReviews": 140}, {"name": "Misen Imaike Honten", "type": "restaurant", "image": "https://dynamic-media-cdn.tripadvisor.com/media/photo-o/05/94/1e/c2/caption.jpg?w=1000&s=1", "address": "1-12-10 Imaike, Chikusa-Ku, Nagoya 464-0850 Qu\u00e2\u0323n Aichi", "lat": 35.167877, "lng": 136.93591, "ref_id": 1174099, "rating": 4, "num_reviews": 0, "website": "http://www.misen.ne.jp/gaiyo/", "contact_phone": "+81 52-733-7670", "contact_email": "", "status": 1, "source_type": 1, "numberReviews": 176}, {"name": "SHIRAKAWA Imaike GAS Bldg.", "type": "restaurant", "image": "https://dynamic-media-cdn.tripadvisor.com/media/photo-o/04/4c/16/77/unagi-shirakawa-imaike.jpg?w=1000&s=1", "address": "1-8-8 Imaike Chikusa-ku Imaike Gas Bldg. B1, Nagoya 464-0850 Qu\u00e2\u0323n Aichi", "lat": 35.168873, "lng": 136.93646, "ref_id": 1680726, "rating": 4, "num_reviews": 0, "website": "https://hitsumabushi.jp/", "contact_phone": "+81 52-741-3232", "contact_email": "info@hitsumabushi.jp", "status": 1, "source_type": 1, "numberReviews": 130}, {"name": "Sumiyoshi JR", "type": "restaurant", "image": "https://dynamic-media-cdn.tripadvisor.com/media/photo-o/1c/ec/f9/93/20210502-143141-largejpg.jpg?w=1000&s=1", "address": "1-1-4 Meieki Nakamura-ku, Nagoya 450-0002 Qu\u00e2\u0323n Aichi", "lat": 35.17085, "lng": 136.88275, "ref_id": 3821738, "rating": 4, "num_reviews": 0, "website": null, "contact_phone": "+81 52-565-9527", "contact_email": null, "status": 1, "source_type": 1, "numberReviews": 152}, {"name": "Unafuji", "type": "restaurant", "image": "https://dynamic-media-cdn.tripadvisor.com/media/photo-o/1d/3f/81/a6/caption.jpg?w=1000&s=1", "address": "1-1-4 Shirakane, Showa-ku Plesant Shirokane, Nagoya 466-0058 Qu\u00e2\u0323n Aichi", "lat": 35.14989, "lng": 136.9146, "ref_id": 3383154, "rating": 4.5, "num_reviews": 0, "website": "http://unagi-unafuji.com/", "contact_phone": "+81 52-881-0067", "contact_email": null, "status": 1, "source_type": 1, "numberReviews": 97}, {"name": "Supa Kin", "type": "restaurant", "image": "https://dynamic-media-cdn.tripadvisor.com/media/photo-o/12/56/9c/6e/caption.jpg?w=1000&s=1", "address": "3-4-15 Kyoei Bldg. B1F, Sakae, Naka, Nagoya 460-0008 Qu\u00e2\u0323n Aichi", "lat": 35.167896, "lng": 136.90688, "ref_id": 9906672, "rating": 4.5, "num_reviews": 0, "website": null, "contact_phone": "+81 52-261-1178", "contact_email": null, "status": 1, "source_type": 1, "numberReviews": 37}, {"name": "Hitsumabushi Ino, Esca", "type": "restaurant", "image": "https://dynamic-media-cdn.tripadvisor.com/media/photo-o/14/5f/e3/01/photo3jpg.jpg?w=1000&s=1", "address": "6-9 Tsubakicho, Nakamura-ku Esca Underground Shopping Center, Nagoya 453-0015 Qu\u00e2\u0323n Aichi", "lat": 35.170506, "lng": 136.88051, "ref_id": 3753509, "rating": 4, "num_reviews": 0, "website": "http://www.inou-hitsumabushi.com/", "contact_phone": "+81 52-453-1216", "contact_email": null, "status": 1, "source_type": 1, "numberReviews": 89}, {"name": "Ichibiki", "type": "restaurant", "image": "https://dynamic-media-cdn.tripadvisor.com/media/photo-o/17/0e/40/da/caption.jpg?w=1000&s=1", "address": "1-3-16 Meiekiminami, Nakamura-Ku, Nagoya 450-8677 Qu\u00e2\u0323n Aichi", "lat": 35.168064, "lng": 136.89095, "ref_id": 1703553, "rating": 4.5, "num_reviews": 0, "website": null, "contact_phone": "+81 52-582-3811", "contact_email": "", "status": 1, "source_type": 1, "numberReviews": 81}, {"name": "Maruhashokudo ryokan", "type": "restaurant", "image": "https://dynamic-media-cdn.tripadvisor.com/media/photo-o/17/2e/6d/4d/spring-set-menu.jpg?w=1000&s=1", "address": "8 Toyohama, Minamichita-cho, Chita-gun 470-3495 Qu\u00e2\u0323n Aichi", "lat": 34.70144, "lng": 136.94273, "ref_id": 1703361, "rating": 4, "num_reviews": 0, "website": "http://www.maruha-net.co.jp/shop/honten", "contact_phone": "+81 569-65-1315", "contact_email": "", "status": 1, "source_type": 1, "numberReviews": 101}, {"name": "Sansuitei", "type": "restaurant", "image": "https://dynamic-media-cdn.tripadvisor.com/media/photo-o/0e/c8/93/ce/caption.jpg?w=1000&s=1", "address": "95-10 Nishie, Sakatashinden, Issikicho, Nishio 444-0413 Qu\u00e2\u0323n Aichi", "lat": 34.79554, "lng": 137.0218, "ref_id": 7266965, "rating": 4.5, "num_reviews": 0, "website": "http://www.mikawasuisankakou.jp/sansuitei/", "contact_phone": "+81 563-72-8817", "contact_email": null, "status": 1, "source_type": 1, "numberReviews": 38}, {"name": "Uotaro Honten Ichiba Shokudo", "type": "restaurant", "image": "https://dynamic-media-cdn.tripadvisor.com/media/photo-o/1a/a4/76/56/bbq.jpg?w=1000&s=1", "address": "32-1 Toyooka Harago, Mihama-cho, Chita-gun 470-2414 Qu\u00e2\u0323n Aichi", "lat": 34.755276, "lng": 136.92917, "ref_id": 1768585, "rating": 4, "num_reviews": 0, "website": "http://www.uotaro.com/honten/shokudo/index.html", "contact_phone": "+81 569-84-8866", "contact_email": null, "status": 1, "source_type": 1, "numberReviews": 99}, {"name": "Menya Ippachi", "type": "restaurant", "image": "https://dynamic-media-cdn.tripadvisor.com/media/photo-o/15/28/42/d4/photo0jpg.jpg?w=1000&s=1", "address": "2-60 Kanokoda, Taketoyo-cho, Chita-gun 470-2302 Qu\u00e2\u0323n Aichi", "lat": 34.869026, "lng": 136.9056, "ref_id": 1703414, "rating": 4.5, "num_reviews": 0, "website": null, "contact_phone": "+81 569-73-2484", "contact_email": "", "status": 1, "source_type": 1, "numberReviews": 15}, {"name": "Unagi No Kanemitsu", "type": "restaurant", "image": "https://dynamic-media-cdn.tripadvisor.com/media/photo-o/13/57/38/73/photo1jpg.jpg?w=1000&s=1", "address": "18-1 Isshikicho Isshiki Higashishita Niwari, Nishio 444-0423 Qu\u00e2\u0323n Aichi", "lat": 34.798954, "lng": 137.02402, "ref_id": 10021807, "rating": 4, "num_reviews": 0, "website": "http://unaginokanemitsu.jp/", "contact_phone": "+81 120-166-889", "contact_email": "kanemitsusuisan@feel.ocn.ne.jp", "status": 1, "source_type": 1, "numberReviews": 25}, {"name": "Morita Aji No Yakata", "type": "restaurant", "image": "https://dynamic-media-cdn.tripadvisor.com/media/photo-o/1c/fe/ea/b9/caption.jpg?w=1000&s=1", "address": "10 Kosugaya Wakinohama, Tokoname Qu\u00e2\u0323n Aichi", "lat": 34.827385, "lng": 136.86623, "ref_id": 7584202, "rating": 4.5, "num_reviews": 0, "website": "http://moritakk.com/know_enjoy/ajinoyakata/", "contact_phone": "+81 569-37-0733", "contact_email": null, "status": 1, "source_type": 1, "numberReviews": 12}, {"name": "Au Fraisvert Radieux", "type": "restaurant", "image": "https://dynamic-media-cdn.tripadvisor.com/media/photo-o/0f/9a/3d/f9/caption.jpg?w=1000&s=1", "address": "14-1 Kitagata Tachido, Mihama-cho, Chita-gun 470-2403 Qu\u00e2\u0323n Aichi", "lat": 34.781845, "lng": 136.91454, "ref_id": 7478594, "rating": 4, "num_reviews": 0, "website": "http://fraisvert-radieux.com/", "contact_phone": "+81 569-82-3568", "contact_email": null, "status": 1, "source_type": 1, "numberReviews": 17}, {"name": "Noa Noa", "type": "restaurant", "image": "https://dynamic-media-cdn.tripadvisor.com/media/photo-o/13/29/ff/c0/20180505-134147-largejpg.jpg?w=1000&s=1", "address": "24 Onoura Iwanari, Mihama-cho, Chita-gun 470-3236 Qu\u00e2\u0323n Aichi", "lat": 34.757565, "lng": 136.84521, "ref_id": 10636675, "rating": 4, "num_reviews": 0, "website": "http://www.noanoacafe.com/", "contact_phone": "+81 569-87-1704", "contact_email": null, "status": 1, "source_type": 1, "numberReviews": 16}, {"name": "Cocco Terrace", "type": "restaurant", "image": "https://dynamic-media-cdn.tripadvisor.com/media/photo-o/12/3b/8d/98/caption.jpg?w=1000&s=1", "address": "249-1 Ashihazama Otani, Tokoname 479-0806 Qu\u00e2\u0323n Aichi", "lat": 34.84654, "lng": 136.86937, "ref_id": 13073170, "rating": 4, "num_reviews": 0, "website": "https://www.coco-terrace.com/", "contact_phone": "+81 569-36-7060", "contact_email": null, "status": 1, "source_type": 1, "numberReviews": 10}, {"name": "Kanedai", "type": "restaurant", "image": "https://dynamic-media-cdn.tripadvisor.com/media/photo-o/0f/9f/aa/c0/photo1jpg.jpg?w=1000&s=1", "address": "7-8 Katana Minamichita-Cho, Minamichita-cho, Chita-gun 470-3502 Qu\u00e2\u0323n Aichi", "lat": 34.707176, "lng": 136.97131, "ref_id": 4898687, "rating": 4, "num_reviews": 0, "website": "http://www.ikeuo-kanedai.co.jp/", "contact_phone": "+81 569-63-0670", "contact_email": null, "status": 1, "source_type": 1, "numberReviews": 10}, {"name": "Unami", "type": "restaurant", "image": "https://dynamic-media-cdn.tripadvisor.com/media/photo-o/13/74/92/e4/photo1jpg.jpg?w=1000&s=1", "address": "97-1 en-Nyuan, Shimoyatacho, Nishio 445-0056 Qu\u00e2\u0323n Aichi", "lat": 34.84405, "lng": 137.02315, "ref_id": 9890184, "rating": 4, "num_reviews": 0, "website": "https://www.facebook.com/pages/%E7%82%AD%E7%81%AB%E8%81%B7%E4%BA%BA-%E3%81%86%E3%81%AA%E3%81%BF/1454136874676106", "contact_phone": "+81 563-77-2393", "contact_email": null, "status": 1, "source_type": 1, "numberReviews": 23}, {"name": "Asahiya", "type": "restaurant", "image": "https://dynamic-media-cdn.tripadvisor.com/media/photo-o/0e/50/c8/ae/photo3jpg.jpg?w=1000&s=1", "address": "2-35 Morozaki Asahicho, Minamichita-cho, Chita-gun Qu\u00e2\u0323n Aichi", "lat": 34.7011, "lng": 136.97302, "ref_id": 7478569, "rating": 4.5, "num_reviews": 0, "website": "http://www.asahi-ya.info/maintenance.php", "contact_phone": "+81 569-63-0089", "contact_email": null, "status": 1, "source_type": 1, "numberReviews": 6}, {"name": "Seasonal Food & Lodge Uwamiso", "type": "restaurant", "image": "https://dynamic-media-cdn.tripadvisor.com/media/photo-o/0a/a7/db/7a/caption.jpg?w=1000&s=1", "address": "48 Himakajima Minamichita-Cho, Minamichita-cho, Chita-gun 470-3504 Qu\u00e2\u0323n Aichi", "lat": 34.704845, "lng": 137.00037, "ref_id": 4904602, "rating": 5, "num_reviews": 0, "website": "http://www.uwamisou.com/", "contact_phone": "+81 569-68-2070", "contact_email": null, "status": 1, "source_type": 1, "numberReviews": 7}, {"name": "Hirametei", "type": "restaurant", "image": "https://dynamic-media-cdn.tripadvisor.com/media/photo-o/16/f5/06/a4/caption.jpg?w=1000&s=1", "address": "6-107, Hirai, Taketoyo-cho, Chita-gun 470-2380 Qu\u00e2\u0323n Aichi", "lat": 34.860416, "lng": 136.90962, "ref_id": 3828040, "rating": 4.5, "num_reviews": 0, "website": "http://www.hirametei.com", "contact_phone": "+81 569-74-1800", "contact_email": null, "status": 1, "source_type": 1, "numberReviews": 7}, {"name": "Maruha Honkan", "type": "restaurant", "image": "https://dynamic-media-cdn.tripadvisor.com/media/photo-o/0c/ed/8c/54/caption.jpg?w=1000&s=1", "address": "80 Toyohama Nakamura, Minamichita-cho, Chita-gun 470-3412 Qu\u00e2\u0323n Aichi", "lat": 34.70849, "lng": 136.93407, "ref_id": 7478540, "rating": 3.5, "num_reviews": 0, "website": "http://www.maruha-honkan.com/info.html", "contact_phone": "+81 569-65-0814", "contact_email": null, "status": 1, "source_type": 1, "numberReviews": 15}, {"name": "Todai Udon", "type": "restaurant", "image": "https://dynamic-media-cdn.tripadvisor.com/media/photo-o/15/f4/68/b6/caption.jpg?w=1000&s=1", "address": "164-1 Okuda Ishigame, Mihama-cho, Chita-gun 470-3233 Qu\u00e2\u0323n Aichi", "lat": 34.795418, "lng": 136.86047, "ref_id": 5508966, "rating": 4, "num_reviews": 0, "website": "http://www.toudai-group.jp/toudaiudon/", "contact_phone": "+81 569-87-1011", "contact_email": null, "status": 1, "source_type": 1, "numberReviews": 10}, {"name": "Kaiten Maruha", "type": "restaurant", "image": "https://dynamic-media-cdn.tripadvisor.com/media/photo-o/14/be/d9/ed/caption.jpg?w=1000&s=1", "address": "8 Toyohama, Minamichita-cho, Chita-gun 470-3412 Qu\u00e2\u0323n Aichi", "lat": 34.701496, "lng": 136.94281, "ref_id": 6384245, "rating": 4, "num_reviews": 0, "website": "http://www.maruha-net.co.jp/shop/honten", "contact_phone": "+81 569-65-1315", "contact_email": null, "status": 1, "source_type": 1, "numberReviews": 11}, {"name": "Pizzeria Passo Avanti", "type": "restaurant", "image": "https://dynamic-media-cdn.tripadvisor.com/media/photo-o/16/91/f0/81/photo4jpg.jpg?w=1000&s=1", "address": "82-1 komasu, Utsumi, Minamichita-cho, Chita-gun 470-3321 Qu\u00e2\u0323n Aichi", "lat": 34.72845, "lng": 136.8785, "ref_id": 8733518, "rating": 4.5, "num_reviews": 0, "website": "http://pizzeria-passo-avanti.webnode.jp/", "contact_phone": "+81 569-62-3371", "contact_email": null, "status": 1, "source_type": 1, "numberReviews": 6}, {"name": "Ichiba Dining Toyohama Port", "type": "restaurant", "image": "https://dynamic-media-cdn.tripadvisor.com/media/photo-o/16/d9/90/5d/caption.jpg?w=1000&s=1", "address": "20 Toyohama Minamichita-Cho, Minamichita-cho, Chita-gun 470-3412 Qu\u00e2\u0323n Aichi", "lat": 34.706665, "lng": 136.93825, "ref_id": 4904136, "rating": 3.5, "num_reviews": 0, "website": null, "contact_phone": "+81 569-65-2766", "contact_email": null, "status": 1, "source_type": 1, "numberReviews": 14}, {"name": "Unagidokoro Isshiki", "type": "restaurant", "image": "https://dynamic-media-cdn.tripadvisor.com/media/photo-o/1c/73/5c/ac/caption.jpg?w=1000&s=1", "address": "176 Isshikicho Koyabu Funae Higashi, Nishio 444-0424 Qu\u00e2\u0323n Aichi", "lat": 34.794422, "lng": 137.01411, "ref_id": 17653768, "rating": 4.5, "num_reviews": 0, "website": null, "contact_phone": "+81 563-65-0141", "contact_email": null, "status": 1, "source_type": 1, "numberReviews": 3}, {"name": "Todai Ramen", "type": "restaurant", "image": "https://dynamic-media-cdn.tripadvisor.com/media/photo-o/0f/37/17/82/caption.jpg?w=1000&s=1", "address": "26 Noma Nakamachi, Mihama-cho, Chita-gun 470-3235 Qu\u00e2\u0323n Aichi", "lat": 34.77732, "lng": 136.85464, "ref_id": 10015186, "rating": 4, "num_reviews": 0, "website": null, "contact_phone": "+81 569-87-0328", "contact_email": null, "status": 1, "source_type": 1, "numberReviews": 10}, {"name": "Namihei", "type": "restaurant", "image": "https://dynamic-media-cdn.tripadvisor.com/media/photo-o/11/a0/ba/52/caption.jpg?w=1000&s=1", "address": "Shinmachi-177-1, Mihama-cho, Chita-gun 470-3235 Qu\u00e2\u0323n Aichi", "lat": 34.775696, "lng": 136.85281, "ref_id": 5523529, "rating": 4, "num_reviews": 0, "website": null, "contact_phone": "+81 569-87-1318", "contact_email": null, "status": 1, "source_type": 1, "numberReviews": 8}, {"name": "Sugi", "type": "restaurant", "image": "https://dynamic-media-cdn.tripadvisor.com/media/photo-o/19/c2/74/28/20191019-122036-largejpg.jpg?w=1000&s=1", "address": "46-17 Toyooka Aza Godo, Minamichita-cho, Chita-gun Qu\u00e2\u0323n Aichi", "lat": 34.74598, "lng": 136.94263, "ref_id": 7478568, "rating": 4, "num_reviews": 0, "website": null, "contact_phone": "+81 569-65-2774", "contact_email": null, "status": 1, "source_type": 1, "numberReviews": 9}, {"name": "Budoya", "type": "restaurant", "image": "https://dynamic-media-cdn.tripadvisor.com/media/photo-o/04/9f/d7/6a/budoya.jpg?w=1000&s=1", "address": "59 Yamami Minamichita-Cho Marin Chateau Yamami102, Minamichita-cho, Chita-gun 470-3322 Qu\u00e2\u0323n Aichi", "lat": 34.72135, "lng": 136.89159, "ref_id": 4906878, "rating": 4.5, "num_reviews": 0, "website": "http://budouya.mongolian.jp/budou1.htm", "contact_phone": "+81 569-62-3593", "contact_email": null, "status": 1, "source_type": 1, "numberReviews": 7}, {"name": "Gyo Gyo Gyo", "type": "restaurant", "image": "https://dynamic-media-cdn.tripadvisor.com/media/photo-o/19/10/36/f0/img-20190831-175545370.jpg?w=1000&s=1", "address": "18 Harago Oaza Toyooka, Mihama-cho, Chita-gun 470-2414 Qu\u00e2\u0323n Aichi", "lat": 34.754517, "lng": 136.93097, "ref_id": 13142541, "rating": 4, "num_reviews": 0, "website": null, "contact_phone": "+81 569-82-5558", "contact_email": null, "status": 1, "source_type": 1, "numberReviews": 5}, {"name": "Hamami New Bldg.", "type": "restaurant", "image": "https://dynamic-media-cdn.tripadvisor.com/media/photo-o/0e/af/e9/6c/caption.jpg?w=1000&s=1", "address": "43 Katana Minamichita-Cho, Minamichita-cho, Chita-gun 470-3502 Qu\u00e2\u0323n Aichi", "lat": 34.705036, "lng": 136.97253, "ref_id": 4900406, "rating": 4.5, "num_reviews": 0, "website": "http://hamami-shinkan.com/", "contact_phone": "+81 569-63-3033", "contact_email": null, "status": 1, "source_type": 1, "numberReviews": 6},