[{"name": "Misen Tsu", "type": "restaurant", "image": "https://dynamic-media-cdn.tripadvisor.com/media/photo-o/1d/3c/8c/bb/caption.jpg?w=1000&s=1", "address": "188-1 Nakagawara, Tsu 514-0018 Mie Prefecture", "lat": 34.72602, "lng": 136.51834, "ref_id": 6715618, "rating": 4.5, "num_reviews": 0, "website": null, "contact_phone": "+81 59-213-5066", "contact_email": null, "status": 1, "source_type": 1, "numberReviews": 8}, {"name": "Ichibantei Mie Daigaku Kita", "type": "restaurant", "image": "https://dynamic-media-cdn.tripadvisor.com/media/photo-o/0d/c3/38/ea/ichibantei-mie-daigaku.jpg?w=1000&s=1", "address": "414-1 Kurima Machiyacho, Tsu Mie Prefecture", "lat": 34.750347, "lng": 136.52177, "ref_id": 7466310, "rating": 4, "num_reviews": 0, "website": null, "contact_phone": "+81 59-231-7511", "contact_email": null, "status": 1, "source_type": 1, "numberReviews": 4}, {"name": "Hachi No Sutsu Ekimae", "type": "restaurant", "image": null, "address": "335 Hadokorocho, Tsu Mie Prefecture", "lat": 34.73274, "lng": 136.5109, "ref_id": 7466354, "rating": 4.5, "num_reviews": 0, "website": null, "contact_phone": "+81 59-225-6039", "contact_email": null, "status": 1, "source_type": 1, "numberReviews": 2}, {"name": "Mameya", "type": "restaurant", "image": "https://dynamic-media-cdn.tripadvisor.com/media/photo-o/16/1c/3a/15/photo0jpg.jpg?w=1000&s=1", "address": "21-23 Daimon Wynn Yamamoto Building 1F, Tsu 514-0027 Mie Prefecture", "lat": 34.720215, "lng": 136.51152, "ref_id": 14727723, "rating": 5, "num_reviews": 0, "website": null, "contact_phone": "+81 59-246-6080", "contact_email": null, "status": 1, "source_type": 1, "numberReviews": 1}, {"name": "Restaurant Paseo", "type": "restaurant", "image": "https://dynamic-media-cdn.tripadvisor.com/media/photo-o/09/2e/2a/2a/photo0jpg.jpg?w=1000&s=1", "address": "1577 Yacho Kurimamachi, Tsu Mie Prefecture", "lat": 34.746456, "lng": 136.5214, "ref_id": 7466296, "rating": 4, "num_reviews": 0, "website": "http://www.mucoop.jp/shop/paseo.html", "contact_phone": "+81 59-231-3854", "contact_email": null, "status": 1, "source_type": 1, "numberReviews": 3}, {"name": "Meshidokoro Shirube", "type": "restaurant", "image": "https://dynamic-media-cdn.tripadvisor.com/media/photo-o/17/a4/c9/f2/dsc-9578-largejpg.jpg?w=1000&s=1", "address": "19-20 Daimon, Tsu 514-0027 Mie Prefecture", "lat": 34.719494, "lng": 136.51251, "ref_id": 13306316, "rating": 4, "num_reviews": 0, "website": "http://mesidokorosirube.com/index.html", "contact_phone": "+81 59-261-4116", "contact_email": null, "status": 1, "source_type": 1, "numberReviews": 2}, {"name": "McDonald's Tsu-Kita MaxValu", "type": "restaurant", "image": "https://dynamic-media-cdn.tripadvisor.com/media/photo-o/12/fe/27/dc/line-1526724684948-largejpg.jpg?w=1000&s=1", "address": "42-1 Isshinden Kozubeta, Tsu 514-0061 Mie Prefecture", "lat": 34.748104, "lng": 136.50288, "ref_id": 6519667, "rating": 3.5, "num_reviews": 0, "website": null, "contact_phone": "+81 59-236-5211", "contact_email": null, "status": 1, "source_type": 1, "numberReviews": 11}, {"name": "Aix-En Provance", "type": "restaurant", "image": "https://dynamic-media-cdn.tripadvisor.com/media/photo-o/15/ff/02/87/centro-da-cidade.jpg?w=1000&s=1", "address": "2-69 Edobashi, Tsu Mie Prefecture", "lat": 34.740543, "lng": 136.52155, "ref_id": 7466081, "rating": 4, "num_reviews": 0, "website": null, "contact_phone": "+81 59-231-3488", "contact_email": null, "status": 1, "source_type": 1, "numberReviews": 2}, {"name": "Tower Z", "type": "restaurant", "image": null, "address": "9 Shimazakicho, Tsu 514-0002 Mie Prefecture", "lat": 34.729847, "lng": 136.5197, "ref_id": 9613405, "rating": 3.5, "num_reviews": 0, "website": "https://www.facebook.com/RetorokaferaibutowerZ", "contact_phone": "+81 59-222-7239", "contact_email": null, "status": 1, "source_type": 1, "numberReviews": 4}, {"name": "Fujikura", "type": "restaurant", "image": null, "address": "9-2 Daimon, Tsu 514-0027 Mie Prefecture", "lat": 34.71918, "lng": 136.51164, "ref_id": 9672033, "rating": 5, "num_reviews": 0, "website": null, "contact_phone": "+81 59-229-5081", "contact_email": null, "status": 1, "source_type": 1, "numberReviews": 1}, {"name": "Yakitori Torisawa", "type": "restaurant", "image": null, "address": "381 Hadokorocho, Tsu 514-0009 Mie Prefecture", "lat": 34.734447, "lng": 136.5119, "ref_id": 13267688, "rating": 4, "num_reviews": 0, "website": "http://www.\u671d\u65e5\u5c4b.com/torisawa", "contact_phone": "+81 59-229-0299", "contact_email": null, "status": 1, "source_type": 1, "numberReviews": 2}, {"name": "Nichiyokan", "type": "restaurant", "image": null, "address": "72 Yamanaka Onsen Sakae, Kaga 922-0125 Ishikawa Prefecture", "lat": 36.245594, "lng": 136.3732, "ref_id": 16888594, "rating": -1, "num_reviews": 0, "website": null, "contact_phone": "+81 761-71-0525", "contact_email": null, "status": 1, "source_type": 1, "numberReviews": 0}, {"name": "Tamayadori", "type": "restaurant", "image": "https://dynamic-media-cdn.tripadvisor.com/media/photo-o/1a/c4/8d/91/caption.jpg?w=1000&s=1", "address": "422 Owada 2, Fukui 910-0836 Fukui Prefecture", "lat": 36.095078, "lng": 136.24783, "ref_id": 19264504, "rating": -1, "num_reviews": 0, "website": null, "contact_phone": "+81 776-63-5751", "contact_email": null, "status": 1, "source_type": 1, "numberReviews": 0}, {"name": "Banderina", "type": "restaurant", "image": null, "address": "17-17-1 Gennyo Maruokacho, Sakai 910-0276 Fukui Prefecture", "lat": 36.167618, "lng": 136.26286, "ref_id": 13067972, "rating": -1, "num_reviews": 0, "website": null, "contact_phone": "+81 776-66-3323", "contact_email": null, "status": 1, "source_type": 1, "numberReviews": 0}, {"name": "Eisendo", "type": "restaurant", "image": null, "address": "4-18 Maruokacho Nishi Uriya, Sakai 910-0246 Fukui Prefecture", "lat": 36.1465, "lng": 136.26765, "ref_id": 13188710, "rating": -1, "num_reviews": 0, "website": null, "contact_phone": "+81 776-66-0363", "contact_email": null, "status": 1, "source_type": 1, "numberReviews": 0}, {"name": "Bonjour Mikuni", "type": "restaurant", "image": null, "address": "1-4-45 Mikunicho Kitahommachi, Sakai 913-0046 Fukui Prefecture", "lat": 36.21651, "lng": 136.14958, "ref_id": 13067996, "rating": -1, "num_reviews": 0, "website": null, "contact_phone": "+81 776-82-5959", "contact_email": null, "status": 1, "source_type": 1, "numberReviews": 0}, {"name": "cadre", "type": "restaurant", "image": null, "address": "1-2601 Takagi Chuo, Fukui 910-0804 Fukui Prefecture", "lat": 36.0879, "lng": 136.23537, "ref_id": 20165937, "rating": -1, "num_reviews": 0, "website": null, "contact_phone": "+81 776-50-6177", "contact_email": null, "status": 1, "source_type": 1, "numberReviews": 0}, {"name": "Cafe Milano", "type": "restaurant", "image": null, "address": "32-24-1 Owadacho, Fukui Fukui Prefecture", "lat": 36.09694, "lng": 136.25195, "ref_id": 7405536, "rating": -1, "num_reviews": 0, "website": null, "contact_phone": "+81 776-57-2627", "contact_email": null, "status": 1, "source_type": 1, "numberReviews": 0}, {"name": "Asobi Bar Rockaway", "type": "restaurant", "image": null, "address": "66-3 Otayamachi, Takaoka 933-0029 Toyama Prefecture", "lat": 36.743427, "lng": 137.01678, "ref_id": 19264460, "rating": -1, "num_reviews": 0, "website": null, "contact_phone": "+81 766-92-2777", "contact_email": null, "status": 1, "source_type": 1, "numberReviews": 0}, {"name": "Shichifuku", "type": "restaurant", "image": null, "address": "489-3 Imakaihotsu, Imizu Toyama Prefecture", "lat": 36.72692, "lng": 137.08617, "ref_id": 7542872, "rating": -1, "num_reviews": 0, "website": null, "contact_phone": "+81 766-55-5988", "contact_email": null, "status": 1, "source_type": 1, "numberReviews": 0}, {"name": "Hakata Shoguntakaoka", "type": "restaurant", "image": null, "address": "4-25 Nishimachi, Takaoka Toyama Prefecture", "lat": 36.750668, "lng": 136.99734, "ref_id": 7636178, "rating": -1, "num_reviews": 0, "website": null, "contact_phone": "+81 766-73-2448", "contact_email": null, "status": 1, "source_type": 1, "numberReviews": 0}, {"name": "Mangekyo", "type": "restaurant", "image": null, "address": "719-1 Seibu Ota Nakamura Ota, Takaoka Toyama Prefecture", "lat": 36.819336, "lng": 137.02312, "ref_id": 7634223, "rating": -1, "num_reviews": 0, "website": null, "contact_phone": "+81 766-44-2676", "contact_email": null, "status": 1, "source_type": 1, "numberReviews": 0}, {"name": "Usaka Shunsai Sake-Dokoro", "type": "restaurant", "image": null, "address": "570-2 Shimokutsuwada, Fuchumachi, Toyama 939-2716 Toyama Prefecture", "lat": 36.667385, "lng": 137.17389, "ref_id": 9670680, "rating": -1, "num_reviews": 0, "website": null, "contact_phone": "+81 76-465-4770", "contact_email": null, "status": 1, "source_type": 1, "numberReviews": 0}, {"name": "Neneya Takaokaten", "type": "restaurant", "image": null, "address": "2-1-1 Otsubomachi, Takaoka 933-0918 Toyama Prefecture", "lat": 36.75491, "lng": 137.0186, "ref_id": 13187714, "rating": -1, "num_reviews": 0, "website": "http://www.d-neneya.com/", "contact_phone": "+81 50-5485-1570", "contact_email": null, "status": 1, "source_type": 1, "numberReviews": 0}, {"name": "Fresh Fish Higuchi", "type": "restaurant", "image": null, "address": "5-23 Kitaomachi, Himi 935-0004 Toyama Prefecture", "lat": 36.862522, "lng": 136.98528, "ref_id": 13067355, "rating": -1, "num_reviews": 0, "website": null, "contact_phone": "+81 766-72-0437", "contact_email": null, "status": 1, "source_type": 1, "numberReviews": 0}, {"name": "Konjaku-An", "type": "restaurant", "image": null, "address": "1389-5 Nomura, Takaoka Toyama Prefecture", "lat": 36.756405, "lng": 137.03976, "ref_id": 7427288, "rating": -1, "num_reviews": 0, "website": null, "contact_phone": "+81 766-25-1047", "contact_email": null, "status": 1, "source_type": 1, "numberReviews": 0}, {"name": "Tsubakiya", "type": "restaurant", "image": null, "address": "13-10 Hommaru-Machi, Takaoka Toyama Prefecture", "lat": 36.752773, "lng": 137.02124, "ref_id": 7427407, "rating": -1, "num_reviews": 0, "website": null, "contact_phone": "+81 766-23-4740", "contact_email": null, "status": 1, "source_type": 1, "numberReviews": 0}, {"name": "Hotto Motto Takaoka Kanayahonmachi", "type": "restaurant", "image": null, "address": "3-2 Kanayahonmachi, Takaoka 933-0945 Toyama Prefecture", "lat": 36.751507, "lng": 137.00606, "ref_id": 15852620, "rating": -1, "num_reviews": 0, "website": "http://shop.hottomotto.com/map/63724", "contact_phone": "+81 766-28-8377", "contact_email": null, "status": 1, "source_type": 1, "numberReviews": 0}, {"name": "Chuga", "type": "restaurant", "image": null, "address": "6 Kommadashimachi Yamacho Valley, Takaoka 933-0914 Toyama Prefecture", "lat": 36.74778, "lng": 137.01219, "ref_id": 14965702, "rating": -1, "num_reviews": 0, "website": null, "contact_phone": null, "contact_email": null, "status": 1, "source_type": 1, "numberReviews": 0}, {"name": "Clover Hall", "type": "restaurant", "image": null, "address": "1211 Otayamachi, Takaoka 933-0029 Toyama Prefecture", "lat": 36.74575, "lng": 137.0151, "ref_id": 23797440, "rating": -1, "num_reviews": 0, "website": "https://www.facebook.com/%E3%82%AF%E3%83%AD%E3%83%BC%E3%83%90%E3%83%BC%E3%83%9B%E3%83%BC%E3%83%AB-947188331958867/", "contact_phone": "+81 766-28-0428", "contact_email": null, "status": 1, "source_type": 1, "numberReviews": 0}, {"name": "Teraotasukesa", "type": "restaurant", "image": null, "address": "188 Ota, Takaoka Toyama Prefecture", "lat": 36.810776, "lng": 137.00891, "ref_id": 7427367, "rating": -1, "num_reviews": 0, "website": "http://tasukesa.com/", "contact_phone": "+81 766-44-1329", "contact_email": null, "status": 1, "source_type": 1, "numberReviews": 0}, {"name": "Le Kokodeshu", "type": "restaurant", "image": null, "address": "84-2 Fuchumachihaneshin, Toyama 930-0864 Toyama Prefecture", "lat": 36.67977, "lng": 137.1887, "ref_id": 13264703, "rating": -1, "num_reviews": 0, "website": null, "contact_phone": "+81 76-461-5822", "contact_email": null, "status": 1, "source_type": 1, "numberReviews": 0}, {"name": "Sri Lanka", "type": "restaurant", "image": null, "address": "426 Tonya-Machi, Takaoka Toyama Prefecture", "lat": 36.72702, "lng": 137.0243, "ref_id": 7427147, "rating": -1, "num_reviews": 0, "website": null, "contact_phone": "+81 766-25-6760", "contact_email": null, "status": 1, "source_type": 1, "numberReviews": 0}, {"name": "Tokai", "type": "restaurant", "image": null, "address": "4-19 Chuomachi, Imizu Toyama Prefecture", "lat": 36.78008, "lng": 137.08595, "ref_id": 7638071, "rating": -1, "num_reviews": 0, "website": null, "contact_phone": "+81 766-84-3559", "contact_email": null, "status": 1, "source_type": 1, "numberReviews": 0}, {"name": "Nirinya", "type": "restaurant", "image": null, "address": "7-6 Tomei Shichiken, Imizu 933-0236 Toyama Prefecture", "lat": 36.76105, "lng": 137.15439, "ref_id": 14740912, "rating": -1, "num_reviews": 0, "website": null, "contact_phone": "+81 766-86-2272", "contact_email": null, "status": 1, "source_type": 1, "numberReviews": 0}, {"name": "Casual Dining Casa Cucina Laguna Gamagori", "type": "restaurant", "image": null, "address": "2-2 Kaiyocho Laguna Gamagori 2F, Gamagori 443-0014 Qu\u00e2\u0323n Aichi", "lat": 34.808304, "lng": 137.27446, "ref_id": 10645811, "rating": 3.5, "num_reviews": 0, "website": "https://www.lagunatenbosch.co.jp/festival/shop/87/index.html", "contact_phone": "+81 533-58-2532", "contact_email": null, "status": 1, "source_type": 1, "numberReviews": 4}, {"name": "Hinomaruya", "type": "restaurant", "image": null, "address": "189 Hanada Ichibancho, Toyohashi 441-8013 Qu\u00e2\u0323n Aichi", "lat": 34.763733, "lng": 137.38023, "ref_id": 11879463, "rating": 4, "num_reviews": 0, "website": null, "contact_phone": "+81 90-9198-9494", "contact_email": null, "status": 1, "source_type": 1, "numberReviews": 1}, {"name": "Marumi Sushi", "type": "restaurant", "image": null, "address": "12 Yabushita Koucho, Toyokawa Qu\u00e2\u0323n Aichi", "lat": 34.83358, "lng": 137.32782, "ref_id": 7635651, "rating": 4, "num_reviews": 0, "website": null, "contact_phone": "+81 533-87-4181", "contact_email": null, "status": 1, "source_type": 1, "numberReviews": 2}, {"name": "Masachika", "type": "restaurant", "image": "https://dynamic-media-cdn.tripadvisor.com/media/photo-o/0d/bb/05/36/photo3jpg.jpg?w=1000&s=1", "address": "3-79 Matsubacho, Toyohashi 440-0897 Qu\u00e2\u0323n Aichi", "lat": 34.767586, "lng": 137.38454, "ref_id": 9941816, "rating": 4, "num_reviews": 0, "website": null, "contact_phone": "+81 532-56-6630", "contact_email": null, "status": 1, "source_type": 1, "numberReviews": 1}, {"name": "Steak House Broncobilly Toyohashi Hanada", "type": "restaurant", "image": null, "address": "16-2 Hanadacho Nakanotsubo, Toyohashi 441-8019 Qu\u00e2\u0323n Aichi", "lat": 34.768227, "lng": 137.37431, "ref_id": 9905246, "rating": 3.5, "num_reviews": 0, "website": null, "contact_phone": "+81 532-34-3551", "contact_email": null, "status": 1, "source_type": 1, "numberReviews": 2}, {"name": "Herb De Rose", "type": "restaurant", "image": "https://dynamic-media-cdn.tripadvisor.com/media/photo-o/0d/bf/9b/da/caption.jpg?w=1000&s=1", "address": "1-4-25 Tamenishimachi, Toyohashi 440-0026 Qu\u00e2\u0323n Aichi", "lat": 34.76288, "lng": 137.43307, "ref_id": 4900241, "rating": 3.5, "num_reviews": 0, "website": null, "contact_phone": "+81 532-62-9073", "contact_email": null, "status": 1, "source_type": 1, "numberReviews": 2}, {"name": "Sinkyo Shokudo", "type": "restaurant", "image": "https://dynamic-media-cdn.tripadvisor.com/media/photo-o/0d/c1/71/4e/caption.jpg?w=1000&s=1", "address": "2-96 Ekimaedori, Toyokawa Qu\u00e2\u0323n Aichi", "lat": 34.822342, "lng": 137.38916, "ref_id": 7405354, "rating": 3.5, "num_reviews": 0, "website": null, "contact_phone": "+81 533-86-2590", "contact_email": null, "status": 1, "source_type": 1, "numberReviews": 2}, {"name": "Coffee House Sazanami", "type": "restaurant", "image": "https://dynamic-media-cdn.tripadvisor.com/media/photo-o/0d/63/88/ff/caption.jpg?w=1000&s=1", "address": "42-1 Aza Yotsuya, Shimojicho, Toyohashi 440-0086 Qu\u00e2\u0323n Aichi", "lat": 34.7798, "lng": 137.37813, "ref_id": 9646217, "rating": 4, "num_reviews": 0, "website": null, "contact_phone": "+81 532-52-0020", "contact_email": null, "status": 1, "source_type": 1, "numberReviews": 1}, {"name": "Koisan", "type": "restaurant", "image": "https://dynamic-media-cdn.tripadvisor.com/media/photo-o/0d/58/ed/a3/caption.jpg?w=1000&s=1", "address": "5-33 Ushikuboekidori, Toyokawa Qu\u00e2\u0323n Aichi", "lat": 34.818886, "lng": 137.37679, "ref_id": 7405161, "rating": 4, "num_reviews": 0, "website": null, "contact_phone": "+81 533-86-8510", "contact_email": null, "status": 1, "source_type": 1, "numberReviews": 1}, {"name": "Brown Sugar Cafe", "type": "restaurant", "image": "https://dynamic-media-cdn.tripadvisor.com/media/photo-o/0d/4e/47/99/brown-sugar-cafe.jpg?w=1000&s=1", "address": "29-2 Kozakaicho, Toyokawa 441-0103 Qu\u00e2\u0323n Aichi", "lat": 34.800247, "lng": 137.35869, "ref_id": 4896300, "rating": 3.5, "num_reviews": 0, "website": "http://ja-jp.facebook.com/BrownSugarCafe.jp/posts/", "contact_phone": "+81 533-78-3357", "contact_email": null, "status": 1, "source_type": 1, "numberReviews": 2}, {"name": "Sobafuji", "type": "restaurant", "image": "https://dynamic-media-cdn.tripadvisor.com/media/photo-o/0c/ae/57/22/2.jpg?w=1000&s=1", "address": "3-17-1 Iwatacho, Toyohashi 440-0832 Qu\u00e2\u0323n Aichi", "lat": 34.749237, "lng": 137.4249, "ref_id": 4899813, "rating": 4, "num_reviews": 0, "website": null, "contact_phone": "+81 532-62-4156", "contact_email": null, "status": 1, "source_type": 1, "numberReviews": 1}, {"name": "Sugakiya Toyohashi Minami Aeon", "type": "restaurant", "image": null, "address": "1-12 Ochiai, Noyoricho Aeon Toyohashi Minami 2F, Toyohashi 441-8124 Qu\u00e2\u0323n Aichi", "lat": 34.70999, "lng": 137.38829, "ref_id": 10645420, "rating": 4, "num_reviews": 0, "website": null, "contact_phone": "+81 532-25-9336", "contact_email": null, "status": 1, "source_type": 1, "numberReviews": 1}, {"name": "Hotto Motto Omachi Asahimachi", "type": "restaurant", "image": null, "address": "2971-1 Omachi, Omachi 398-0002 Nagano Prefecture", "lat": 36.494663, "lng": 137.86124, "ref_id": 13060971, "rating": -1, "num_reviews": 0, "website": null, "contact_phone": "+81 261-26-3085", "contact_email": null, "status": 1, "source_type": 1, "numberReviews": 0}, {"name": "Bistro", "type": "restaurant", "image": null, "address": "4711-7 Rokkumachi, Omachi, Omachi 398-0002 Nagano Prefecture", "lat": 36.508263, "lng": 137.85371, "ref_id": 9677801, "rating": -1, "num_reviews": 0, "website": null, "contact_phone": "+81 261-23-4484", "contact_email": null, "status": 1, "source_type": 1, "numberReviews": 0}, {"name": "Yakinikuteiomachi", "type": "restaurant", "image": null, "address": "5658-2 Omachinakaharacho, Omachi Nagano Prefecture", "lat": 36.516434, "lng": 137.84079, "ref_id": 7554884, "rating": -1, "num_reviews": 0, "website": null, "contact_phone": "+81 261-22-4680", "contact_email": null, "status": 1, "source_type": 1, "numberReviews": 0}, {"name": "@ Cafe", "type": "restaurant", "image": null, "address": "5951 Toyoshina, Azumino 399-8205 Nagano Prefecture", "lat": 36.30263, "lng": 137.90158, "ref_id": 9666961, "rating": -1, "num_reviews": 0, "website": null, "contact_phone": "+81 263-71-3717", "contact_email": null, "status": 1, "source_type": 1, "numberReviews": 0}, {"name": "Teuchisoba Ushio", "type": "restaurant", "image": null, "address": "5721-1682, Matsukawa-mura, Kitaazumi-gun 399-8501 Nagano Prefecture", "lat": 36.421387, "lng": 137.86674, "ref_id": 23164128, "rating": -1, "num_reviews": 0, "website": "http://nbkr300.gorp.jp/", "contact_phone": "+81 261-62-6969", "contact_email": null, "status": 1, "source_type": 1, "numberReviews": 0}, {"name": "Fukugen Viking", "type": "restaurant", "image": null, "address": "452-1 Hotaka, Azumino Nagano Prefecture", "lat": 36.320503, "lng": 137.89334, "ref_id": 7556206, "rating": -1, "num_reviews": 0, "website": null, "contact_phone": "+81 263-82-8060", "contact_email": null, "status": 1, "source_type": 1, "numberReviews": 0}, {"name": "Mariposa", "type": "restaurant", "image": null, "address": "4739-1 Toyoshina Minamihotaka, Azumino 399-8205 Nagano Prefecture", "lat": 36.30062, "lng": 137.90445, "ref_id": 13263652, "rating": -1, "num_reviews": 0, "website": null, "contact_phone": "+81 263-73-7110", "contact_email": null, "status": 1, "source_type": 1, "numberReviews": 0}, {"name": "Izakaya Yume No Hana", "type": "restaurant", "image": null, "address": "3305-1 Hinodecho o-Machi, Omachi Nagano Prefecture", "lat": 36.50252, "lng": 137.86104, "ref_id": 7554876, "rating": -1, "num_reviews": 0, "website": null, "contact_phone": "+81 261-23-5620", "contact_email": null, "status": 1, "source_type": 1, "numberReviews": 0}, {"name": "Aquaber Iqyz", "type": "restaurant", "image": null, "address": "4755-1 Toyoshinatakibe, Azumino 399-8205 Nagano Prefecture", "lat": 36.30125, "lng": 137.9049, "ref_id": 16886353, "rating": -1, "num_reviews": 0, "website": null, "contact_phone": "+81 263-73-0194", "contact_email": null, "status": 1, "source_type": 1, "numberReviews": 0}, {"name": "Restaurantterasaka", "type": "restaurant", "image": null, "address": "5-5793-12 Tawara-Machi Omachi, Omachi Nagano Prefecture", "lat": 36.518673, "lng": 137.84555, "ref_id": 7555060, "rating": -1, "num_reviews": 0, "website": null, "contact_phone": "+81 261-22-7248", "contact_email": null, "status": 1, "source_type": 1, "numberReviews": 0}, {"name": "Matsuya Okazaki Minami", "type": "restaurant", "image": "https://dynamic-media-cdn.tripadvisor.com/media/photo-o/09/74/ac/ec/caption.jpg?w=1000&s=1", "address": "3-10-7 Hashira Akebono, Okazaki 444-0833 Qu\u00e2\u0323n Aichi", "lat": 34.91949, "lng": 137.16689, "ref_id": 4904683, "rating": 4.5, "num_reviews": 0, "website": null, "contact_phone": "+81 564-72-3355", "contact_email": null, "status": 1, "source_type": 1, "numberReviews": 4}, {"name": "Nikoniko Yakiniku Ushiwakamaru Ogama", "type": "restaurant", "image": null, "address": "128-2 Ogamacho Kita-Ku, Nagoya 462-0064 Qu\u00e2\u0323n Aichi", "lat": 35.23398, "lng": 136.9083, "ref_id": 4900228, "rating": -1, "num_reviews": 0, "website": null, "contact_phone": "+81 52-901-8822", "contact_email": null, "status": 1, "source_type": 1, "numberReviews": 0}, {"name": "Nanking", "type": "restaurant", "image": null, "address": "73 Yamanakaonsen Sakaemachi Ni, Kaga Ishikawa Prefecture", "lat": 36.24574, "lng": 136.37312, "ref_id": 7429297, "rating": -1, "num_reviews": 0, "website": null, "contact_phone": "+81 761-78-2861", "contact_email": null, "status": 1, "source_type": 1, "numberReviews": 0}, {"name": "Misaki", "type": "restaurant", "image": null, "address": "78-6 Komatsuyama Narumicho Midori-Ku, Nagoya Qu\u00e2\u0323n Aichi", "lat": 35.09659, "lng": 136.95589, "ref_id": 7402071, "rating": -1, "num_reviews": 0, "website": null, "contact_phone": "+81 52-892-1533", "contact_email": null, "status": 1, "source_type": 1, "numberReviews": 0}, {"name": "Kadoichi", "type": "restaurant", "image": null, "address": "1-14-1 Tosu Minami-Ku, Nagoya Qu\u00e2\u0323n Aichi", "lat": 35.11013, "lng": 136.93797, "ref_id": 7404300, "rating": -1, "num_reviews": 0, "website": null, "contact_phone": "+81 52-822-1244", "contact_email": null, "status": 1, "source_type": 1, "numberReviews": 0}, {"name": "Sushimori", "type": "restaurant", "image": null, "address": "2-30-21 Uchidabashi, Minami-Ku, Nagoya 457-0862 Qu\u00e2\u0323n Aichi", "lat": 35.11267, "lng": 136.90858, "ref_id": 13787602, "rating": -1, "num_reviews": 0, "website": null, "contact_phone": "+81 52-746-6760", "contact_email": null, "status": 1, "source_type": 1, "numberReviews": 0}, {"name": "Izakaya Fumi", "type": "restaurant", "image": null, "address": "1-5 Aikawa, Midori-Ku, Nagoya 458-0011 Qu\u00e2\u0323n Aichi", "lat": 35.101063, "lng": 136.96606, "ref_id": 9957311, "rating": -1, "num_reviews": 0, "website": null, "contact_phone": "+81 52-895-6123", "contact_email": null, "status": 1, "source_type": 1, "numberReviews": 0}, {"name": "Kuraya", "type": "restaurant", "image": null, "address": "4-3 Kawanakamachi Kita-Ku, Nagoya Qu\u00e2\u0323n Aichi", "lat": 35.212425, "lng": 136.91112, "ref_id": 7663163, "rating": -1, "num_reviews": 0, "website": null, "contact_phone": "+81 52-917-3088", "contact_email": null, "status": 1, "source_type": 1, "numberReviews": 0}, {"name": "Rie", "type": "restaurant", "image": null, "address": "4-61 Shigacho Kita-Ku, Nagoya Qu\u00e2\u0323n Aichi", "lat": 35.201904, "lng": 136.9138, "ref_id": 7638754, "rating": -1, "num_reviews": 0, "website": null, "contact_phone": "+81 52-981-3876", "contact_email": null, "status": 1, "source_type": 1, "numberReviews": 0}, {"name": "Yakiniku Yoroniku", "type": "restaurant", "image": null, "address": "3-19 Nakanisshincho, Kakamigahara 504-0945 Gifu Prefecture", "lat": 35.395386, "lng": 136.82137, "ref_id": 13033846, "rating": -1, "num_reviews": 0, "website": null, "contact_phone": "+81 58-372-5855", "contact_email": null, "status": 1, "source_type": 1, "numberReviews": 0}, {"name": "Gankotako", "type": "restaurant", "image": null, "address": "25-1 Aza Minami Yatsugaike, Kuroda, Kisogawacho Aeon Mall Kisogawa 1F, Ichinomiya 493-0001 Qu\u00e2\u0323n Aichi", "lat": 35.34849, "lng": 136.77354, "ref_id": 9948111, "rating": -1, "num_reviews": 0, "website": null, "contact_phone": "+81 586-86-0588", "contact_email": null, "status": 1, "source_type": 1, "numberReviews": 0}, {"name": "Rion", "type": "restaurant", "image": null, "address": "61-3 Kaminaracho Sakae, Konan 483-8259 Qu\u00e2\u0323n Aichi", "lat": 35.332314, "lng": 136.85646, "ref_id": 13026494, "rating": -1, "num_reviews": 0, "website": null, "contact_phone": "+81 587-53-4145", "contact_email": null, "status": 1, "source_type": 1, "numberReviews": 0}, {"name": "Maruto Jaya", "type": "restaurant", "image": null, "address": "461-14 Kawashima Matsubaracho, Kakamigahara 501-6026 Gifu Prefecture", "lat": 35.360294, "lng": 136.83023, "ref_id": 9642225, "rating": -1, "num_reviews": 0, "website": null, "contact_phone": "+81 586-89-8666", "contact_email": null, "status": 1, "source_type": 1, "numberReviews": 0}, {"name": "Niwa Food", "type": "restaurant", "image": null, "address": "2-11-2 Rurikocho, Kita-Ku, Nagoya 462-0866 Qu\u00e2\u0323n Aichi", "lat": 35.198456, "lng": 136.92413, "ref_id": 13026135, "rating": -1, "num_reviews": 0, "website": null, "contact_phone": "+81 52-991-6065", "contact_email": null, "status": 1, "source_type": 1, "numberReviews": 0}, {"name": "Tonkatsu Masaya", "type": "restaurant", "image": null, "address": "59 Oogetogo, Ichinomiya 491-0132 Qu\u00e2\u0323n Aichi", "lat": 35.342777, "lng": 136.8074, "ref_id": 20817858, "rating": -1, "num_reviews": 0, "website": null, "contact_phone": "+81 586-78-5113", "contact_email": null, "status": 1, "source_type": 1, "numberReviews": 0}, {"name": "Ichiri Syokudo", "type": "restaurant", "image": null, "address": "2-17 Kurokawahontori, Kita-ku Kurokawa gas Bldg. Plaza B1F, Nagoya 462-0841 Qu\u00e2\u0323n Aichi", "lat": 35.19794, "lng": 136.91151, "ref_id": 23437205, "rating": -1, "num_reviews": 0, "website": "https://www.facebook.com/%E3%81%84%E3%81%A1%E3%82%8A%E9%A3%9F%E5%A0%82-100394751812806/", "contact_phone": "+81 52-910-6170", "contact_email": null, "status": 1, "source_type": 1, "numberReviews": 0}, {"name": "Mister Donut Apita Nagoya Kita", "type": "restaurant", "image": null, "address": "9-1 Tsujimachi Kita-Ku, Nagoya 462-0032 Qu\u00e2\u0323n Aichi", "lat": 35.20916, "lng": 136.92316, "ref_id": 10647322, "rating": -1, "num_reviews": 0, "website": null, "contact_phone": "+81 52-913-6226", "contact_email": null, "status": 1, "source_type": 1, "numberReviews": 0}, {"name": "Kanton", "type": "restaurant", "image": "https://dynamic-media-cdn.tripadvisor.com/media/photo-o/0e/bd/e1/22/photo2jpg.jpg?w=1000&s=1", "address": "2-263 Teraura-Dori Chuo-Ku, Niigata Niigata Prefecture", "lat": 37.920597, "lng": 139.04063, "ref_id": 7670727, "rating": 4.5, "num_reviews": 0, "website": null, "contact_phone": "+81 25-226-0255", "contact_email": null, "status": 1, "source_type": 1, "numberReviews": 8}, {"name": "Nigiri Mai niigataekimaeten", "type": "restaurant", "image": "https://dynamic-media-cdn.tripadvisor.com/media/photo-o/0b/07/89/73/10.jpg?w=1000&s=1", "address": "2-8-4 Higashi Odori, Chuo-ku, Niigata 950-0087 Niigata Prefecture", "lat": 37.91664, "lng": 139.06038, "ref_id": 10098018, "rating": 4, "num_reviews": 0, "website": "http://www.nigirimai.com/", "contact_phone": "+81 25-282-5010", "contact_email": null, "status": 1, "source_type": 1, "numberReviews": 8}, {"name": "Niq", "type": "restaurant", "image": "https://dynamic-media-cdn.tripadvisor.com/media/photo-o/0c/f1/d4/da/photo0jpg.jpg?w=1000&s=1", "address": "2-4-19 Benten Chuo-Ku, Niigata 950-0901 Niigata Prefecture", "lat": 37.916164, "lng": 139.05847, "ref_id": 7408291, "rating": 4, "num_reviews": 0, "website": "http://www.ideal-co.jp/niq.html", "contact_phone": "+81 25-282-5529", "contact_email": null, "status": 1, "source_type": 1, "numberReviews": 13}, {"name": "Niigata B-Kyu Gourmet Yokocho", "type": "restaurant", "image": "https://dynamic-media-cdn.tripadvisor.com/media/photo-o/10/4b/26/59/caption.jpg?w=1000&s=1", "address": "2307 Yamada Nishi-Ku Niigata Furusato Village Bazaar Hall 2F, Niigata 950-1101 Niigata Prefecture", "lat": 37.870037, "lng": 139.0191, "ref_id": 6056533, "rating": 4.5, "num_reviews": 0, "website": "", "contact_phone": "+81 25-230-3000", "contact_email": null, "status": 1, "source_type": 1, "numberReviews": 9}, {"name": "Marugame Seimen Niigata Kobari", "type": "restaurant", "image": null, "address": "5-17-8 Kobari Nishi-Ku, Niigata Niigata Prefecture", "lat": 37.885742, "lng": 138.99345, "ref_id": 7408594, "rating": 4, "num_reviews": 0, "website": "http://stores.marugame-seimen.com/110513", "contact_phone": "+81 25-231-2888", "contact_email": null, "status": 1, "source_type": 1, "numberReviews": 10}, {"name": "Gozu no Yamamoto Nigata", "type": "restaurant", "image": "https://dynamic-media-cdn.tripadvisor.com/media/photo-o/15/ac/b1/6c/img-20181209-192716-375.jpg?w=1000&s=1", "address": "447-1 Toyano, Chuo-ku, Niigata Niigata Prefecture", "lat": 37.885765, "lng": 139.0346, "ref_id": 3819457, "rating": 4, "num_reviews": 0, "website": null, "contact_phone": "+81 25-280-1600", "contact_email": null, "status": 1, "source_type": 1, "numberReviews": 10}, {"name": "Ramen Juban", "type": "restaurant", "image": "https://dynamic-media-cdn.tripadvisor.com/media/photo-o/11/97/87/86/caption.jpg?w=1000&s=1", "address": "10 Bancho 1664 Furumachidori Chuo-Ku, Niigata Niigata Prefecture", "lat": 37.926567, "lng": 139.0458, "ref_id": 7408503, "rating": 4, "num_reviews": 0, "website": null, "contact_phone": "+81 25-224-7629", "contact_email": null, "status": 1, "source_type": 1, "numberReviews": 9}, {"name": "Junchan Nigata Ekimae", "type": "restaurant", "image": "https://dynamic-media-cdn.tripadvisor.com/media/photo-o/12/d7/8e/27/photo2jpg.jpg?w=1000&s=1", "address": "1-3-23 Benten, Chuo-ku, Niigata Niigata Prefecture", "lat": 37.91389, "lng": 139.05919, "ref_id": 12170178, "rating": 4, "num_reviews": 0, "website": null, "contact_phone": "+81 25-244-9068", "contact_email": null, "status": 1, "source_type": 1, "numberReviews": 9}, {"name": "Tonraijun", "type": "restaurant", "image": "https://dynamic-media-cdn.tripadvisor.com/media/photo-o/0c/3c/2b/6d/photo0jpg.jpg?w=1000&s=1", "address": "1-5-29 Nuttarihigashi Chuo-Ku, Niigata 950-0075 Niigata Prefecture", "lat": 37.917137, "lng": 139.07088, "ref_id": 9611526, "rating": 4.5, "num_reviews": 0, "website": null, "contact_phone": "+81 25-243-6489", "contact_email": null, "status": 1, "source_type": 1, "numberReviews": 6}, {"name": "Echigo Hegi Soba Shop Ikiya", "type": "restaurant", "image": "https://dynamic-media-cdn.tripadvisor.com/media/photo-o/0e/a4/f4/16/950.jpg?w=1000&s=1", "address": "4-12-20 Kamiomi, Chuo-Ku Dekky401 1f, Niigata 950-0973 Niigata Prefecture", "lat": 37.89805, "lng": 139.03029, "ref_id": 9670452, "rating": 4, "num_reviews": 0, "website": "http://www.ikiya2013.com/", "contact_phone": "+81 25-282-7288", "contact_email": null, "status": 1, "source_type": 1, "numberReviews": 11}, {"name": "Makkusha", "type": "restaurant", "image": "https://dynamic-media-cdn.tripadvisor.com/media/photo-o/1c/a1/a2/5a/x.jpg?w=1000&s=1", "address": "2-2-27-1 Kamiomi Chuo-Ku, Niigata Niigata Prefecture", "lat": 37.90061, "lng": 139.03766, "ref_id": 7408410, "rating": 4, "num_reviews": 0, "website": null, "contact_phone": "+81 25-284-2776", "contact_email": null, "status": 1, "source_type": 1, "numberReviews": 11}, {"name": "Maruzushi Sekiya", "type": "restaurant", "image": "https://dynamic-media-cdn.tripadvisor.com/media/photo-o/1b/4a/83/6e/800.jpg?w=1000&s=1", "address": "3-4-35 Sekishin Chuo-Ku, Niigata 951-8141 Niigata Prefecture", "lat": 37.906452, "lng": 139.01883, "ref_id": 6063182, "rating": 4.5, "num_reviews": 0, "website": "https://www.marusyosangyo.co.jp/#tenpo", "contact_phone": "+81 120-833-218", "contact_email": null, "status": 1, "source_type": 1, "numberReviews": 7}, {"name": "Kamameshi Yahiko", "type": "restaurant", "image": "https://dynamic-media-cdn.tripadvisor.com/media/photo-o/1c/b0/5b/84/photo2jpg.jpg?w=1000&s=1", "address": "1127 Oaza Yahiko, Yahiko-mura, Nishikanbara-gun Niigata Prefecture", "lat": 37.701828, "lng": 138.82912, "ref_id": 7495602, "rating": 4.5, "num_reviews": 0, "website": null, "contact_phone": "+81 256-94-2245", "contact_email": null, "status": 1, "source_type": 1, "numberReviews": 5}, {"name": "Toyoko Sasaguchi", "type": "restaurant", "image": "https://dynamic-media-cdn.tripadvisor.com/media/photo-o/09/ba/2d/2c/caption.jpg?w=1000&s=1", "address": "1-1-38 Minamisasaguchi Chuo-ku 1f, Niigata 950-0912 Niigata Prefecture", "lat": 37.907505, "lng": 139.06519, "ref_id": 8818802, "rating": 3.5, "num_reviews": 0, "website": null, "contact_phone": "+81 25-243-2460", "contact_email": null, "status": 1, "source_type": 1, "numberReviews": 17}, {"name": "Shisen Hanten Niigata", "type": "restaurant", "image": "https://dynamic-media-cdn.tripadvisor.com/media/photo-o/13/5e/e8/87/photo1jpg.jpg?w=1000&s=1", "address": "3-1-1 Bandai Chuo-Ku, Niigata Niigata Prefecture", "lat": 37.918503, "lng": 139.05592, "ref_id": 7408716, "rating": 4, "num_reviews": 0, "website": null, "contact_phone": "+81 25-240-0050", "contact_email": null, "status": 1, "source_type": 1, "numberReviews": 10}, {"name": "Marco Polo", "type": "restaurant", "image": "https://dynamic-media-cdn.tripadvisor.com/media/photo-o/11/18/d4/30/caption.jpg?w=1000&s=1", "address": "1574 Nishibori-Dori 7 Bancho Chuo-Ku, Niigata Niigata Prefecture", "lat": 37.925213, "lng": 139.04424, "ref_id": 7408421, "rating": 4, "num_reviews": 0, "website": null, "contact_phone": "+81 25-224-5123", "contact_email": null, "status": 1, "source_type": 1, "numberReviews": 8}, {"name": "Hakoiwa", "type": "restaurant", "image": "https://dynamic-media-cdn.tripadvisor.com/media/photo-o/2a/fe/41/44/caption.jpg?w=1000&s=1", "address": "3-11-10 Niitsuhoncho, Akiha-ku, Niigata Niigata Prefecture", "lat": 37.795868, "lng": 139.12358, "ref_id": 3866194, "rating": 4.5, "num_reviews": 0, "website": null, "contact_phone": "+81 250-22-4516", "contact_email": null, "status": 1, "source_type": 1, "numberReviews": 6}, {"name": "Restaurant Iso", "type": "restaurant", "image": "https://dynamic-media-cdn.tripadvisor.com/media/photo-o/15/4f/69/d3/caption.jpg?w=1000&s=1", "address": "7-13 Kasugacho, Chuo-ku, Niigata 950-0903 Niigata Prefecture", "lat": 37.91248, "lng": 139.05304, "ref_id": 9819243, "rating": 5, "num_reviews": 0, "website": "http://restaurant-iso.jp/", "contact_phone": "+81 25-290-7330", "contact_email": null, "status": 1, "source_type": 1, "numberReviews": 5}, {"name": "El Amigo Chain Blonco", "type": "restaurant", "image": "https://dynamic-media-cdn.tripadvisor.com/media/photo-o/0d/21/4e/01/photo0jpg.jpg?w=1000&s=1", "address": "1-8-5 Yoneyama Chuo-Ku, Niigata Niigata Prefecture", "lat": 37.909676, "lng": 139.06085, "ref_id": 7408034, "rating": 4, "num_reviews": 0, "website": "http://www.najilabo.net/shop/shop.shtml?s=3860", "contact_phone": "+81 25-241-4129", "contact_email": null, "status": 1, "source_type": 1, "numberReviews": 9}, {"name": "Uobei Omi", "type": "restaurant", "image": null, "address": "3-1-28 Kamiomi, Chuo-Ku, Niigata 950-0973 Niigata Prefecture", "lat": 37.90023, "lng": 139.03369, "ref_id": 9670416, "rating": 4, "num_reviews": 0, "website": null, "contact_phone": "+81 25-285-8622", "contact_email": null, "status": 1, "source_type": 1, "numberReviews": 9}, {"name": "Kihei", "type": "restaurant", "image": "https://dynamic-media-cdn.tripadvisor.com/media/photo-o/08/97/11/08/caption.jpg?w=1000&s=1", "address": "2-13-18 Sakaihigashi Nishi-Ku, Niigata Niigata Prefecture", "lat": 37.876083, "lng": 138.9796, "ref_id": 7409109, "rating": 4, "num_reviews": 0, "website": null, "contact_phone": "+81 25-260-0240", "contact_email": null, "status": 1, "source_type": 1, "numberReviews": 6}, {"name": "Suzuya", "type": "restaurant", "image": "https://dynamic-media-cdn.tripadvisor.com/media/photo-o/0f/a2/78/a3/photo1jpg.jpg?w=1000&s=1", "address": "9-1540 Nishiborimae-Dori, Chuo-Ku, Niigata 951-8062 Niigata Prefecture", "lat": 37.92611, "lng": 139.04498, "ref_id": 9646943, "rating": 5, "num_reviews": 0, "website": null, "contact_phone": "+81 25-223-6318", "contact_email": null, "status": 1, "source_type": 1, "numberReviews": 5}, {"name": "Kaisen Izakaya Uroko", "type": "restaurant", "image": "https://dynamic-media-cdn.tripadvisor.com/media/photo-o/1b/98/19/22/photo1jpg.jpg?w=1000&s=1", "address": "2-1-27 Benten, Chuo-Ku, Niigata 950-0901 Niigata Prefecture", "lat": 37.914845, "lng": 139.05902, "ref_id": 9611555, "rating": 4, "num_reviews": 0, "website": "http://kaisennizakayauroko.owst.jp/", "contact_phone": "+81 25-288-6562", "contact_email": null, "status": 1, "source_type": 1, "numberReviews": 9}, {"name": "Yahikoyama Ropewaytembodai Shokudo", "type": "restaurant", "image": "https://dynamic-media-cdn.tripadvisor.com/media/photo-o/0f/fd/9a/59/caption.jpg?w=1000&s=1", "address": "2898 Yahiko, Yahiko-mura, Nishikanbara-gun Niigata Prefecture", "lat": 37.70962, "lng": 138.81015, "ref_id": 7495598, "rating": 3.5, "num_reviews": 0, "website": "http://www.hotel-juraku.co.jp/yahiko/restaurant.htm", "contact_phone": "+81 256-94-4141", "contact_email": null, "status": 1, "source_type": 1, "numberReviews": 14}, {"name": "Umme Sakanaga Kuite Ekimae Gyoko Honten", "type": "restaurant", "image": "https://dynamic-media-cdn.tripadvisor.com/media/photo-o/18/cd/f5/3a/photo0jpg.jpg?w=1000&s=1", "address": "1-3-29 Benten, Chuo-ku, Niigata 950-0901 Niigata Prefecture", "lat": 37.91385, "lng": 139.0595, "ref_id": 11668484, "rating": 4, "num_reviews": 0, "website": null, "contact_phone": "+81 25-244-8555", "contact_email": null, "status": 1, "source_type": 1, "numberReviews": 9}, {"name": "Osakanaya Niigata Station Minamiten", "type": "restaurant", "image": "https://dynamic-media-cdn.tripadvisor.com/media/photo-o/1b/2b/e5/63/ta-img-20200317-114626.jpg?w=1000&s=1", "address": "2-4-49 Shichikuyama, Chuo-Ku, Niigata 950-0914 Niigata Prefecture", "lat": 37.902058, "lng": 139.06622, "ref_id": 13045490, "rating": 4, "num_reviews": 0, "website": null, "contact_phone": "+81 25-248-1020", "contact_email": null, "status": 1, "source_type": 1, "numberReviews": 6}, {"name": "Kojimaya Sohonten Kobariten", "type": "restaurant", "image": "https://dynamic-media-cdn.tripadvisor.com/media/photo-o/17/d6/ec/e3/caption.jpg?w=1000&s=1", "address": "Kobari, Nishiku, Niigata 950-2022 Niigata Prefecture", "lat": 37.888905, "lng": 138.99982, "ref_id": 1704755, "rating": 3.5, "num_reviews": 0, "website": "http://www.kojimaya.co.jp/kojimaya/tenpo_kojimaya-kobari.html", "contact_phone": "+81 25-233-0033", "contact_email": "", "status": 1, "source_type": 1, "numberReviews": 15}, {"name": "Yakitori Yokozuna", "type": "restaurant", "image": "https://dynamic-media-cdn.tripadvisor.com/media/photo-o/1b/45/5d/9b/photo3jpg.jpg?w=1000&s=1", "address": "1101-3 Honchodori, Chuo-Ku, Niigata 951-8067 Niigata Prefecture", "lat": 37.921124, "lng": 139.04651, "ref_id": 13051086, "rating": 4, "num_reviews": 0, "website": null, "contact_phone": "+81 25-224-1230", "contact_email": null, "status": 1, "source_type": 1, "numberReviews": 7}, {"name": "Cave D'occi Toyano", "type": "restaurant", "image": null, "address": "3-5-10 Meike Minami, Chuo-ku, Niigata 950-0948 Niigata Prefecture", "lat": 37.88979, "lng": 139.0488, "ref_id": 5028558, "rating": 4, "num_reviews": 0, "website": "", "contact_phone": "+81 25-285-6444", "contact_email": null, "status": 1, "source_type": 1, "numberReviews": 16}, {"name": "Sarashina No Sato", "type": "restaurant", "image": "https://dynamic-media-cdn.tripadvisor.com/media/photo-o/07/b9/74/ed/caption.jpg?w=1000&s=1", "address": "2-1-1 Meike Shimmei Chuo-Ku, Niigata Niigata Prefecture", "lat": 37.890553, "lng": 139.03552, "ref_id": 7408167, "rating": 4, "num_reviews": 0, "website": null, "contact_phone": "+81 25-285-1771", "contact_email": null, "status": 1, "source_type": 1, "numberReviews": 7}, {"name": "Jinsen", "type": "restaurant", "image": null, "address": "7-1 Motomachi, Gamagori Qu\u00e2\u0323n Aichi", "lat": 34.823963, "lng": 137.22595, "ref_id": 7399772, "rating": -1, "num_reviews": 0, "website": null, "contact_phone": "+81 533-69-9848", "contact_email": null, "status": 1, "source_type": 1, "numberReviews": 0}, {"name": "Gohan-Ya a Un", "type": "restaurant", "image": null, "address": "25 Fukozu Nishi Kibyono, Kota-cho, Nukata-gun Qu\u00e2\u0323n Aichi", "lat": 34.839962, "lng": 137.172, "ref_id": 7631365, "rating": -1, "num_reviews": 0, "website": null, "contact_phone": "+81 564-63-5522", "contact_email": null, "status": 1, "source_type": 1, "numberReviews": 0}, {"name": "Rakkyo", "type": "restaurant", "image": null, "address": "77 Hanada Sanbancho, Toyohashi 441-8018 Qu\u00e2\u0323n Aichi", "lat": 34.763298, "lng": 137.3748, "ref_id": 9924288, "rating": -1, "num_reviews": 0, "website": null, "contact_phone": "+81 532-32-8789", "contact_email": null, "status": 1, "source_type": 1, "numberReviews": 0}, {"name": "Cafe Miyako", "type": "restaurant", "image": null, "address": "89 Inacho Shoan, Toyokawa Qu\u00e2\u0323n Aichi", "lat": 34.800415, "lng": 137.34337, "ref_id": 7405309, "rating": -1, "num_reviews": 0, "website": null, "contact_phone": "+81 533-72-5510", "contact_email": null, "status": 1, "source_type": 1, "numberReviews": 0}, {"name": "Wave Kozakai", "type": "restaurant", "image": null, "address": "1-145 Shukumachi Koyama, Toyokawa 441-0101 Qu\u00e2\u0323n Aichi", "lat": 34.8085, "lng": 137.35748, "ref_id": 14723152, "rating": -1, "num_reviews": 0, "website": null, "contact_phone": "+81 533-78-4877", "contact_email": null, "status": 1, "source_type": 1, "numberReviews": 0}, {"name": "Okazu", "type": "restaurant", "image": null, "address": "67 Kami Demmacho, Toyohashi 440-0074 Qu\u00e2\u0323n Aichi", "lat": 34.767765, "lng": 137.3857, "ref_id": 9919926, "rating": -1, "num_reviews": 0, "website": null, "contact_phone": "+81 532-52-2977", "contact_email": null, "status": 1, "source_type": 1, "numberReviews": 0}, {"name": "Sanpei Ramen", "type": "restaurant", "image": null, "address": "1-5-2 Honnogahara 2F in Food Court, Toyokawa 442-0005 Qu\u00e2\u0323n Aichi", "lat": 34.836327, "lng": 137.40074, "ref_id": 17357924, "rating": -1, "num_reviews": 0, "website": null, "contact_phone": "+81 533-85-4565", "contact_email": null, "status": 1, "source_type": 1, "numberReviews": 0}, {"name": "Yukino", "type": "restaurant", "image": null, "address": "58-5 Okancho Okanhigashi, Toyohashi Qu\u00e2\u0323n Aichi", "lat": 34.75766, "lng": 137.3721, "ref_id": 7634701, "rating": -1, "num_reviews": 0, "website": null, "contact_phone": "+81 532-32-4443", "contact_email": null, "status": 1, "source_type": 1, "numberReviews": 0}, {"name": "Daikokuya Soba", "type": "restaurant", "image": null, "address": "2-4-5 Nagisa, Matsumoto 390-0841 Nagano Prefecture", "lat": 36.232063, "lng": 137.9585, "ref_id": 9685821, "rating": 3, "num_reviews": 0, "website": null, "contact_phone": "+81 263-25-4298", "contact_email": null, "status": 1, "source_type": 1, "numberReviews": 1}, {"name": "Misayamadeai Drive-In", "type": "restaurant", "image": "https://dynamic-media-cdn.tripadvisor.com/media/photo-o/0e/c6/04/a3/caption.jpg?w=1000&s=1", "address": "1613 Misayama, Matsumoto 390-0302 Nagano Prefecture", "lat": 36.273495, "lng": 138.03423, "ref_id": 9631170, "rating": 3, "num_reviews": 0, "website": null, "contact_phone": "+81 263-46-5216", "contact_email": null, "status": 1, "source_type": 1, "numberReviews": 1}, {"name": "Eye City 21 World Gourmet Junction", "type": "restaurant", "image": null, "address": "977 7, Yamagata-mura, Higashichikuma-gun 390-1301 Nagano Prefecture", "lat": 36.184162, "lng": 137.89262, "ref_id": 13256702, "rating": 3, "num_reviews": 0, "website": null, "contact_phone": "+81 263-97-3966", "contact_email": null, "status": 1, "source_type": 1, "numberReviews": 1}, {"name": "Pont Neuf", "type": "restaurant", "image": "https://dynamic-media-cdn.tripadvisor.com/media/photo-o/11/b6/d7/42/img-20180104-121043-largejpg.jpg?w=1000&s=1", "address": "3-7-6 Fukashi, Matsumoto 390-0815 Nagano Prefecture", "lat": 36.23113, "lng": 137.97331, "ref_id": 13148412, "rating": 3, "num_reviews": 0, "website": null, "contact_phone": "+81 263-36-8625", "contact_email": null, "status": 1, "source_type": 1, "numberReviews": 2}, {"name": "Iso Ryori Azuma", "type": "restaurant", "image": null, "address": "2-5-20 Nagisa, Matsumoto 390-0841 Nagano Prefecture", "lat": 36.230625, "lng": 137.95665, "ref_id": 9670263, "rating": 3, "num_reviews": 0, "website": null, "contact_phone": "+81 263-28-2131", "contact_email": null, "status": 1, "source_type": 1, "numberReviews": 1}, {"name": "Coco Ichibanya Matsumoto Gocho-Mae", "type": "restaurant", "image": "https://dynamic-media-cdn.tripadvisor.com/media/photo-o/04/9f/d3/09/coco-ichibanya-matsumoto.jpg?w=1000&s=1", "address": "1054-1 Shimadachi, Matsumoto 390-0852 Nagano Prefecture", "lat": 36.236404, "lng": 137.944, "ref_id": 4896576, "rating": 3, "num_reviews": 0, "website": null, "contact_phone": "+81 263-47-3364", "contact_email": null, "status": 1, "source_type": 1, "numberReviews": 6}, {"name": "Mos Burger Aeon Mall Matsumoto", "type": "restaurant", "image": null, "address": "4-9-51 Chuo 3F, Matsumoto 390-0811 Nagano Prefecture", "lat": 36.234673, "lng": 137.97728, "ref_id": 14996490, "rating": 3, "num_reviews": 0, "website": "https://www.mos.jp/shop/detail/08119/", "contact_phone": "+81 263-87-9930", "contact_email": null, "status": 1, "source_type": 1, "numberReviews": 3}, {"name": "Restaurant Soleil", "type": "restaurant", "image": "https://dynamic-media-cdn.tripadvisor.com/media/photo-o/15/bd/07/4e/photo1jpg.jpg?w=1000&s=1", "address": "3-1-1 Asahi Shinshu University Igakubu Fuzoku Byoin NaigaiRaishinryoutou 5F, Matsumoto 390-8621 Nagano Prefecture", "lat": 36.250736, "lng": 137.97836, "ref_id": 9633762, "rating": 3, "num_reviews": 0, "website": null, "contact_phone": "+81 263-36-7490", "contact_email": null, "status": 1, "source_type": 1, "numberReviews": 3}, {"name": "Kaiundou Azumino Kayutei", "type": "restaurant", "image": null, "address": "6956 Misatoyutaka, Azumino 399-8102 Nagano Prefecture", "lat": 36.275806, "lng": 137.87938, "ref_id": 13061087, "rating": 3, "num_reviews": 0, "website": null, "contact_phone": "+81 120-765-160", "contact_email": null, "status": 1, "source_type": 1, "numberReviews": 1}, {"name": "Norio No Mise", "type": "restaurant", "image": null, "address": "3-11-8 Toshinden Suruga-Ku, Shizuoka Shizuoka Prefecture", "lat": 34.94561, "lng": 138.3721, "ref_id": 7410056, "rating": -1, "num_reviews": 0, "website": null, "contact_phone": "+81 120-461-929", "contact_email": null, "status": 1, "source_type": 1, "numberReviews": 0}, {"name": "Amaike-Ya", "type": "restaurant", "image": "https://dynamic-media-cdn.tripadvisor.com/media/photo-o/09/73/4c/4e/caption.jpg?w=1000&s=1", "address": "983-1 Date Ko, Tokamachi Niigata Prefecture", "lat": 37.105194, "lng": 138.73904, "ref_id": 7558766, "rating": 3.5, "num_reviews": 0, "website": null, "contact_phone": "+81 25-758-4272", "contact_email": null, "status": 1, "source_type": 1, "numberReviews": 4}, {"name": "Forest Inn", "type": "restaurant", "image": "https://dynamic-media-cdn.tripadvisor.com/media/photo-o/1b/4e/f7/f2/caption.jpg?w=1000&s=1", "address": "3960 Goka, Minamiuonuma Niigata Prefecture", "lat": 37.18934, "lng": 138.93407, "ref_id": 7633617, "rating": 4, "num_reviews": 0, "website": null, "contact_phone": "+81 25-777-3780", "contact_email": null, "status": 1, "source_type": 1, "numberReviews": 1}, {"name": "Retro", "type": "restaurant", "image": null, "address": "2056-101 Maiko, Minamiuonuma Niigata Prefecture", "lat": 36.9859, "lng": 138.82335, "ref_id": 7558477, "rating": 5, "num_reviews": 0, "website": null, "contact_phone": "+81 25-778-3444", "contact_email": null, "status": 1, "source_type": 1, "numberReviews": 1}, {"name": "Matsuyoshiosaki Main Store", "type": "restaurant", "image": null, "address": "3389-1 Osaki, Minamiuonuma Niigata Prefecture", "lat": 37.130844, "lng": 138.9454, "ref_id": 7558547, "rating": 4, "num_reviews": 0, "website": null, "contact_phone": "+81 25-779-2023", "contact_email": null, "status": 1, "source_type": 1, "numberReviews": 1}, {"name": "Yamato Pa Kudari Snack Corner", "type": "restaurant", "image": "https://dynamic-media-cdn.tripadvisor.com/media/photo-o/12/6a/38/f1/photo3jpg.jpg?w=1000&s=1", "address": "1542-3 Myogasawa, Minamiuonuma 949-7231 Niigata Prefecture", "lat": 37.164158, "lng": 138.9501, "ref_id": 9693466, "rating": 4, "num_reviews": 0, "website": null, "contact_phone": "+81 25-779-3165", "contact_email": null, "status": 1, "source_type": 1, "numberReviews": 1}, {"name": "Michi No Onsen Eki Karen", "type": "restaurant", "image": "https://dynamic-media-cdn.tripadvisor.com/media/photo-o/0e/3b/96/78/caption.jpg?w=1000&s=1", "address": "911-1 Kanayama, Kanayamacho, Gero 509-1622 Gifu Prefecture", "lat": 35.668903, "lng": 137.14719, "ref_id": 9676668, "rating": 4.5, "num_reviews": 0, "website": null, "contact_phone": "+81 576-32-4855", "contact_email": null, "status": 1, "source_type": 1, "numberReviews": 3}, {"name": "Drive-In Hizan", "type": "restaurant", "image": "https://dynamic-media-cdn.tripadvisor.com/media/photo-o/1b/5b/cf/a4/caption.jpg?w=1000&s=1", "address": "1885-3 Kanayamacho Kanayama, Gero 509-1622 Gifu Prefecture", "lat": 35.66079, "lng": 137.156, "ref_id": 7578762, "rating": 3.5, "num_reviews": 0, "website": null, "contact_phone": "+81 576-32-2080", "contact_email": null, "status": 1, "source_type": 1, "numberReviews": 7}, {"name": "Rocky Rest House", "type": "restaurant", "image": null, "address": "1404-3 Maki Ko Nishikan-Ku, Niigata Niigata Prefecture", "lat": 37.765594, "lng": 138.88481, "ref_id": 7408531, "rating": 3, "num_reviews": 0, "website": null, "contact_phone": "+81 256-73-3966", "contact_email": null, "status": 1, "source_type": 1, "numberReviews": 1}, {"name": "Primavera", "type": "restaurant", "image": null, "address": "107-21 Teradomari Nozumi, Nagaoka Niigata Prefecture", "lat": 37.67147, "lng": 138.78064, "ref_id": 7579899, "rating": 3, "num_reviews": 0, "website": null, "contact_phone": "+81 258-75-2567", "contact_email": null, "status": 1, "source_type": 1, "numberReviews": 1}, {"name": "Ramen Restaurant Fukumen", "type": "restaurant", "image": "https://dynamic-media-cdn.tripadvisor.com/media/photo-o/13/5b/35/bb/photo1jpg.jpg?w=1000&s=1", "address": "1968-1 Sone Nishikan-Ku, Niigata Niigata Prefecture", "lat": 37.794315, "lng": 138.92352, "ref_id": 7408889, "rating": 3, "num_reviews": 0, "website": null, "contact_phone": "+81 256-88-5350", "contact_email": null, "status": 1, "source_type": 1, "numberReviews": 1}, {"name": "Ebina", "type": "restaurant", "image": "https://dynamic-media-cdn.tripadvisor.com/media/photo-o/11/81/a2/eb/caption.jpg?w=1000&s=1", "address": "273 Yanagibashicho, Mitsuke Niigata Prefecture", "lat": 37.539204, "lng": 138.90092, "ref_id": 7557435, "rating": 3, "num_reviews": 0, "website": "http://www.wasyokuebina.com/", "contact_phone": "+81 258-66-2640", "contact_email": null, "status": 1, "source_type": 1, "numberReviews": 1}, {"name": "Sushi Dining Tombo Toyota Ekimae Honten", "type": "restaurant", "image": null, "address": "1-28-1 Wakamiyacho Harax Toyota Bldg. 2F No.1, Toyota 471-0026 Qu\u00e2\u0323n Aichi", "lat": 35.087692, "lng": 137.15611, "ref_id": 13026850, "rating": -1, "num_reviews": 0, "website": "", "contact_phone": "+81 565-32-9486", "contact_email": null, "status": 1, "source_type": 1, "numberReviews": 0}, {"name": "Toyota Uschi Na", "type": "restaurant", "image": null, "address": "2-95 Kitamachi, Toyota 471-0027 Qu\u00e2\u0323n Aichi", "lat": 35.086555, "lng": 137.15656, "ref_id": 13027160, "rating": -1, "num_reviews": 0, "website": null, "contact_phone": "+81 565-85-7470", "contact_email": null, "status": 1, "source_type": 1, "numberReviews": 0}, {"name": "Botekotoyoda Umetsubo", "type": "restaurant", "image": null, "address": "6-2-5 Umetsubocho, Toyota Qu\u00e2\u0323n Aichi", "lat": 35.101627, "lng": 137.16061, "ref_id": 7584513, "rating": -1, "num_reviews": 0, "website": null, "contact_phone": "+81 565-33-7240", "contact_email": null, "status": 1, "source_type": 1, "numberReviews": 0}, {"name": "Wafu Sosaku Dining Myosho", "type": "restaurant", "image": null, "address": "58-1 Mimitori, Myodaijicho, Okazaki 444-0864 Qu\u00e2\u0323n Aichi", "lat": 34.951317, "lng": 137.16763, "ref_id": 9891256, "rating": -1, "num_reviews": 0, "website": "http://www.myousyou2014.com/", "contact_phone": "+81 564-74-7388", "contact_email": null, "status": 1, "source_type": 1, "numberReviews": 0}, {"name": "Saien", "type": "restaurant", "image": null, "address": "6-24-2 Meiwacho, Toyota 471-0825 Qu\u00e2\u0323n Aichi", "lat": 35.04468, "lng": 137.16068, "ref_id": 9927560, "rating": -1, "num_reviews": 0, "website": null, "contact_phone": "+81 565-71-0171", "contact_email": null, "status": 1, "source_type": 1, "numberReviews": 0}, {"name": "Kappo Narita", "type": "restaurant", "image": null, "address": "1-41-1 Sakura-Machi, Toyota Qu\u00e2\u0323n Aichi", "lat": 35.085278, "lng": 137.15848, "ref_id": 7584609, "rating": -1, "num_reviews": 0, "website": "", "contact_phone": "+81 565-35-7180", "contact_email": null, "status": 1, "source_type": 1, "numberReviews": 0}, {"name": "Jihei", "type": "restaurant", "image": null, "address": "17-27 Hina Nakamachi, Okazaki 444-0918 Qu\u00e2\u0323n Aichi", "lat": 34.971737, "lng": 137.15321, "ref_id": 9929112, "rating": -1, "num_reviews": 0, "website": null, "contact_phone": "+81 564-24-0391", "contact_email": null, "status": 1, "source_type": 1, "numberReviews": 0}, {"name": "Robata Hogetsu", "type": "restaurant", "image": null, "address": "3-59-2 Toshincho, Toyota 471-0045 Qu\u00e2\u0323n Aichi", "lat": 35.079353, "lng": 137.12386, "ref_id": 9926418, "rating": -1, "num_reviews": 0, "website": null, "contact_phone": "+81 565-33-3888", "contact_email": null, "status": 1, "source_type": 1, "numberReviews": 0}, {"name": "Iwamatsu", "type": "restaurant", "image": null, "address": "1-53 Sakuramachi, Toyota 471-0029 Qu\u00e2\u0323n Aichi", "lat": 35.08485, "lng": 137.15775, "ref_id": 9956855, "rating": -1, "num_reviews": 0, "website": null, "contact_phone": "+81 565-32-1358", "contact_email": null, "status": 1, "source_type": 1, "numberReviews": 0}, {"name": "Arai Sushi", "type": "restaurant", "image": null, "address": "3-92-9 Inouecho, Toyota 470-0372 Qu\u00e2\u0323n Aichi", "lat": 35.123394, "lng": 137.18158, "ref_id": 13023850, "rating": -1, "num_reviews": 0, "website": null, "contact_phone": "+81 120-403-014", "contact_email": null, "status": 1, "source_type": 1, "numberReviews": 0}, {"name": "Takoya Dotombori Kukuru Apita Okazaki Kita", "type": "restaurant", "image": null, "address": "4-46 Hina Kitamachi Apita Okazaki Kita 1F, Okazaki 444-0911 Qu\u00e2\u0323n Aichi", "lat": 34.9751, "lng": 137.15263, "ref_id": 15062817, "rating": -1, "num_reviews": 0, "website": "http://www.shirohato.com/index.htm", "contact_phone": "+81 564-26-1132", "contact_email": null, "status": 1, "source_type": 1, "numberReviews": 0}, {"name": "Hachiman-Tei", "type": "restaurant", "image": null, "address": "1-2 Kinoza, Kami Mutsunacho, Okazaki 444-0859 Qu\u00e2\u0323n Aichi", "lat": 34.948788, "lng": 137.15869, "ref_id": 9950086, "rating": -1, "num_reviews": 0, "website": null, "contact_phone": "+81 564-51-4425", "contact_email": null, "status": 1, "source_type": 1, "numberReviews": 0}, {"name": "Song of the Stage 19 Vitz Toyota Town", "type": "restaurant", "image": null, "address": "5-5 Nishimachi, Toyota 471-0025 Qu\u00e2\u0323n Aichi", "lat": 35.0852, "lng": 137.15463, "ref_id": 13255353, "rating": -1, "num_reviews": 0, "website": null, "contact_phone": "+81 565-33-9199", "contact_email": null, "status": 1, "source_type": 1, "numberReviews": 0}, {"name": "Shushudokoro Shibata", "type": "restaurant", "image": null, "address": "9-3 Nishikimachi, Okazaki 444-0067 Qu\u00e2\u0323n Aichi", "lat": 34.9729, "lng": 137.16214, "ref_id": 14723429, "rating": -1, "num_reviews": 0, "website": null, "contact_phone": "+81 564-24-1468", "contact_email": null, "status": 1, "source_type": 1, "numberReviews": 0}, {"name": "Ikoi", "type": "restaurant", "image": null, "address": "181 Terugaoka, Meito-Ku, Nagoya 465-0042 Qu\u00e2\u0323n Aichi", "lat": 35.17709, "lng": 137.0246, "ref_id": 9955177, "rating": -1, "num_reviews": 0, "website": null, "contact_phone": "+81 52-772-5509", "contact_email": null, "status": 1, "source_type": 1, "numberReviews": 0}, {"name": "Child of the Frog", "type": "restaurant", "image": null, "address": "525 Ichibagicho Nishi-Ku, Nagoya 452-0805 Qu\u00e2\u0323n Aichi", "lat": 35.218803, "lng": 136.88971, "ref_id": 13024331, "rating": -1, "num_reviews": 0, "website": null, "contact_phone": "+81 52-505-3399", "contact_email": null, "status": 1, "source_type": 1, "numberReviews": 0}, {"name": "Maneki Sushi Main Store", "type": "restaurant", "image": null, "address": "4-18 Yanagawacho, Nakagawa-Ku, Nagoya Qu\u00e2\u0323n Aichi", "lat": 35.13984, "lng": 136.89354, "ref_id": 7402016, "rating": -1, "num_reviews": 0, "website": null, "contact_phone": "+81 52-671-2378", "contact_email": null, "status": 1, "source_type": 1, "numberReviews": 0}, {"name": "Jan", "type": "restaurant", "image": "https://dynamic-media-cdn.tripadvisor.com/media/photo-o/19/a6/f2/77/caption.jpg?w=1000&s=1", "address": "3520 Hokuseicho Ageki, Inabe 511-0428 Mie Prefecture", "lat": 35.14712, "lng": 136.51175, "ref_id": 6921338, "rating": -1, "num_reviews": 0, "website": null, "contact_phone": "+81 594-72-8888", "contact_email": null, "status": 1, "source_type": 1, "numberReviews": 0}, {"name": "Benny's Bar", "type": "restaurant", "image": null, "address": "1-7-9 Junka, Fukui Fukui Prefecture", "lat": 36.064507, "lng": 136.21498, "ref_id": 7405685, "rating": -1, "num_reviews": 0, "website": null, "contact_phone": "+81 776-24-5046", "contact_email": null, "status": 1, "source_type": 1, "numberReviews": 0}, {"name": "Shirai House", "type": "restaurant", "image": null, "address": "2-20-14 Junka, Fukui 910-0023 Fukui Prefecture", "lat": 36.06597, "lng": 136.2149, "ref_id": 9646326, "rating": -1, "num_reviews": 0, "website": null, "contact_phone": "+81 776-26-1128", "contact_email": null, "status": 1, "source_type": 1, "numberReviews": 0}, {"name": "Tommy", "type": "restaurant", "image": null, "address": "1-24-3 Kamikitano, Fukui 918-8203 Fukui Prefecture", "lat": 36.06333, "lng": 136.2512, "ref_id": 13068448, "rating": -1, "num_reviews": 0, "website": null, "contact_phone": "+81 120-533-080", "contact_email": null, "status": 1, "source_type": 1, "numberReviews": 0}, {"name": "Lukesaw Cafe", "type": "restaurant", "image": null, "address": "2-17 Takazawacho, Numazu Shizuoka Prefecture", "lat": 35.10411, "lng": 138.85529, "ref_id": 7585749, "rating": -1, "num_reviews": 0, "website": null, "contact_phone": "+81 55-919-0598", "contact_email": null, "status": 1, "source_type": 1, "numberReviews": 0}, {"name": "Atchitchi", "type": "restaurant", "image": null, "address": "8-1 Misonocho, Numazu Shizuoka Prefecture", "lat": 35.088745, "lng": 138.8648, "ref_id": 7585584, "rating": -1, "num_reviews": 0, "website": null, "contact_phone": "+81 55-933-4649", "contact_email": null, "status": 1, "source_type": 1, "numberReviews": 0}, {"name": "Suteki", "type": "restaurant", "image": null, "address": "30 Shimogawaracho, Numazu 410-0841 Shizuoka Prefecture", "lat": 35.090115, "lng": 138.85587, "ref_id": 10650214, "rating": -1, "num_reviews": 0, "website": null, "contact_phone": "+81 55-963-1234", "contact_email": null, "status": 1, "source_type": 1, "numberReviews": 0}, {"name": "Matsuki Shokudo", "type": "restaurant", "image": null, "address": "6-9 Miyamaecho, Numazu 410-0062 Shizuoka Prefecture", "lat": 35.122543, "lng": 138.87401, "ref_id": 10654417, "rating": -1, "num_reviews": 0, "website": null, "contact_phone": "+81 55-922-0902", "contact_email": null, "status": 1, "source_type": 1, "numberReviews": 0}, {"name": "Monro", "type": "restaurant", "image": null, "address": "15 Hachiman, Numazu Shizuoka Prefecture", "lat": 35.098892, "lng": 138.85606, "ref_id": 7585726, "rating": -1, "num_reviews": 0, "website": null, "contact_phone": "+81 55-962-6032", "contact_email": null, "status": 1, "source_type": 1, "numberReviews": 0}, {"name": "Sakura", "type": "restaurant", "image": null, "address": "1928 Ooka, Numazu Shizuoka Prefecture", "lat": 35.111504, "lng": 138.86734, "ref_id": 7585630, "rating": -1, "num_reviews": 0, "website": null, "contact_phone": "+81 55-924-5688", "contact_email": null, "status": 1, "source_type": 1, "numberReviews": 0}, {"name": "Food Monkey", "type": "restaurant", "image": null, "address": "Otemachi 3-6-27, Numazu 410-0801 Shizuoka Prefecture", "lat": 35.100773, "lng": 138.8602, "ref_id": 9666201, "rating": -1, "num_reviews": 0, "website": null, "contact_phone": "+81 55-963-6680", "contact_email": null, "status": 1, "source_type": 1, "numberReviews": 0}, {"name": "Sanoya", "type": "restaurant", "image": null, "address": "7-1 Eharacho, Numazu 410-0049 Shizuoka Prefecture", "lat": 35.120407, "lng": 138.86063, "ref_id": 9898666, "rating": -1, "num_reviews": 0, "website": null, "contact_phone": "+81 55-921-4995", "contact_email": null, "status": 1, "source_type": 1, "numberReviews": 0}, {"name": "Wafu Izakaya Misaki", "type": "restaurant", "image": null, "address": "1418-40 Hara, Numazu 410-0312 Shizuoka Prefecture", "lat": 35.128242, "lng": 138.80556, "ref_id": 17361791, "rating": -1, "num_reviews": 0, "website": null, "contact_phone": "+81 55-968-0910", "contact_email": null, "status": 1, "source_type": 1, "numberReviews": 0}, {"name": "Omura", "type": "restaurant", "image": null, "address": "9-16 Kandamachi, Numazu 410-0042 Shizuoka Prefecture", "lat": 35.118683, "lng": 138.8672, "ref_id": 9920809, "rating": -1, "num_reviews": 0, "website": null, "contact_phone": "+81 55-921-3866", "contact_email": null, "status": 1, "source_type": 1, "numberReviews": 0}, {"name": "Hyoroku", "type": "restaurant", "image": null, "address": "52 Tenshojicho, Takayama Gifu Prefecture", "lat": 36.142956, "lng": 137.26526, "ref_id": 7406690, "rating": -1, "num_reviews": 0, "website": null, "contact_phone": "+81 577-32-3390", "contact_email": null, "status": 1, "source_type": 1, "numberReviews": 0}, {"name": "Seikaen", "type": "restaurant", "image": null, "address": "210 Kamihirose Kokufucho, Takayama Gifu Prefecture", "lat": 36.199875, "lng": 137.25172, "ref_id": 7406702, "rating": -1, "num_reviews": 0, "website": null, "contact_phone": "+81 577-72-3395", "contact_email": null, "status": 1, "source_type": 1, "numberReviews": 0}, {"name": "Furusawa Shusaidokoro", "type": "restaurant", "image": null, "address": "31-3 Asahicho, Takayama Gifu Prefecture", "lat": 36.14453, "lng": 137.25592, "ref_id": 7406592, "rating": -1, "num_reviews": 0, "website": null, "contact_phone": "+81 577-33-0681", "contact_email": null, "status": 1, "source_type": 1, "numberReviews": 0}, {"name": "Shigeru", "type": "restaurant", "image": null, "address": "2-228 Kiryucho, Takayama Gifu Prefecture", "lat": 36.153904, "lng": 137.25296, "ref_id": 7406452, "rating": -1, "num_reviews": 0, "website": null, "contact_phone": "+81 577-36-2707", "contact_email": null, "status": 1, "source_type": 1, "numberReviews": 0}, {"name": "Wanfu Nishino Isshiki", "type": "restaurant", "image": null, "address": "3-673-6 Nishinoisshikicho, Takayama Gifu Prefecture", "lat": 36.13709, "lng": 137.24602, "ref_id": 7406688, "rating": -1, "num_reviews": 0, "website": null, "contact_phone": "+81 577-33-9204", "contact_email": null, "status": 1, "source_type": 1, "numberReviews": 0}, {"name": "Kacchan", "type": "restaurant", "image": null, "address": "249 Shimonokirimachi, Takayama 506-0046 Gifu Prefecture", "lat": 36.145687, "lng": 137.21616, "ref_id": 9646517, "rating": -1, "num_reviews": 0, "website": null, "contact_phone": "+81 577-34-6236", "contact_email": null, "status": 1, "source_type": 1, "numberReviews": 0}, {"name": "Grace Restaurant", "type": "restaurant", "image": null, "address": "3-43-1 Shinmeicho, Takayama 506-0821 Gifu Prefecture", "lat": 36.1391, "lng": 137.2603, "ref_id": 20164688, "rating": -1, "num_reviews": 0, "website": null, "contact_phone": "+81 577-33-5020", "contact_email": null, "status": 1, "source_type": 1, "numberReviews": 0}, {"name": "Araki", "type": "restaurant", "image": null, "address": "11-29 Kanamoricho Furukawacho, Hida Gifu Prefecture", "lat": 36.236206, "lng": 137.18843, "ref_id": 7588452, "rating": -1, "num_reviews": 0, "website": null, "contact_phone": "+81 577-74-4833", "contact_email": null, "status": 1, "source_type": 1, "numberReviews": 0}, {"name": "Nao", "type": "restaurant", "image": null, "address": "1-20 Sowamachi, Takayama 506-0007 Gifu Prefecture", "lat": 36.144283, "lng": 137.25478, "ref_id": 9634662, "rating": -1, "num_reviews": 0, "website": null, "contact_phone": "+81 577-34-7830", "contact_email": null, "status": 1, "source_type": 1, "numberReviews": 0}, {"name": "Shogetsu Confectionery", "type": "restaurant", "image": null, "address": "5-10 Hanasatomachi, Takayama 506-0026 Gifu Prefecture", "lat": 36.141117, "lng": 137.25327, "ref_id": 13033650, "rating": -1, "num_reviews": 0, "website": null, "contact_phone": "+81 577-32-1574", "contact_email": null, "status": 1, "source_type": 1, "numberReviews": 0}, {"name": "Aru", "type": "restaurant", "image": null, "address": "45 Yurakucho, Takayama Gifu Prefecture", "lat": 36.14202, "lng": 137.25723, "ref_id": 7406371, "rating": -1, "num_reviews": 0, "website": null, "contact_phone": "+81 577-36-1236", "contact_email": null, "status": 1, "source_type": 1, "numberReviews": 0}, {"name": "Tamenaga", "type": "restaurant", "image": null, "address": "212-1 Miyagicho Furukawacho, Hida Gifu Prefecture", "lat": 36.236626, "lng": 137.1766, "ref_id": 7588478, "rating": -1, "num_reviews": 0, "website": null, "contact_phone": "+81 577-73-5891", "contact_email": null, "status": 1, "source_type": 1, "numberReviews": 0}, {"name": "Doze", "type": "restaurant", "image": null, "address": "3-1135 Nishino Isshiki-Machi, Takayama Gifu Prefecture", "lat": 36.132725, "lng": 137.24815, "ref_id": 7632686, "rating": -1, "num_reviews": 0, "website": null, "contact_phone": "+81 577-35-3552", "contact_email": null, "status": 1, "source_type": 1, "numberReviews": 0}, {"name": "Ajidokoro Shiroyama", "type": "restaurant", "image": null, "address": "179-6 Sugisaki, Furukawacho, Hida 509-4215 Gifu Prefecture", "lat": 36.250904, "lng": 137.17114, "ref_id": 9686833, "rating": -1, "num_reviews": 0, "website": null, "contact_phone": "+81 577-62-9801", "contact_email": null, "status": 1, "source_type": 1, "numberReviews": 0}, {"name": "Totoya", "type": "restaurant", "image": null, "address": "2-288 Kiriumachi, Takayama 506-0004 Gifu Prefecture", "lat": 36.153595, "lng": 137.2532, "ref_id": 13813052, "rating": -1, "num_reviews": 0, "website": null, "contact_phone": "+81 577-77-9525", "contact_email": null, "status": 1, "source_type": 1, "numberReviews": 0}, {"name": "Shokawa Kogen Country Club Restaurant", "type": "restaurant", "image": null, "address": "620 Iwase, Shokawacho, Takayama 501-5423 Gifu Prefecture", "lat": 36.06191, "lng": 136.95023, "ref_id": 9670008, "rating": -1, "num_reviews": 0, "website": null, "contact_phone": "+81 5769-2-3122", "contact_email": null, "status": 1, "source_type": 1, "numberReviews": 0}, {"name": "Sakuraria", "type": "restaurant", "image": null, "address": "7846-1 Ichinomiyamachi, Takayama Gifu Prefecture", "lat": 36.061867, "lng": 137.2257, "ref_id": 7406446, "rating": -1, "num_reviews": 0, "website": null, "contact_phone": "+81 577-53-2421", "contact_email": null, "status": 1, "source_type": 1, "numberReviews": 0}, {"name": "Queens Court Takayama", "type": "restaurant", "image": null, "address": "4-300 Okamotocho, Takayama 506-0054 Gifu Prefecture", "lat": 36.151134, "lng": 137.24716, "ref_id": 13254022, "rating": -1, "num_reviews": 0, "website": null, "contact_phone": "+81 577-35-0456", "contact_email": null, "status": 1, "source_type": 1, "numberReviews": 0}, {"name": "Shoroku", "type": "restaurant", "image": null, "address": "2-154-3 Morishitacho, Takayama 506-0823 Gifu Prefecture", "lat": 36.133175, "lng": 137.25893, "ref_id": 13033659, "rating": -1, "num_reviews": 0, "website": null, "contact_phone": "+81 577-36-5568", "contact_email": null, "status": 1, "source_type": 1, "numberReviews": 0}, {"name": "Kiryu Coffee Takayama Shimooka Honten", "type": "restaurant", "image": null, "address": "900-8 Shimookamotomachi, Takayama 506-0052 Gifu Prefecture", "lat": 36.153046, "lng": 137.24606, "ref_id": 14727293, "rating": -1, "num_reviews": 0, "website": null, "contact_phone": "+81 577-57-7881", "contact_email": null, "status": 1, "source_type": 1, "numberReviews": 0}, {"name": "Yamabiko", "type": "restaurant", "image": null, "address": "4141 Kugunocho Musugo, Takayama 509-3214 Gifu Prefecture", "lat": 36.039036, "lng": 137.26125, "ref_id": 13199104, "rating": -1, "num_reviews": 0, "website": null, "contact_phone": "+81 577-52-2711", "contact_email": null, "status": 1, "source_type": 1, "numberReviews": 0}, {"name": "Hotto Motto Takayama Okamoto", "type": "restaurant", "image": null, "address": "2-5-1 Okamotocho, Takayama 506-0054 Gifu Prefecture", "lat": 36.144203, "lng": 137.24756, "ref_id": 13033094, "rating": -1, "num_reviews": 0, "website": null, "contact_phone": "+81 577-37-2155", "contact_email": null, "status": 1, "source_type": 1, "numberReviews": 0}, {"name": "Danran", "type": "restaurant", "image": null, "address": "9-282 Ishiuramachi, Takayama 506-0825 Gifu Prefecture", "lat": 36.122314, "lng": 137.25856, "ref_id": 9634655, "rating": -1, "num_reviews": 0, "website": null, "contact_phone": "+81 577-35-1085", "contact_email": null, "status": 1, "source_type": 1, "numberReviews": 0}, {"name": "Kakinoki", "type": "restaurant", "image": null, "address": "4-3 Ote, Matsumoto 390-0874 Nagano Prefecture", "lat": 36.235085, "lng": 137.97214, "ref_id": 9611426, "rating": -1, "num_reviews": 0, "website": null, "contact_phone": "+81 263-32-9018", "contact_email": null, "status": 1, "source_type": 1, "numberReviews": 0}, {"name": "Ohana", "type": "restaurant", "image": null, "address": "1-13-4 Chuo, Matsumoto 390-0811 Nagano Prefecture", "lat": 36.232964, "lng": 137.96599, "ref_id": 13790071, "rating": -1, "num_reviews": 0, "website": null, "contact_phone": "+81 263-50-7793", "contact_email": null, "status": 1, "source_type": 1, "numberReviews": 0}, {"name": "Doraneko", "type": "restaurant", "image": null, "address": "1-13-3 Chuo, Matsumoto 390-0811 Nagano Prefecture", "lat": 36.232822, "lng": 137.96599, "ref_id": 9634990, "rating": -1, "num_reviews": 0, "website": null, "contact_phone": "+81 263-36-5119", "contact_email": null, "status": 1, "source_type": 1, "numberReviews": 0}, {"name": "Mamma Mia Harmony Hall", "type": "restaurant", "image": null, "address": "4351 Oaza Shimauchi, Matsumoto 390-0851 Nagano Prefecture", "lat": 36.24553, "lng": 137.94513, "ref_id": 9635018, "rating": -1, "num_reviews": 0, "website": null, "contact_phone": "+81 263-47-5533", "contact_email": null, "status": 1, "source_type": 1, "numberReviews": 0}, {"name": "Ronveil", "type": "restaurant", "image": null, "address": "5652-56 Sasaga, Matsumoto Nagano Prefecture", "lat": 36.202637, "lng": 137.93481, "ref_id": 7407751, "rating": -1, "num_reviews": 0, "website": null, "contact_phone": "+81 263-26-5357", "contact_email": null, "status": 1, "source_type": 1, "numberReviews": 0}, {"name": "Sarashinaya", "type": "restaurant", "image": null, "address": "1-3-25 Joto, Matsumoto 390-0807 Nagano Prefecture", "lat": 36.23664, "lng": 137.97508, "ref_id": 9611415, "rating": -1, "num_reviews": 0, "website": null, "contact_phone": "+81 263-36-3892", "contact_email": null, "status": 1, "source_type": 1, "numberReviews": 0}, {"name": "CoCo", "type": "restaurant", "image": null, "address": "2-1-21 Fukashi, Matsumoto 390-0815 Nagano Prefecture", "lat": 36.23041, "lng": 137.96799, "ref_id": 16888126, "rating": -1, "num_reviews": 0, "website": null, "contact_phone": "+81 263-31-5778", "contact_email": null, "status": 1, "source_type": 1, "numberReviews": 0}, {"name": "J Story", "type": "restaurant", "image": null, "address": "1-3-1 Joto, Matsumoto 390-0807 Nagano Prefecture", "lat": 36.236454, "lng": 137.97429, "ref_id": 9928515, "rating": -1, "num_reviews": 0, "website": null, "contact_phone": "+81 263-36-5017", "contact_email": null, "status": 1, "source_type": 1, "numberReviews": 0}, {"name": "Bird Komachi Pine Main Store", "type": "restaurant", "image": null, "address": "1-3-6 Chuo 1F, Matsumoto 390-0811 Nagano Prefecture", "lat": 36.231915, "lng": 137.96614, "ref_id": 13060600, "rating": -1, "num_reviews": 0, "website": null, "contact_phone": "+81 263-87-3603", "contact_email": null, "status": 1, "source_type": 1, "numberReviews": 0}, {"name": "Ibarantei", "type": "restaurant", "image": null, "address": "4-18 Habaue, Matsumoto Nagano Prefecture", "lat": 36.231216, "lng": 137.9621, "ref_id": 7407557, "rating": -1, "num_reviews": 0, "website": null, "contact_phone": "+81 263-32-3786", "contact_email": null, "status": 1, "source_type": 1, "numberReviews": 0}, {"name": "Kodama", "type": "restaurant", "image": null, "address": "4-7-26 Chuo, Matsumoto 390-0811 Nagano Prefecture", "lat": 36.23297, "lng": 137.9772, "ref_id": 10654968, "rating": -1, "num_reviews": 0, "website": null, "contact_phone": "+81 263-35-1700", "contact_email": null, "status": 1, "source_type": 1, "numberReviews": 0}, {"name": "Amenity Hall Utaon", "type": "restaurant", "image": null, "address": "3854-8 Kambayashi, Matsumoto 390-1243 Nagano Prefecture", "lat": 36.196964, "lng": 137.93344, "ref_id": 13251685, "rating": -1, "num_reviews": 0, "website": null, "contact_phone": "+81 263-27-2228", "contact_email": null, "status": 1, "source_type": 1, "numberReviews": 0}, {"name": "Unahachi", "type": "restaurant", "image": null, "address": "1-2-3 Chuo Hotel Iidaya 2F, Matsumoto 390-0811 Nagano Prefecture", "lat": 36.23195, "lng": 137.96483, "ref_id": 14757470, "rating": -1, "num_reviews": 0, "website": null, "contact_phone": "+81 263-88-8394", "contact_email": null, "status": 1, "source_type": 1, "numberReviews": 0}, {"name": "Restaurant Balboa", "type": "restaurant", "image": null, "address": "1-1-2 Kiri, Matsumoto 390-0871 Nagano Prefecture", "lat": 36.248417, "lng": 137.97208, "ref_id": 9925567, "rating": -1, "num_reviews": 0, "website": null, "contact_phone": "+81 263-36-1917", "contact_email": null, "status": 1, "source_type": 1, "numberReviews": 0}, {"name": "Matahachi", "type": "restaurant", "image": null, "address": "2-3-7 Motomachi, Matsumoto 390-0803 Nagano Prefecture", "lat": 36.243534, "lng": 137.98216, "ref_id": 10659390, "rating": -1, "num_reviews": 0, "website": null, "contact_phone": "+81 263-36-3881", "contact_email": null, "status": 1, "source_type": 1, "numberReviews": 0}, {"name": "Bistro Hikariya", "type": "restaurant", "image": null, "address": "4-9-51 Chuo Aeon Mall Matsumoto 1F, Matsumoto 390-8560 Nagano Prefecture", "lat": 36.23396, "lng": 137.9784, "ref_id": 17390228, "rating": -1, "num_reviews": 0, "website": "http://www.hikari-ya.com/bistro/", "contact_phone": "+81 263-88-7373", "contact_email": null, "status": 1, "source_type": 1, "numberReviews": 0}, {"name": "Biin Not a Sum Cafe", "type": "restaurant", "image": null, "address": "2-9-5 Chuo, Matsumoto 390-0811 Nagano Prefecture", "lat": 36.233047, "lng": 137.9707, "ref_id": 13060595, "rating": -1, "num_reviews": 0, "website": null, "contact_phone": "+81 263-31-0649", "contact_email": null, "status": 1, "source_type": 1, "numberReviews": 0}, {"name": "Leakage Appear Bakery", "type": "restaurant", "image": null, "address": "7-17-6 Kotobukikita, Matsumoto 399-0011 Nagano Prefecture", "lat": 36.189518, "lng": 137.97195, "ref_id": 13061186, "rating": -1, "num_reviews": 0, "website": null, "contact_phone": "+81 263-57-8736", "contact_email": null, "status": 1, "source_type": 1, "numberReviews": 0}, {"name": "Furin", "type": "restaurant", "image": null, "address": "3-10-20 Idegawa, Matsumoto Nagano Prefecture", "lat": 36.213474, "lng": 137.97664, "ref_id": 7407864, "rating": -1, "num_reviews": 0, "website": null, "contact_phone": "+81 263-26-7865", "contact_email": null, "status": 1, "source_type": 1, "numberReviews": 0}, {"name": "Dumplings Bunch Hizuki", "type": "restaurant", "image": null, "address": "168-2 Oaza Okada Matsuoka, Matsumoto 390-0312 Nagano Prefecture", "lat": 36.26167, "lng": 137.97615, "ref_id": 13060777, "rating": -1, "num_reviews": 0, "website": null, "contact_phone": "+81 263-46-5569", "contact_email": null, "status": 1, "source_type": 1, "numberReviews": 0}, {"name": "Azumi Noshokuirodorikan", "type": "restaurant", "image": null, "address": "125-17 Azumi Onoda, Matsumoto 390-1501 Nagano Prefecture", "lat": 36.182358, "lng": 137.79736, "ref_id": 13060552, "rating": -1, "num_reviews": 0, "website": null, "contact_phone": "+81 263-94-2311", "contact_email": null, "status": 1, "source_type": 1, "numberReviews": 0}, {"name": "Ebeya", "type": "restaurant", "image": null, "address": "1619-6 Oaza Satoyamabe, Matsumoto 390-0221 Nagano Prefecture", "lat": 36.23939, "lng": 137.99266, "ref_id": 9611457, "rating": -1, "num_reviews": 0, "website": null, "contact_phone": "+81 263-34-9631", "contact_email": null, "status": 1, "source_type": 1, "numberReviews": 0}, {"name": "Kaneju Shokudo", "type": "restaurant", "image": null, "address": "5115-1 Hata Nakahata, Matsumoto 390-1401 Nagano Prefecture", "lat": 36.19248, "lng": 137.85413, "ref_id": 9670288, "rating": -1, "num_reviews": 0, "website": null, "contact_phone": "+81 263-92-2363", "contact_email": null, "status": 1, "source_type": 1, "numberReviews": 0}, {"name": "Kunpu", "type": "restaurant", "image": null, "address": "1-10-11 Chuo Isemachi 2nd Bldg. 2F, Matsumoto 390-0811 Nagano Prefecture", "lat": 36.232826, "lng": 137.96777, "ref_id": 15326825, "rating": -1, "num_reviews": 0, "website": null, "contact_phone": "+81 263-88-9994", "contact_email": null, "status": 1, "source_type": 1, "numberReviews": 0}, {"name": "Unryu", "type": "restaurant", "image": null, "address": "3-1 Isawacho Kawanakajima, Fuefuki Yamanashi Prefecture", "lat": 35.658463, "lng": 138.65723, "ref_id": 7543562, "rating": -1, "num_reviews": 0, "website": null, "contact_phone": "+81 55-262-7213", "contact_email": null, "status": 1, "source_type": 1, "numberReviews": 0}, {"name": "Izakaya Akira", "type": "restaurant", "image": null, "address": "1226 Komatsu, Kasugaicho, Fuefuki 406-0004 Yamanashi Prefecture", "lat": 35.66069, "lng": 138.65874, "ref_id": 9686046, "rating": -1, "num_reviews": 0, "website": null, "contact_phone": "+81 553-26-3779", "contact_email": null, "status": 1, "source_type": 1, "numberReviews": 0}, {"name": "Kappo Miyagawa", "type": "restaurant", "image": "https://dynamic-media-cdn.tripadvisor.com/media/photo-o/1d/27/e7/99/caption.jpg?w=1000&s=1", "address": "805 Narita Misakacho, Fuefuki Yamanashi Prefecture", "lat": 35.643154, "lng": 138.65358, "ref_id": 7543475, "rating": -1, "num_reviews": 0, "website": null, "contact_phone": "+81 55-262-3807", "contact_email": null, "status": 1, "source_type": 1, "numberReviews": 0}, {"name": "Isokoma Sushi", "type": "restaurant", "image": null, "address": "549-1 Isawacho Kawanakajima, Fuefuki Yamanashi Prefecture", "lat": 35.655926, "lng": 138.6449, "ref_id": 7543549, "rating": -1, "num_reviews": 0, "website": null, "contact_phone": "+81 55-263-1935", "contact_email": null, "status": 1, "source_type": 1, "numberReviews": 0}, {"name": "Ichinomiya Drive-In", "type": "restaurant", "image": null, "address": "1190 Minami Noro, Ichinomiyamachi, Fuefuki 405-0052 Yamanashi Prefecture", "lat": 35.64982, "lng": 138.70839, "ref_id": 9624687, "rating": -1, "num_reviews": 0, "website": null, "contact_phone": "+81 553-47-2722", "contact_email": null, "status": 1, "source_type": 1, "numberReviews": 0}, {"name": "Usagi", "type": "restaurant", "image": null, "address": "1716-2 Shimoozo Enzan, Koshu Yamanashi Prefecture", "lat": 35.700993, "lng": 138.72162, "ref_id": 7543698, "rating": -1, "num_reviews": 0, "website": null, "contact_phone": "+81 553-33-2992", "contact_email": null, "status": 1, "source_type": 1, "numberReviews": 0}, {"name": "Yoimizuumiden", "type": "restaurant", "image": null, "address": "1330-1 Kamikanogawa, Yamanashi 405-0018 Yamanashi Prefecture", "lat": 35.69094, "lng": 138.68558, "ref_id": 13268030, "rating": -1, "num_reviews": 0, "website": null, "contact_phone": "+81 553-23-5322", "contact_email": null, "status": 1, "source_type": 1, "numberReviews": 0}, {"name": "Mimasu Sushi", "type": "restaurant", "image": null, "address": "1042-1 Katsunuma Katsunumacho, Koshu Yamanashi Prefecture", "lat": 35.66987, "lng": 138.72653, "ref_id": 7543734, "rating": -1, "num_reviews": 0, "website": null, "contact_phone": "+81 553-44-0737", "contact_email": null, "status": 1, "source_type": 1, "numberReviews": 0}, {"name": "Karaoke Island", "type": "restaurant", "image": null, "address": "355 Shimoijiri, Yamanashi 405-0003 Yamanashi Prefecture", "lat": 35.702038, "lng": 138.70992, "ref_id": 13253701, "rating": -1, "num_reviews": 0, "website": null, "contact_phone": "+81 553-39-9455", "contact_email": null, "status": 1, "source_type": 1, "numberReviews": 0}, {"name": "Rakushokuan", "type": "restaurant", "image": null, "address": "34-1 Osumi, Yaizu 425-0072 Shizuoka Prefecture", "lat": 34.84932, "lng": 138.28687, "ref_id": 9618710, "rating": 4, "num_reviews": 0, "website": null, "contact_phone": "+81 54-620-5227", "contact_email": null, "status": 1, "source_type": 1, "numberReviews": 1}, {"name": "Shokudo-En", "type": "restaurant", "image": null, "address": "5-10-11 Fujieda, Fujieda Shizuoka Prefecture", "lat": 34.87065, "lng": 138.25526, "ref_id": 7432655, "rating": 3.5, "num_reviews": 0, "website": null, "contact_phone": "+81 54-641-0955", "contact_email": null, "status": 1, "source_type": 1, "numberReviews": 3}, {"name": "Muga", "type": "restaurant", "image": null, "address": "1-4-3 Nishi Kogawa, Yaizu 425-0036 Shizuoka Prefecture", "lat": 34.860664, "lng": 138.31036, "ref_id": 9915809, "rating": 4, "num_reviews": 0, "website": null, "contact_phone": "+81 54-629-7707", "contact_email": null, "status": 1, "source_type": 1, "numberReviews": 1}, {"name": "Fujimiya Shokudo", "type": "restaurant", "image": null, "address": "3-27-1 Shintemma, Aoi-Ku, Shizuoka 420-0944 Shizuoka Prefecture", "lat": 35.002785, "lng": 138.36469, "ref_id": 9635206, "rating": 4, "num_reviews": 0, "website": null, "contact_phone": "+81 54-272-2750", "contact_email": null, "status": 1, "source_type": 1, "numberReviews": 1}, {"name": "Club Italy", "type": "restaurant", "image": "https://dynamic-media-cdn.tripadvisor.com/media/photo-o/10/1c/fe/a0/photo5jpg.jpg?w=1000&s=1", "address": "432-2 Gosana, Taki-cho, Taki-gun Mie Prefecture", "lat": 34.49762, "lng": 136.56564, "ref_id": 7479049, "rating": 5, "num_reviews": 0, "website": null, "contact_phone": "+81 598-67-5000", "contact_email": null, "status": 1, "source_type": 1, "numberReviews": 1}, {"name": "Mammaru", "type": "restaurant", "image": null, "address": "693 Shimotanui, Tamaki-cho, Watarai-gun Mie Prefecture", "lat": 34.495914, "lng": 136.62411, "ref_id": 7479146, "rating": 5, "num_reviews": 0, "website": null, "contact_phone": "+81 596-58-3300", "contact_email": null, "status": 1, "source_type": 1, "numberReviews": 1}, {"name": "Sushi Dokoro Daimasu", "type": "restaurant", "image": null, "address": "275-1 Yugashima, Izu Shizuoka Prefecture", "lat": 34.88996, "lng": 138.92905, "ref_id": 7579337, "rating": 4, "num_reviews": 0, "website": null, "contact_phone": "+81 558-85-0107", "contact_email": null, "status": 1, "source_type": 1, "numberReviews": 1}, {"name": "Freshness Burger", "type": "restaurant", "image": null, "address": "720-143 Kusumimotowada, Ito Shizuoka Prefecture", "lat": 34.948776, "lng": 139.1147, "ref_id": 7409512, "rating": 4, "num_reviews": 0, "website": null, "contact_phone": "+81 557-38-0139", "contact_email": null, "status": 1, "source_type": 1, "numberReviews": 1}, {"name": "Shiosaitei", "type": "restaurant", "image": "https://dynamic-media-cdn.tripadvisor.com/media/photo-o/13/22/74/a3/caption.jpg?w=1000&s=1", "address": "1-1-11 Yukawa, Ito 414-0002 Shizuoka Prefecture", "lat": 34.973106, "lng": 139.09523, "ref_id": 14074507, "rating": 4, "num_reviews": 0, "website": "http://ito-shiosaitei.favy.jp/", "contact_phone": "+81 557-37-4031", "contact_email": null, "status": 1, "source_type": 1, "numberReviews": 1}, {"name": "Meshiya Shokudotempaku Ueda", "type": "restaurant", "image": null, "address": "2-925 Uedaminami Tempaku-Ku, Nagoya Qu\u00e2\u0323n Aichi", "lat": 35.128826, "lng": 136.98116, "ref_id": 7402152, "rating": -1, "num_reviews": 0, "website": null, "contact_phone": "+81 52-808-6831", "contact_email": null, "status": 1, "source_type": 1, "numberReviews": 0}, {"name": "Todoroki", "type": "restaurant", "image": null, "address": "18 Showacho, Minato-Ku, Nagoya 455-0026 Qu\u00e2\u0323n Aichi", "lat": 35.081154, "lng": 136.89984, "ref_id": 9912161, "rating": -1, "num_reviews": 0, "website": null, "contact_phone": "+81 52-612-0818", "contact_email": null, "status": 1, "source_type": 1, "numberReviews": 0}, {"name": "Sepian", "type": "restaurant", "image": null, "address": "2-14 Yatomigaokacho, Mizuho-Ku, Nagoya 467-0048 Qu\u00e2\u0323n Aichi", "lat": 35.12356, "lng": 136.94984, "ref_id": 9900239, "rating": -1, "num_reviews": 0, "website": null, "contact_phone": "+81 52-831-2411", "contact_email": null, "status": 1, "source_type": 1, "numberReviews": 0}, {"name": "Ramen Sampei", "type": "restaurant", "image": null, "address": "1-10-1 Shimizu Gloria Ichibankan, Togo-cho, Aichi-gun 470-0165 Qu\u00e2\u0323n Aichi", "lat": 35.09214, "lng": 137.02779, "ref_id": 5923146, "rating": -1, "num_reviews": 0, "website": null, "contact_phone": "+81 561-38-5590", "contact_email": null, "status": 1, "source_type": 1, "numberReviews": 0}, {"name": "Kamo", "type": "restaurant", "image": null, "address": "1-23-2 Tsukudacho, Mizuho-Ku, Nagoya Qu\u00e2\u0323n Aichi", "lat": 35.119118, "lng": 136.92644, "ref_id": 7402857, "rating": -1, "num_reviews": 0, "website": null, "contact_phone": "+81 52-851-2713", "contact_email": null, "status": 1, "source_type": 1, "numberReviews": 0}, {"name": "Hifumiya", "type": "restaurant", "image": null, "address": "4-2104 Shimada, Tenpaku-Ku, Nagoya Qu\u00e2\u0323n Aichi", "lat": 35.11974, "lng": 136.97635, "ref_id": 7658129, "rating": -1, "num_reviews": 0, "website": "http://www.hifumiya.sakura.ne.jp/", "contact_phone": null, "contact_email": null, "status": 1, "source_type": 1, "numberReviews": 0}, {"name": "Kihoro", "type": "restaurant", "image": null, "address": "2-151 Tsutsumiokoshicho Minami-Ku, Nagoya Qu\u00e2\u0323n Aichi", "lat": 35.0847, "lng": 136.91707, "ref_id": 7404403, "rating": -1, "num_reviews": 0, "website": null, "contact_phone": "+81 52-612-0601", "contact_email": null, "status": 1, "source_type": 1, "numberReviews": 0}, {"name": "Owaricho YU", "type": "restaurant", "image": null, "address": "1-9-15 Owaricho, Kanazawa 920-0902 Ishikawa Prefecture", "lat": null, "lng": null, "ref_id": 21144768, "rating": -1, "num_reviews": 0, "website": null, "contact_phone": null, "contact_email": null, "status": 1, "source_type": 1, "numberReviews": 0}, {"name": "Tendon Specialty restaurant Manten Centrair", "type": "restaurant", "image": "https://dynamic-media-cdn.tripadvisor.com/media/photo-o/0f/d8/72/ba/caption.jpg?w=1000&s=1", "address": "1-1 Sentorea, Tokoname Qu\u00e2\u0323n Aichi", "lat": 34.85909, "lng": 136.81459, "ref_id": 3839937, "rating": 3.5, "num_reviews": 0, "website": null, "contact_phone": "+81 569-38-7817", "contact_email": null, "status": 1, "source_type": 1, "numberReviews": 22}, {"name": "Seattle Fish Market", "type": "restaurant", "image": "https://dynamic-media-cdn.tripadvisor.com/media/photo-o/18/fd/5d/06/photo8jpg.jpg?w=1000&s=1", "address": "1-1 Centrair, Tokoname 479-0881 Qu\u00e2\u0323n Aichi", "lat": 34.866055, "lng": 136.81244, "ref_id": 16886632, "rating": 4.5, "num_reviews": 0, "website": null, "contact_phone": "+81 569-84-7123", "contact_email": null, "status": 1, "source_type": 1, "numberReviews": 4}, {"name": "Japanese Cuisine Yuzu no Hana", "type": "restaurant", "image": null, "address": "5522-451 Kitayama 12 Tateshina Village Takimidaira, Chino 391-0301 Nagano Prefecture", "lat": 36.036133, "lng": 138.26733, "ref_id": 6226544, "rating": -1, "num_reviews": 0, "website": null, "contact_phone": "+81 266-67-6585", "contact_email": null, "status": 1, "source_type": 1, "numberReviews": 0}, {"name": "Kubota Coffee", "type": "restaurant", "image": null, "address": "8977-10 Fujimi Namwon Mt, Fujimi-machi, Suwa-gun 399-0211 Nagano Prefecture", "lat": 35.9137, "lng": 138.21259, "ref_id": 14757585, "rating": -1, "num_reviews": 0, "website": null, "contact_phone": "+81 266-55-3439", "contact_email": null, "status": 1, "source_type": 1, "numberReviews": 0}, {"name": "Karaoke Manekineko Chino", "type": "restaurant", "image": null, "address": "18-6 Honmachinishi, Chino 391-0003 Nagano Prefecture", "lat": 35.99845, "lng": 138.16472, "ref_id": 13253855, "rating": -1, "num_reviews": 0, "website": null, "contact_phone": "+81 266-75-1699", "contact_email": null, "status": 1, "source_type": 1, "numberReviews": 0}, {"name": "Tonkatsu Fuji", "type": "restaurant", "image": null, "address": "9984-80 Ochiai, Fujimi-machi, Suwa-gun 399-0214 Nagano Prefecture", "lat": 35.913597, "lng": 138.24055, "ref_id": 10009414, "rating": -1, "num_reviews": 0, "website": null, "contact_phone": "+81 266-62-6233", "contact_email": null, "status": 1, "source_type": 1, "numberReviews": 0}, {"name": "Fukume", "type": "restaurant", "image": null, "address": "39-1 Ha Kizu, Kahoku Ishikawa Prefecture", "lat": 36.750256, "lng": 136.71077, "ref_id": 7572360, "rating": -1, "num_reviews": 0, "website": null, "contact_phone": "+81 76-285-1031", "contact_email": null, "status": 1, "source_type": 1, "numberReviews": 0}, {"name": "Isshintei", "type": "restaurant", "image": null, "address": "158 Shio Re, Hodatsushimizu-cho, Hakui-gun Ishikawa Prefecture", "lat": 36.86384, "lng": 136.7945, "ref_id": 7476456, "rating": -1, "num_reviews": 0, "website": null, "contact_phone": "+81 767-29-2416", "contact_email": null, "status": 1, "source_type": 1, "numberReviews": 0}, {"name": "Shikiko Kahoku", "type": "restaurant", "image": null, "address": "8-1 Takamatsu No, Kahoku Ishikawa Prefecture", "lat": 36.768757, "lng": 136.72482, "ref_id": 7572334, "rating": -1, "num_reviews": 0, "website": null, "contact_phone": "+81 76-281-3666", "contact_email": null, "status": 1, "source_type": 1, "numberReviews": 0}, {"name": "Tsuruko", "type": "restaurant", "image": null, "address": "22-1 Ha Kizu, Kahoku Ishikawa Prefecture", "lat": 36.751225, "lng": 136.71176, "ref_id": 7674623, "rating": -1, "num_reviews": 0, "website": null, "contact_phone": "+81 76-285-1612", "contact_email": null, "status": 1, "source_type": 1, "numberReviews": 0}, {"name": "Hijirikura", "type": "restaurant", "image": "https://dynamic-media-cdn.tripadvisor.com/media/photo-o/17/32/8e/47/caption.jpg?w=1000&s=1", "address": "53-1 Sanden to, Hodatsushimizu-cho, Hakui-gun Ishikawa Prefecture", "lat": 36.857018, "lng": 136.81026, "ref_id": 7476475, "rating": -1, "num_reviews": 0, "website": "http://www.hijirikura.com/", "contact_phone": "+81 767-29-2170", "contact_email": null, "status": 1, "source_type": 1, "numberReviews": 0}, {"name": "Isshin", "type": "restaurant", "image": null, "address": "1303-2 Nakatsugawa, Nakatsugawa Gifu Prefecture", "lat": 35.49698, "lng": 137.51323, "ref_id": 7580340, "rating": -1, "num_reviews": 0, "website": null, "contact_phone": "+81 573-66-7887", "contact_email": null, "status": 1, "source_type": 1, "numberReviews": 0}, {"name": "Kamon", "type": "restaurant", "image": null, "address": "3-6-35 Otacho, Nakatsugawa Gifu Prefecture", "lat": 35.497578, "lng": 137.50294, "ref_id": 7580435, "rating": -1, "num_reviews": 0, "website": null, "contact_phone": "+81 573-65-5791", "contact_email": null, "status": 1, "source_type": 1, "numberReviews": 0}, {"name": "Kojuan", "type": "restaurant", "image": null, "address": "Naegi 3178, Nakatsugawa 508-0101 Gifu Prefecture", "lat": 35.518196, "lng": 137.47835, "ref_id": 9686802, "rating": -1, "num_reviews": 0, "website": null, "contact_phone": "+81 573-65-3098", "contact_email": null, "status": 1, "source_type": 1, "numberReviews": 0}, {"name": "Kikyoya Sakashita", "type": "restaurant", "image": null, "address": "Sakashita 435-28, Nakatsugawa 509-9232 Gifu Prefecture", "lat": 35.571053, "lng": 137.53537, "ref_id": 9933679, "rating": -1, "num_reviews": 0, "website": null, "contact_phone": "+81 573-75-2218", "contact_email": null, "status": 1, "source_type": 1, "numberReviews": 0}, {"name": "Katsumi", "type": "restaurant", "image": null, "address": "2-6-21 Otacho, Nakatsugawa Gifu Prefecture", "lat": 35.49955, "lng": 137.50595, "ref_id": 7580357, "rating": -1, "num_reviews": 0, "website": null, "contact_phone": "+81 573-65-2951", "contact_email": null, "status": 1, "source_type": 1, "numberReviews": 0}, {"name": "Piero", "type": "restaurant", "image": null, "address": "3-24 Yodogawa-Ku, Nakatsugawa Gifu Prefecture", "lat": 35.4985, "lng": 137.5061, "ref_id": 7580301, "rating": -1, "num_reviews": 0, "website": null, "contact_phone": "+81 573-66-1256", "contact_email": null, "status": 1, "source_type": 1, "numberReviews": 0}, {"name": "Takoyakitakochan", "type": "restaurant", "image": null, "address": "729-5 Ochiai, Nakatsugawa Gifu Prefecture", "lat": 35.514183, "lng": 137.53044, "ref_id": 7580282, "rating": -1, "num_reviews": 0, "website": null, "contact_phone": "+81 573-69-5055", "contact_email": null, "status": 1, "source_type": 1, "numberReviews": 0}, {"name": "Saishoku Kenbi", "type": "restaurant", "image": null, "address": "46-361 Kakino Naegi, Nakatsugawa 508-0101 Gifu Prefecture", "lat": 35.54052, "lng": 137.45332, "ref_id": 9666135, "rating": -1, "num_reviews": 0, "website": "http://daisho-kikaku.com/", "contact_phone": "+81 573-77-3036", "contact_email": null, "status": 1, "source_type": 1, "numberReviews": 0}, {"name": "Riyokuen", "type": "restaurant", "image": null, "address": "2-6-34 Otamachi, Nakatsugawa 508-0033 Gifu Prefecture", "lat": 35.49934, "lng": 137.50511, "ref_id": 13033578, "rating": -1, "num_reviews": 0, "website": null, "contact_phone": "+81 573-66-2588", "contact_email": null, "status": 1, "source_type": 1, "numberReviews": 0}, {"name": "Matagiya", "type": "restaurant", "image": null, "address": "2553-5 Ochiai, Nakatsugawa Gifu Prefecture", "lat": 35.525303, "lng": 137.53319, "ref_id": 7580358, "rating": -1, "num_reviews": 0, "website": null, "contact_phone": "+81 573-69-5656", "contact_email": null, "status": 1, "source_type": 1, "numberReviews": 0}, {"name": "Restaurant Balena", "type": "restaurant", "image": null, "address": "Restaurant Balena, Ishiuchi Maruyama Ski Resort, Minamiuonuma 949-6372 Niigata Prefecture", "lat": 36.978794, "lng": 138.80351, "ref_id": 9925568, "rating": 3.5, "num_reviews": 0, "website": null, "contact_phone": "+81 25-783-3697", "contact_email": null, "status": 1, "source_type": 1, "numberReviews": 3}, {"name": "Restaurant Kagura", "type": "restaurant", "image": null, "address": "Mitsumata Kagura Ski Resort Gondola Mountain Top Station, Yuzawa-machi, Minamiuonuma-gun 949-6211 Niigata Prefecture", "lat": 36.87079, "lng": 138.72778, "ref_id": 16812789, "rating": 3, "num_reviews": 0, "website": "http://www.princehotels.co.jp/ski/kagura/winter/store/", "contact_phone": "+81 25-788-9221", "contact_email": null, "status": 1, "source_type": 1, "numberReviews": 1}, {"name": "Yuzawa Kogen Edelweiss", "type": "restaurant", "image": "https://dynamic-media-cdn.tripadvisor.com/media/photo-o/13/7e/91/be/caption.jpg?w=1000&s=1", "address": "Yuzawa Kogen, Yuzawa-machi, Minamiuonuma-gun 949-6101 Niigata Prefecture", "lat": 36.93588, "lng": 138.78918, "ref_id": 13051129, "rating": 3, "num_reviews": 0, "website": null, "contact_phone": "+81 25-785-5021", "contact_email": null, "status": 1, "source_type": 1, "numberReviews": 2}, {"name": "Marron", "type": "restaurant", "image": null, "address": "552-8 Yuzawa, Yuzawa-machi, Minamiuonuma-gun Niigata Prefecture", "lat": 36.94062, "lng": 138.80466, "ref_id": 7494731, "rating": -1, "num_reviews": 0, "website": null, "contact_phone": "+81 25-784-2226", "contact_email": null, "status": 1, "source_type": 1, "numberReviews": 0}, {"name": "Ramendokoro Maidotei", "type": "restaurant", "image": null, "address": "493-8 Oaza Yuzawa, Yuzawa-machi, Minamiuonuma-gun Niigata Prefecture", "lat": 36.940353, "lng": 138.80489, "ref_id": 7494733, "rating": -1, "num_reviews": 0, "website": null, "contact_phone": "+81 25-784-4046", "contact_email": null, "status": 1, "source_type": 1, "numberReviews": 0}, {"name": "Azumi No Yakata Matsukura", "type": "restaurant", "image": null, "address": "9631 Aisome, Ikeda-machi, Kitaazumi-gun Nagano Prefecture", "lat": 36.388363, "lng": 137.88773, "ref_id": 7496129, "rating": -1, "num_reviews": 0, "website": null, "contact_phone": "+81 261-62-7706", "contact_email": null, "status": 1, "source_type": 1, "numberReviews": 0}, {"name": "Sora Cafe", "type": "restaurant", "image": "https://dynamic-media-cdn.tripadvisor.com/media/photo-o/0f/41/86/6f/cafe.jpg?w=1000&s=1", "address": "1539-3 Sendambayashi, Nakatsugawa 509-9131 Gifu Prefecture", "lat": 35.490517, "lng": 137.45734, "ref_id": 8589490, "rating": 4.5, "num_reviews": 0, "website": "http://ja-jp.facebook.com/soracafenakatugawa/", "contact_phone": null, "contact_email": null, "status": 1, "source_type": 1, "numberReviews": 8}, {"name": "Kuraya Enakyo Service Area Up Line", "type": "restaurant", "image": "https://dynamic-media-cdn.tripadvisor.com/media/photo-o/10/b5/4e/64/photo0jpg.jpg?w=1000&s=1", "address": "1120 Oimachi Enakyo Service Area Up Line, Ena 509-7201 Gifu Prefecture", "lat": 35.45532, "lng": 137.42897, "ref_id": 10160953, "rating": 4, "num_reviews": 0, "website": "http://www.facebook.com/enakyosa/", "contact_phone": "+81 573-20-5760", "contact_email": null, "status": 1, "source_type": 1, "numberReviews": 9},