[{"name": "Hiroshima City Youth Outdoor Activities Center Children's Village", "type": "hotel", "image": null, "address": "5135 Ogauchi Asagacho Asakitaku, Hiroshima 731-1171 Qu\u00e2\u0323n Hiroshima", "lat": 34.575985, "lng": 132.43062, "ref_id": 20857720, "rating": -1, "num_reviews": 0, "website": "http://www.cf.city.hiroshima.jp/yagai-ac/", "contact_phone": "+81 82-835-1444", "contact_email": null, "status": 1, "source_type": 1, "numberReviews": 0}, {"name": "Urban West Hiroshima", "type": "hotel", "image": null, "address": "1-2-26 Misasa-machi, Nishi-ku, Hiroshima 733-0003 Qu\u00e2\u0323n Hiroshima", "lat": 34.411705, "lng": 132.45433, "ref_id": 1132719, "rating": -1, "num_reviews": 0, "website": "", "contact_phone": "+81 82-239-0001", "contact_email": "ub-west-hiroshima@ub-hotel.co.jp", "status": 1, "source_type": 1, "numberReviews": 0}, {"name": "b ANNEX", "type": "hotel", "image": null, "address": "4-chome Kogochu, Nihsi-ku, Hiroshima 730-0811 Qu\u00e2\u0323n Hiroshima", "lat": 34.3902, "lng": 132.44992, "ref_id": 23711935, "rating": -1, "num_reviews": 0, "website": null, "contact_phone": null, "contact_email": null, "status": 1, "source_type": 1, "numberReviews": 0}, {"name": "Cubic. 30", "type": "hotel", "image": "https://dynamic-media-cdn.tripadvisor.com/media/partner/bookingcom/photo-o/29/46/37/f3/caption.jpg?w=1000&s=1", "address": "8-15 Kinyacho, Minami-Ku, Hiroshima 732-0825 Qu\u00e2\u0323n Hiroshima", "lat": 34.39088, "lng": 132.47356, "ref_id": 17382800, "rating": -1, "num_reviews": 0, "website": null, "contact_phone": "+81 70-5676-0888", "contact_email": null, "status": 1, "source_type": 1, "numberReviews": 0}, {"name": "Sun Hotel Kudamatsu", "type": "hotel", "image": null, "address": "1-3-34 Nozomicho, Kudamatsu 744-0072 Yamaguchi Prefecture", "lat": 34.029964, "lng": 131.86191, "ref_id": 15687426, "rating": 5, "num_reviews": 0, "website": "http://sunhotel-kudamatsu.com/", "contact_phone": "+81 833-44-5500", "contact_email": null, "status": 1, "source_type": 1, "numberReviews": 1}, {"name": "Okada Minshuku", "type": "hotel", "image": "https://dynamic-media-cdn.tripadvisor.com/media/photo-o/10/7a/9a/cc/caption.jpg?w=1000&s=1", "address": "5-14-16 Itosaki, Mihara 729-0324 Qu\u00e2\u0323n Hiroshima", "lat": 34.394215, "lng": 133.10683, "ref_id": 7287886, "rating": 4.5, "num_reviews": 0, "website": null, "contact_phone": "+81 848-64-0237", "contact_email": null, "status": 1, "source_type": 1, "numberReviews": 2}, {"name": "Sima Inn", "type": "hotel", "image": "https://dynamic-media-cdn.tripadvisor.com/media/photo-o/19/20/a1/aa/photo5jpg.jpg?w=1000&s=1", "address": "2-17-2 Tsuchido, Onomichi 722-0035 Qu\u00e2\u0323n Hiroshima", "lat": 34.410645, "lng": 133.2056, "ref_id": 17518888, "rating": 5, "num_reviews": 0, "website": "http://onomichi-singai.com/sima_inn/", "contact_phone": "+81 80-9195-1181", "contact_email": "onomichisimainn@gmail.com", "status": 1, "source_type": 1, "numberReviews": 1}, {"name": "Alfa Capsule", "type": "hotel", "image": null, "address": "1-9-10 Ageicho, Kurayoshi 682-0022 Tottori Prefecture", "lat": 35.453873, "lng": 133.84998, "ref_id": 1051572, "rating": 4, "num_reviews": 0, "website": null, "contact_phone": "+81 858-26-0755", "contact_email": "", "status": 1, "source_type": 1, "numberReviews": 3}, {"name": "Hotel Kakuban", "type": "hotel", "image": "https://dynamic-media-cdn.tripadvisor.com/media/photo-o/11/5d/f9/e2/caption.jpg?w=1000&s=1", "address": "2-10 Kakubancho, Yonago 683-0812 Tottori Prefecture", "lat": 35.43277, "lng": 133.33226, "ref_id": 1072627, "rating": 3, "num_reviews": 0, "website": "http://www.kakuban.jp/", "contact_phone": "+81 859-35-0010", "contact_email": "kakuban@mwb.biglobe.ne.jp", "status": 1, "source_type": 1, "numberReviews": 17}, {"name": "Yanai Grand Hotel", "type": "hotel", "image": "https://dynamic-media-cdn.tripadvisor.com/media/photo-o/08/66/e6/04/caption.jpg?w=1000&s=1", "address": "2-2-22 Chuo, Yanai 742-0035 Yamaguchi Prefecture", "lat": 33.967484, "lng": 132.10849, "ref_id": 1118200, "rating": 3, "num_reviews": 0, "website": "", "contact_phone": "+81 820-23-0030", "contact_email": "", "status": 1, "source_type": 1, "numberReviews": 11}, {"name": "Ombara Kogen Auto Campsite", "type": "hotel", "image": "https://dynamic-media-cdn.tripadvisor.com/media/photo-o/19/5b/9a/1e/caption.jpg?w=1000&s=1", "address": "2037-3 Kamisaibara, Kagamino-cho, Tomata-gun 708-0601 Okayama Prefecture", "lat": 35.30615, "lng": 133.9845, "ref_id": 13228731, "rating": 5, "num_reviews": 0, "website": "http://www.ombara-kogen.com/camp/index.html", "contact_phone": "+81 868-44-2840", "contact_email": null, "status": 1, "source_type": 1, "numberReviews": 1}, {"name": "Nishimuraya", "type": "hotel", "image": "https://dynamic-media-cdn.tripadvisor.com/media/photo-s/02/bf/12/f2/caption.jpg?w=1000&s=1", "address": "4-1-30 Yudaonsen, Yamaguchi 753-0056 Yamaguchi Prefecture", "lat": 34.164917, "lng": 131.45657, "ref_id": 1082304, "rating": 3, "num_reviews": 0, "website": "http://www.yuda-nishimuraya.co.jp/", "contact_phone": "+81 83-922-0250", "contact_email": "", "status": 1, "source_type": 1, "numberReviews": 31}, {"name": "Miyamaso", "type": "hotel", "image": "https://dynamic-media-cdn.tripadvisor.com/media/photo-o/01/9c/6f/14/caption.jpg?w=1000&s=1", "address": "247-2 Okutsukawa-nishi, Kagamino-cho, Tomata-gun 708-0504 Okayama Prefecture", "lat": 35.221416, "lng": 133.91896, "ref_id": 1135542, "rating": 3.5, "num_reviews": 0, "website": "", "contact_phone": "+81 868-52-0409", "contact_email": "", "status": 1, "source_type": 1, "numberReviews": 7}, {"name": "Shimane Hamada Washington Hotel Plaza", "type": "hotel", "image": "https://dynamic-media-cdn.tripadvisor.com/media/photo-s/02/be/e2/e2/caption.jpg?w=1000&s=1", "address": "4177 Kurokawacho, Hamada 697-0024 Shimane Prefecture", "lat": 34.901047, "lng": 132.08917, "ref_id": 1072951, "rating": 3, "num_reviews": 0, "website": "http://washington.jp/hamada/facilities/", "contact_phone": "+81 855-23-6111", "contact_email": "", "status": 1, "source_type": 1, "numberReviews": 38}, {"name": "Unokoso Ryokan", "type": "hotel", "image": "https://dynamic-media-cdn.tripadvisor.com/media/photo-o/03/a7/36/27/unokoso-ryokan.jpg?w=1000&s=1", "address": "369 Komocho, Shobara 729-6142 Qu\u00e2\u0323n Hiroshima", "lat": 34.865093, "lng": 132.92908, "ref_id": 3646719, "rating": 4.5, "num_reviews": 0, "website": null, "contact_phone": "+81 824-74-0753", "contact_email": null, "status": 1, "source_type": 1, "numberReviews": 2}, {"name": "Machicado", "type": "hotel", "image": "https://dynamic-media-cdn.tripadvisor.com/media/photo-o/18/82/58/aa/photo0jpg.jpg?w=1000&s=1", "address": "2-9-3 Chikko, Tamano 706-0002 Okayama Prefecture", "lat": 34.4965, "lng": 133.95145, "ref_id": 17454712, "rating": 5, "num_reviews": 0, "website": "https://triptorich.com/", "contact_phone": "+81 80-3835-8720", "contact_email": null, "status": 1, "source_type": 1, "numberReviews": 1}, {"name": "Pension Eldorado", "type": "hotel", "image": null, "address": "1091 Ushimadocho_Ushimado, Setouchi 701-4302 Okayama Prefecture", "lat": 34.632206, "lng": 134.1721, "ref_id": 1112063, "rating": 5, "num_reviews": 0, "website": "", "contact_phone": "+81 869-34-5300", "contact_email": "", "status": 1, "source_type": 1, "numberReviews": 2}, {"name": "Bochoen", "type": "hotel", "image": "https://dynamic-media-cdn.tripadvisor.com/media/photo-s/02/bf/62/35/caption.jpg?w=1000&s=1", "address": "4-29 Kumanocho, Yamaguchi 753-0077 Yamaguchi Prefecture", "lat": 34.16743, "lng": 131.45988, "ref_id": 1880858, "rating": 3.5, "num_reviews": 0, "website": "http://www.bochoen.jp/", "contact_phone": "+81 83-922-3555", "contact_email": "", "status": 1, "source_type": 1, "numberReviews": 6}, {"name": "Urban Inn", "type": "hotel", "image": null, "address": "1-6-12 Hondori, Kure 737-0045 Qu\u00e2\u0323n Hiroshima", "lat": 34.24108, "lng": 132.5644, "ref_id": 1051345, "rating": 3.5, "num_reviews": 0, "website": "", "contact_phone": "+81 823-32-5677", "contact_email": "", "status": 1, "source_type": 1, "numberReviews": 7}, {"name": "Minshuku Omiyaso", "type": "hotel", "image": "https://dynamic-media-cdn.tripadvisor.com/media/photo-o/18/c9/fa/56/photo2jpg.jpg?w=1000&s=1", "address": "448 Hinomisaki Taishacho, Izumo 699-0763 Shimane Prefecture", "lat": 35.42894, "lng": 132.62863, "ref_id": 1864056, "rating": 4, "num_reviews": 0, "website": "", "contact_phone": "+81 853-54-5118", "contact_email": "", "status": 1, "source_type": 1, "numberReviews": 2}, {"name": "Hagi no Mikuriya Takadai", "type": "hotel", "image": "https://dynamic-media-cdn.tripadvisor.com/media/photo-o/03/7a/40/63/caption.jpg?w=1000&s=1", "address": "80 Karahimachi, Hagi 758-0044 Yamaguchi Prefecture", "lat": 34.409, "lng": 131.39717, "ref_id": 1049393, "rating": 3.5, "num_reviews": 0, "website": "http://www.takadai.co.jp/", "contact_phone": "+81 838-22-0065", "contact_email": "", "status": 1, "source_type": 1, "numberReviews": 21}, {"name": "Family Lodge Hatagoya, Tsuyama", "type": "hotel", "image": "https://dynamic-media-cdn.tripadvisor.com/media/photo-o/0d/28/26/87/caption.jpg?w=1000&s=1", "address": "1037-7 Innosho, Tsuyama 708-0014 Okayama Prefecture", "lat": 35.05952, "lng": 133.94759, "ref_id": 10234890, "rating": 4.5, "num_reviews": 0, "website": "http://www.hatagoya.co.jp/051_Tsuyama/index.shtml", "contact_phone": "+81 868-28-8859", "contact_email": null, "status": 1, "source_type": 1, "numberReviews": 2}, {"name": "Lion Tsurumi", "type": "hotel", "image": "https://dynamic-media-cdn.tripadvisor.com/media/photo-o/15/5b/4d/71/lion.jpg?w=1000&s=1", "address": "4-8 Tsurumicho, Naka-Ku, Hiroshima 730-0045 Qu\u00e2\u0323n Hiroshima", "lat": 34.38635, "lng": 132.46582, "ref_id": 15297282, "rating": 5, "num_reviews": 0, "website": null, "contact_phone": "+81 70-5676-0888", "contact_email": "airbnbhiroshima358@gmail.com", "status": 1, "source_type": 1, "numberReviews": 1}, {"name": "Guesthouse Life Field", "type": "hotel", "image": "https://dynamic-media-cdn.tripadvisor.com/media/partner/bookingcom/photo-o/29/30/ac/e1/caption.jpg?w=1000&s=1", "address": "611-1 Kawairi, Kurashiki 710-0811 Okayama Prefecture", "lat": 34.604862, "lng": 133.76163, "ref_id": 15278404, "rating": 4, "num_reviews": 0, "website": null, "contact_phone": "+81 80-2940-1487", "contact_email": null, "status": 1, "source_type": 1, "numberReviews": 2}, {"name": "Kenashiyama Yamanoie", "type": "hotel", "image": "https://dynamic-media-cdn.tripadvisor.com/media/photo-o/23/6a/e0/54/ok.jpg?w=1000&s=1", "address": "Tanami, Shinjo-son, Maniwa-gun 717-0201 Okayama Prefecture", "lat": 35.219105, "lng": 133.52802, "ref_id": 13226027, "rating": 4, "num_reviews": 0, "website": null, "contact_phone": "+81 867-56-2202", "contact_email": null, "status": 1, "source_type": 1, "numberReviews": 2}, {"name": "Bito Tsuyamaan", "type": "hotel", "image": "https://dynamic-media-cdn.tripadvisor.com/media/photo-o/21/5a/74/67/by-chance-happened-upon.jpg?w=1000&s=1", "address": "8-1 Nakanocho, Tsuyama 708-0834 Okayama Prefecture", "lat": 35.0623, "lng": 134.01358, "ref_id": 23513373, "rating": 5, "num_reviews": 0, "website": "http://www.bitotsuyama.com/room/", "contact_phone": "+81 868-31-0178", "contact_email": null, "status": 1, "source_type": 1, "numberReviews": 1}, {"name": "Kusuburu House", "type": "hotel", "image": "https://dynamic-media-cdn.tripadvisor.com/media/photo-o/11/f0/92/40/getlstd-property-photo.jpg?w=1000&s=1", "address": "1227-1 Minamigata, Okinoshima-cho, Oki-gun 685-0303 Shimane Prefecture", "lat": 36.28446, "lng": 133.23157, "ref_id": 12642030, "rating": 5, "num_reviews": 0, "website": "http://kusuburu-house.com", "contact_phone": "+81 8512-3-1088", "contact_email": "kusuburuhouse61@gmail.com", "status": 1, "source_type": 1, "numberReviews": 1}, {"name": "Igami Kaihinkoen Auto Campsite", "type": "hotel", "image": "https://dynamic-media-cdn.tripadvisor.com/media/photo-o/17/91/a4/b9/photo0jpg.jpg?w=1000&s=1", "address": "2403-8 Yuya Igami, Nagato 759-4505 Yamaguchi Prefecture", "lat": 34.373978, "lng": 131.01892, "ref_id": 13306706, "rating": 5, "num_reviews": 0, "website": null, "contact_phone": "+81 837-33-3000", "contact_email": null, "status": 1, "source_type": 1, "numberReviews": 1}, {"name": "Mimpaku Megumi", "type": "hotel", "image": null, "address": "357-Ro Ushiroda, Tsuwano-cho, Kanoashi-gun 699-5605 Shimane Prefecture", "lat": 34.469448, "lng": 131.77246, "ref_id": 17428965, "rating": 5, "num_reviews": 0, "website": null, "contact_phone": "+81 856-72-2188", "contact_email": null, "status": 1, "source_type": 1, "numberReviews": 1}, {"name": "Kagura Monzen Tojimura", "type": "hotel", "image": "https://dynamic-media-cdn.tripadvisor.com/media/photo-o/17/6a/75/95/2.jpg?w=1000&s=1", "address": "4627 Midorichohongo, Akitakata 731-0612 Qu\u00e2\u0323n Hiroshima", "lat": 34.722054, "lng": 132.62903, "ref_id": 16716118, "rating": 5, "num_reviews": 0, "website": "https://toujimura.com/staying/", "contact_phone": "+81 826-54-0888", "contact_email": null, "status": 1, "source_type": 1, "numberReviews": 1}, {"name": "Seiryu no Sato", "type": "hotel", "image": "https://dynamic-media-cdn.tripadvisor.com/media/photo-o/17/66/7e/52/caption.jpg?w=1000&s=1", "address": "1075 Usago Nishikicho, Iwakuni 740-0902 Yamaguchi Prefecture", "lat": 34.37804, "lng": 132.0224, "ref_id": 13229690, "rating": 5, "num_reviews": 0, "website": "http://www.go-rakan.jp/", "contact_phone": "+81 827-74-5100", "contact_email": null, "status": 1, "source_type": 1, "numberReviews": 1}, {"name": "Kaita City Hotel", "type": "hotel", "image": "https://dynamic-media-cdn.tripadvisor.com/media/photo-s/02/bf/7a/bb/caption.jpg?w=1000&s=1", "address": "3-1-30 Funakoshiminami, Aki-ku, Hiroshima 736-0082 Qu\u00e2\u0323n Hiroshima", "lat": 34.372227, "lng": 132.52818, "ref_id": 2696996, "rating": 3.5, "num_reviews": 0, "website": "http://kaita-ch.co.jp/", "contact_phone": "+81 82-823-9111", "contact_email": "", "status": 1, "source_type": 1, "numberReviews": 7}, {"name": "Kappo Hotel Ippuku", "type": "hotel", "image": "https://dynamic-media-cdn.tripadvisor.com/media/photo-o/08/3a/6c/fe/caption.jpg?w=1000&s=1", "address": "11-31 Saijoasahi-machi, Higashihiroshima 739-0012 Qu\u00e2\u0323n Hiroshima", "lat": 34.426067, "lng": 132.74567, "ref_id": 1075665, "rating": 3.5, "num_reviews": 0, "website": "", "contact_phone": "+81 82-424-3955", "contact_email": "", "status": 1, "source_type": 1, "numberReviews": 10}, {"name": "Business Hotel Eiko", "type": "hotel", "image": "https://dynamic-media-cdn.tripadvisor.com/media/photo-s/02/bf/7c/50/caption.jpg?w=1000&s=1", "address": "2485-1 Takao, Niimi 718-0003 Okayama Prefecture", "lat": 34.990135, "lng": 133.45714, "ref_id": 1118192, "rating": 3.5, "num_reviews": 0, "website": "", "contact_phone": "+81 867-72-1050", "contact_email": "", "status": 1, "source_type": 1, "numberReviews": 7}, {"name": "Izumo HOTEL THE CLIFF", "type": "hotel", "image": "https://dynamic-media-cdn.tripadvisor.com/media/partner/bookingcom/photo-o/2a/6d/99/b3/caption.jpg?w=1000&s=1", "address": "1870 Takicho Kumura, Izumo 699-0901 Shimane Prefecture", "lat": 35.304375, "lng": 132.64569, "ref_id": 26584958, "rating": -1, "num_reviews": 0, "website": "https://hotel-the-cliff.jp/", "contact_phone": "+81 853-86-3300", "contact_email": null, "status": 1, "source_type": 1, "numberReviews": 0}, {"name": "Nipponia Izumo Hirata Cotton Road", "type": "hotel", "image": "https://dynamic-media-cdn.tripadvisor.com/media/photo-o/29/8c/4f/cf/250-nipponia.jpg?w=1000&s=1", "address": "831-1 Shimmachi Hiratacho, Izumo 691-0001 Shimane Prefecture", "lat": 35.437733, "lng": 132.82147, "ref_id": 20064064, "rating": -1, "num_reviews": 0, "website": "https://nipponiaizumo.jp/hirata/", "contact_phone": "+81 80-6117-7823", "contact_email": null, "status": 1, "source_type": 1, "numberReviews": 0}, {"name": "Villa Izumoya", "type": "hotel", "image": "https://dynamic-media-cdn.tripadvisor.com/media/partner/bookingcom/photo-o/2b/38/96/ec/caption.jpg?w=1000&s=1", "address": "649-5 Taishacho Hinomisaki, Izumo 699-0763 Shimane Prefecture", "lat": 35.42831, "lng": 132.6352, "ref_id": 13318614, "rating": -1, "num_reviews": 0, "website": "https://villa-idumoya.com/", "contact_phone": "+81 853-54-5109", "contact_email": null, "status": 1, "source_type": 1, "numberReviews": 0}, {"name": "Minshuku Imaoka", "type": "hotel", "image": null, "address": "1142-5 Otsutatecho, Izumo 693-0216 Shimane Prefecture", "lat": 35.28607, "lng": 132.72336, "ref_id": 16955955, "rating": -1, "num_reviews": 0, "website": null, "contact_phone": "+81 853-45-0018", "contact_email": null, "status": 1, "source_type": 1, "numberReviews": 0}, {"name": "Hotel Konoya", "type": "hotel", "image": null, "address": "982 Hiratacho, Izumo 691-0001 Shimane Prefecture", "lat": 35.436398, "lng": 132.82068, "ref_id": 6453047, "rating": -1, "num_reviews": 0, "website": null, "contact_phone": "+81 853-63-1133", "contact_email": null, "status": 1, "source_type": 1, "numberReviews": 0}, {"name": "Kinkai", "type": "hotel", "image": null, "address": "1876-5 Koryochosaumi, Izumo 699-0811 Shimane Prefecture", "lat": 35.33214, "lng": 132.68002, "ref_id": 13318615, "rating": -1, "num_reviews": 0, "website": null, "contact_phone": "+81 853-43-2066", "contact_email": null, "status": 1, "source_type": 1, "numberReviews": 0}, {"name": "Minshuku Misakiya", "type": "hotel", "image": null, "address": "1089-40 Taishacho Hinomisaki, Izumo 699-0763 Shimane Prefecture", "lat": 35.432835, "lng": 132.62979, "ref_id": 13318646, "rating": -1, "num_reviews": 0, "website": null, "contact_phone": "+81 853-54-5105", "contact_email": null, "status": 1, "source_type": 1, "numberReviews": 0}, {"name": "Nalu House", "type": "hotel", "image": "https://dynamic-media-cdn.tripadvisor.com/media/photo-o/1a/33/14/e8/getlstd-property-photo.jpg?w=1000&s=1", "address": "165-3 Taishacho Kitaaraki, Izumo 699-0722 Shimane Prefecture", "lat": 35.388027, "lng": 132.68733, "ref_id": 19619918, "rating": -1, "num_reviews": 0, "website": "", "contact_phone": "+81 90-9062-4208", "contact_email": null, "status": 1, "source_type": 1, "numberReviews": 0}, {"name": "Minshuku Nakaya", "type": "hotel", "image": null, "address": "1561-5 Kawashimocho, Izumo 691-0025 Shimane Prefecture", "lat": 35.447334, "lng": 132.75333, "ref_id": 2695142, "rating": -1, "num_reviews": 0, "website": "", "contact_phone": "+81 853-66-1063", "contact_email": "", "status": 1, "source_type": 1, "numberReviews": 0}, {"name": "Kazen Ryokan", "type": "hotel", "image": "https://dynamic-media-cdn.tripadvisor.com/media/photo-s/02/bf/80/f0/caption.jpg?w=1000&s=1", "address": "1386-5 Taishachokizukiminami, Izumo 699-0711 Shimane Prefecture", "lat": 35.391632, "lng": 132.68637, "ref_id": 2695140, "rating": -1, "num_reviews": 0, "website": "", "contact_phone": "+81 853-53-2107", "contact_email": "", "status": 1, "source_type": 1, "numberReviews": 0}, {"name": "Tsubakiya Minshuku", "type": "hotel", "image": null, "address": "2844-45 Taishachokizukikita, Izumo 699-0702 Shimane Prefecture", "lat": 35.40024, "lng": 132.67313, "ref_id": 13319284, "rating": -1, "num_reviews": 0, "website": null, "contact_phone": "+81 853-53-2956", "contact_email": null, "status": 1, "source_type": 1, "numberReviews": 0}, {"name": "Chidoriso", "type": "hotel", "image": null, "address": "622 Taishacho Hinomisaki, Izumo 699-0763 Shimane Prefecture", "lat": 35.432255, "lng": 132.63335, "ref_id": 13318572, "rating": -1, "num_reviews": 0, "website": null, "contact_phone": "+81 853-54-5101", "contact_email": null, "status": 1, "source_type": 1, "numberReviews": 0}, {"name": "Fujiya Ryokan", "type": "hotel", "image": null, "address": "1225-2 Enyacho, Izumo 693-0021 Shimane Prefecture", "lat": 35.35707, "lng": 132.7546, "ref_id": 13395683, "rating": -1, "num_reviews": 0, "website": null, "contact_phone": "+81 853-21-0809", "contact_email": null, "status": 1, "source_type": 1, "numberReviews": 0}, {"name": "Tachikuekyo Wakaayu no Sato", "type": "hotel", "image": null, "address": "5263-14 Otsutatecho, Izumo 693-0216 Shimane Prefecture", "lat": 35.293694, "lng": 132.72925, "ref_id": 13319271, "rating": -1, "num_reviews": 0, "website": "http://wakaayu-izumo.jp/campsite.html#camp", "contact_phone": "+81 853-45-0102", "contact_email": null, "status": 1, "source_type": 1, "numberReviews": 0}, {"name": "Hotel North Side Story", "type": "hotel", "image": "https://dynamic-media-cdn.tripadvisor.com/media/photo-o/18/2e/15/2a/modern-japanese-style.jpg?w=1000&s=1", "address": "2278 Taishacho Yokan, Izumo 699-0731 Shimane Prefecture", "lat": 35.393436, "lng": 132.72675, "ref_id": 10083896, "rating": -1, "num_reviews": 0, "website": "http://www.kitamonogatari.info", "contact_phone": "+81 853-53-3658", "contact_email": "nyamato1211@gmail.com", "status": 1, "source_type": 1, "numberReviews": 0}, {"name": "Minshuku Makujima", "type": "hotel", "image": null, "address": "123-3 Taishacho Hinomisaki, Izumo 699-0763 Shimane Prefecture", "lat": 35.416206, "lng": 132.6456, "ref_id": 13386997, "rating": -1, "num_reviews": 0, "website": null, "contact_phone": "+81 853-54-5428", "contact_email": null, "status": 1, "source_type": 1, "numberReviews": 0}, {"name": "Hotel Oda", "type": "hotel", "image": null, "address": "172 Takichotaki, Izumo 699-0902 Shimane Prefecture", "lat": 35.289246, "lng": 132.63176, "ref_id": 13387001, "rating": -1, "num_reviews": 0, "website": null, "contact_phone": "+81 853-86-2129", "contact_email": null, "status": 1, "source_type": 1, "numberReviews": 0}, {"name": "Hirata Forest Park Campground", "type": "hotel", "image": null, "address": "Tofukucho, Izumo 691-0031 Shimane Prefecture", "lat": 35.44317, "lng": 132.80798, "ref_id": 20887428, "rating": -1, "num_reviews": 0, "website": "http://www.city.izumo.shimane.jp/www/contents/1550024951564/index.html", "contact_phone": "+81 853-21-6735", "contact_email": null, "status": 1, "source_type": 1, "numberReviews": 0}, {"name": "Minshuku Umenoya", "type": "hotel", "image": null, "address": "134-5 Himebaracho, Izumo 693-0061 Shimane Prefecture", "lat": 35.370777, "lng": 132.75374, "ref_id": 13318647, "rating": -1, "num_reviews": 0, "website": null, "contact_phone": "+81 853-22-6314", "contact_email": null, "status": 1, "source_type": 1, "numberReviews": 0}, {"name": "Minshuku Kiyokawa", "type": "hotel", "image": null, "address": "424 Ashiwatacho, Izumo 693-0035 Shimane Prefecture", "lat": 35.346786, "lng": 132.72432, "ref_id": 13318610, "rating": -1, "num_reviews": 0, "website": null, "contact_phone": "+81 853-24-0596", "contact_email": null, "status": 1, "source_type": 1, "numberReviews": 0}, {"name": "Ichienso", "type": "hotel", "image": null, "address": "692 Sadacho Susa, Izumo 693-0503 Shimane Prefecture", "lat": 35.235264, "lng": 132.73811, "ref_id": 13318596, "rating": -1, "num_reviews": 0, "website": "http://www.ichienso.jp/", "contact_phone": "+81 853-84-0980", "contact_email": null, "status": 1, "source_type": 1, "numberReviews": 0}, {"name": "Yumenomori Usagi", "type": "hotel", "image": null, "address": "1013-1 Taishacho Usagiura, Izumo 699-0761 Shimane Prefecture", "lat": 35.439327, "lng": 132.69096, "ref_id": 12380012, "rating": -1, "num_reviews": 0, "website": "http://www.goennet.ne.jp/~yumenomori/", "contact_phone": "+81 853-53-6060", "contact_email": null, "status": 1, "source_type": 1, "numberReviews": 0}, {"name": "Hotel Eight", "type": "hotel", "image": null, "address": "882-1 Imaichicho, Izumo 693-0001 Shimane Prefecture", "lat": 35.362206, "lng": 132.75471, "ref_id": 1118196, "rating": -1, "num_reviews": 0, "website": null, "contact_phone": "+81 853-23-2626", "contact_email": "", "status": 1, "source_type": 1, "numberReviews": 0}, {"name": "Rita Izumo Sagiura", "type": "hotel", "image": "https://dynamic-media-cdn.tripadvisor.com/media/photo-o/2b/47/4d/86/caption.jpg?w=1000&s=1", "address": "126 Taishacho Sagiura, Izumo 699-0761 Shimane Prefecture", "lat": 35.440414, "lng": 132.68684, "ref_id": 26822114, "rating": -1, "num_reviews": 0, "website": "https://instagram.com/rita.izumosagiura/", "contact_phone": "+81 853-31-4515", "contact_email": "rita.izumosagiura@tsugito-izumo.co.jp", "status": 1, "source_type": 1, "numberReviews": 0}, {"name": "Guesthouse Kizuki", "type": "hotel", "image": null, "address": "902-1 Taishacho Kizuki Minami, Izumo 699-0711 Shimane Prefecture", "lat": 35.393993, "lng": 132.68404, "ref_id": 15078858, "rating": -1, "num_reviews": 0, "website": "http://kizuki.webcrow.jp/", "contact_phone": "+81 853-25-7853", "contact_email": null, "status": 1, "source_type": 1, "numberReviews": 0}, {"name": "Genkai", "type": "hotel", "image": "https://dynamic-media-cdn.tripadvisor.com/media/photo-o/02/bf/43/bb/caption.jpg?w=1000&s=1", "address": "14-6 Motomachi, Masuda 698-0033 Shimane Prefecture", "lat": 34.67571, "lng": 131.84003, "ref_id": 1880901, "rating": -1, "num_reviews": 0, "website": "", "contact_phone": "+81 856-22-3223", "contact_email": "", "status": 1, "source_type": 1, "numberReviews": 0}, {"name": "Kushiroso", "type": "hotel", "image": null, "address": "1248-2 Kushirocho, Masuda 698-0001 Shimane Prefecture", "lat": 34.697052, "lng": 131.84398, "ref_id": 13319273, "rating": -1, "num_reviews": 0, "website": null, "contact_phone": "+81 856-23-1371", "contact_email": null, "status": 1, "source_type": 1, "numberReviews": 0}, {"name": "Aisaika", "type": "hotel", "image": null, "address": "1084-2 Marumori, Mito-cho, Masuda 698\u22120207 Shimane Prefecture", "lat": 34.67547, "lng": 132.00418, "ref_id": 3344941, "rating": -1, "num_reviews": 0, "website": null, "contact_phone": "+81 856-52-3639", "contact_email": null, "status": 1, "source_type": 1, "numberReviews": 0}, {"name": "Buntaro", "type": "hotel", "image": null, "address": "1912 Tsudacho, Masuda 699-3671 Shimane Prefecture", "lat": 34.72709, "lng": 131.86464, "ref_id": 13318584, "rating": -1, "num_reviews": 0, "website": null, "contact_phone": "+81 856-27-0005", "contact_email": null, "status": 1, "source_type": 1, "numberReviews": 0}, {"name": "Akebono Business Hotel", "type": "hotel", "image": null, "address": "12-5 Akebonohigashimachi, Masuda 698-0027 Shimane Prefecture", "lat": 34.67756, "lng": 131.84512, "ref_id": 13318570, "rating": -1, "num_reviews": 0, "website": null, "contact_phone": "+81 856-23-7338", "contact_email": null, "status": 1, "source_type": 1, "numberReviews": 0}, {"name": "Hokubo Machi no Eki Dormitory", "type": "hotel", "image": "https://dynamic-media-cdn.tripadvisor.com/media/partner/bookingcom/photo-o/19/aa/b2/7c/5173974.jpg?w=1000&s=1", "address": "639 Shimoazae, Maniwa 716-1433 Okayama Prefecture", "lat": 34.97557, "lng": 133.62553, "ref_id": 17693876, "rating": -1, "num_reviews": 0, "website": "https://www.hokubo.com/azae", "contact_phone": "+81 866-52-3009", "contact_email": null, "status": 1, "source_type": 1, "numberReviews": 0}, {"name": "Kadoya Ryokan", "type": "hotel", "image": null, "address": "3897-6 Mikamo, Maniwa 717-0105 Okayama Prefecture", "lat": 35.156334, "lng": 133.62196, "ref_id": 13225933, "rating": -1, "num_reviews": 0, "website": null, "contact_phone": "+81 867-56-2081", "contact_email": null, "status": 1, "source_type": 1, "numberReviews": 0}, {"name": "Dandanmura", "type": "hotel", "image": null, "address": "617-33 Hiruzenyubune, Maniwa 717-0601 Okayama Prefecture", "lat": 35.309845, "lng": 133.63855, "ref_id": 1111086, "rating": -1, "num_reviews": 0, "website": "http://www5f.biglobe.ne.jp/~dandanmura/", "contact_phone": "+81 867-66-4808", "contact_email": "dandanmura@ksh.biglobe.ne.jp", "status": 1, "source_type": 1, "numberReviews": 0}, {"name": "Moriya Ryokan", "type": "hotel", "image": null, "address": "19 Nakama, Maniwa 717-0416 Okayama Prefecture", "lat": 35.136806, "lng": 133.7139, "ref_id": 1111073, "rating": -1, "num_reviews": 0, "website": "", "contact_phone": "+81 867-62-2615", "contact_email": "", "status": 1, "source_type": 1, "numberReviews": 0}, {"name": "Aburaya Bekkan", "type": "hotel", "image": null, "address": "1570-2 Toyosaka, Maniwa 717-0402 Okayama Prefecture", "lat": 35.204075, "lng": 133.73071, "ref_id": 1133419, "rating": -1, "num_reviews": 0, "website": "", "contact_phone": "+81 867-62-2216", "contact_email": "", "status": 1, "source_type": 1, "numberReviews": 0}, {"name": "Kamidamaya Ryokan", "type": "hotel", "image": null, "address": "2537 Kuse, Maniwa 719-3201 Okayama Prefecture", "lat": 35.07841, "lng": 133.74489, "ref_id": 13225870, "rating": -1, "num_reviews": 0, "website": null, "contact_phone": "+81 867-42-0497", "contact_email": null, "status": 1, "source_type": 1, "numberReviews": 0}, {"name": "Harada Ryokan", "type": "hotel", "image": null, "address": "436 Katsuyama, Maniwa 717-0013 Okayama Prefecture", "lat": 35.081615, "lng": 133.6951, "ref_id": 13225792, "rating": -1, "num_reviews": 0, "website": null, "contact_phone": "+81 867-44-2323", "contact_email": null, "status": 1, "source_type": 1, "numberReviews": 0}, {"name": "Fujimiso", "type": "hotel", "image": null, "address": "3 Yashiro, Maniwa 717-0404 Okayama Prefecture", "lat": 35.1785, "lng": 133.73149, "ref_id": 13225726, "rating": -1, "num_reviews": 0, "website": null, "contact_phone": "+81 867-62-2220", "contact_email": null, "status": 1, "source_type": 1, "numberReviews": 0}, {"name": "Ryusenkaku", "type": "hotel", "image": null, "address": "1161-1 Hiruzen Kaminagata, Maniwa 717-0505 Okayama Prefecture", "lat": 35.287994, "lng": 133.7038, "ref_id": 13228816, "rating": -1, "num_reviews": 0, "website": null, "contact_phone": "+81 867-66-2008", "contact_email": null, "status": 1, "source_type": 1, "numberReviews": 0}, {"name": "Rakuja", "type": "hotel", "image": null, "address": "1194-1 Hiruzen Shitao, Maniwa 717-0513 Okayama Prefecture", "lat": 35.260498, "lng": 133.79356, "ref_id": 1925342, "rating": -1, "num_reviews": 0, "website": "", "contact_phone": "+81 867-67-2666", "contact_email": "", "status": 1, "source_type": 1, "numberReviews": 0}, {"name": "Hiruzen Club Nadja Guesthouse", "type": "hotel", "image": "https://dynamic-media-cdn.tripadvisor.com/media/photo-o/06/9e/f0/2a/caption.jpg?w=1000&s=1", "address": "1-103 Hiruzen Shimofukuda, Maniwa 717-0504 Okayama Prefecture", "lat": 35.296448, "lng": 133.67148, "ref_id": 1925337, "rating": -1, "num_reviews": 0, "website": "http://www.hiruzenkurabu-nadja.com/store/cottage.htm", "contact_phone": "+81 867-66-5433", "contact_email": "", "status": 1, "source_type": 1, "numberReviews": 0}, {"name": "Nakatsui Jinya", "type": "hotel", "image": null, "address": "454-2 Shimonakatsui, Maniwa 716-1421 Okayama Prefecture", "lat": 34.94596, "lng": 133.6274, "ref_id": 13228848, "rating": -1, "num_reviews": 0, "website": null, "contact_phone": "+81 866-52-5001", "contact_email": null, "status": 1, "source_type": 1, "numberReviews": 0}, {"name": "Shimodamaya", "type": "hotel", "image": null, "address": "2538 Kuse, Maniwa 719-3201 Okayama Prefecture", "lat": 35.078377, "lng": 133.74466, "ref_id": 13228843, "rating": -1, "num_reviews": 0, "website": null, "contact_phone": "+81 867-42-1023", "contact_email": null, "status": 1, "source_type": 1, "numberReviews": 0}, {"name": "Create Sugaya", "type": "hotel", "image": null, "address": "1050-2 Mikamo, Maniwa 717-0105 Okayama Prefecture", "lat": 35.15255, "lng": 133.60608, "ref_id": 13225590, "rating": -1, "num_reviews": 0, "website": "http://www.sugedani.com/index.php", "contact_phone": "+81 867-56-2044", "contact_email": null, "status": 1, "source_type": 1, "numberReviews": 0}, {"name": "Okamoto Ryokan", "type": "hotel", "image": null, "address": "2603 Kuse, Maniwa 719-3201 Okayama Prefecture", "lat": 35.07761, "lng": 133.74635, "ref_id": 13228727, "rating": -1, "num_reviews": 0, "website": "http://okamotoryokan.com/index.html", "contact_phone": "+81 867-42-0660", "contact_email": null, "status": 1, "source_type": 1, "numberReviews": 0}, {"name": "Ohmae Ryokan", "type": "hotel", "image": null, "address": "153 Hiruzen Nakafukuda, Maniwa 717-0501 Okayama Prefecture", "lat": 35.27918, "lng": 133.65172, "ref_id": 13228634, "rating": -1, "num_reviews": 0, "website": null, "contact_phone": "+81 867-66-3005", "contact_email": null, "status": 1, "source_type": 1, "numberReviews": 0}, {"name": "Cottage Hiruzen no Mori", "type": "hotel", "image": "https://dynamic-media-cdn.tripadvisor.com/media/photo-o/11/cd/11/1f/caption.jpg?w=1000&s=1", "address": "596-49 Hiruzen Honkayabe, Maniwa 717-0611 Okayama Prefecture", "lat": 35.26611, "lng": 133.59738, "ref_id": 13072072, "rating": -1, "num_reviews": 0, "website": "http://hiruzen-no-mori.com/", "contact_phone": "+81 90-3357-5607", "contact_email": null, "status": 1, "source_type": 1, "numberReviews": 0}, {"name": "Naka Hiruzen Auto Camping Site", "type": "hotel", "image": null, "address": "Hiruzen Shimofukuda, Maniwa 717-0504 Okayama Prefecture", "lat": 35.29681, "lng": 133.68542, "ref_id": 8407295, "rating": -1, "num_reviews": 0, "website": null, "contact_phone": "+81 867-66-3992", "contact_email": null, "status": 1, "source_type": 1, "numberReviews": 0}, {"name": "Town Hotel Ishii", "type": "hotel", "image": null, "address": "2822 Kuse, Maniwa 719-3201 Okayama Prefecture", "lat": 35.077946, "lng": 133.74948, "ref_id": 13087926, "rating": -1, "num_reviews": 0, "website": null, "contact_phone": "+81 867-42-0007", "contact_email": null, "status": 1, "source_type": 1, "numberReviews": 0}, {"name": "Hiruzen Kashibesso", "type": "hotel", "image": null, "address": "1028 Hiruzen Kamifukuda, Maniwa 717-0602 Okayama Prefecture", "lat": 35.285713, "lng": 133.63763, "ref_id": 1110378, "rating": -1, "num_reviews": 0, "website": "", "contact_phone": "+81 867-66-3234", "contact_email": "", "status": 1, "source_type": 1, "numberReviews": 0}, {"name": "Tsuguro Kogen Campsite", "type": "hotel", "image": null, "address": "1080-1 Hiruzen Shitao, Maniwa 717-0513 Okayama Prefecture", "lat": 35.264687, "lng": 133.79042, "ref_id": 13375279, "rating": -1, "num_reviews": 0, "website": "http://www.tsuguro.jp/campsite/index.html", "contact_phone": "+81 867-67-2655", "contact_email": null, "status": 1, "source_type": 1, "numberReviews": 0}, {"name": "Shiogama Campsite", "type": "hotel", "image": "https://dynamic-media-cdn.tripadvisor.com/media/photo-o/1a/d9/c6/cc/caption.jpg?w=1000&s=1", "address": "27-50 Hiruzen Shimofukuda, Maniwa 717-0504 Okayama Prefecture", "lat": 35.30107, "lng": 133.67903, "ref_id": 13375276, "rating": -1, "num_reviews": 0, "website": "https://shiogama-campingvillage.jp/", "contact_phone": "+81 867-66-3959", "contact_email": null, "status": 1, "source_type": 1, "numberReviews": 0}, {"name": "Shigeya Ryokan", "type": "hotel", "image": null, "address": "3982 Mikamo, Maniwa 717-0105 Okayama Prefecture", "lat": 35.156452, "lng": 133.62532, "ref_id": 13229888, "rating": -1, "num_reviews": 0, "website": null, "contact_phone": "+81 867-56-2019", "contact_email": null, "status": 1, "source_type": 1, "numberReviews": 0}, {"name": "Nishiya Ryokan", "type": "hotel", "image": null, "address": "569 Shimoazae, Maniwa 716-1433 Okayama Prefecture", "lat": 34.96409, "lng": 133.62915, "ref_id": 13228631, "rating": -1, "num_reviews": 0, "website": null, "contact_phone": "+81 866-52-2028", "contact_email": null, "status": 1, "source_type": 1, "numberReviews": 0}, {"name": "Hokubo Momiji Park", "type": "hotel", "image": null, "address": "3262-37 Aguchi, Maniwa 716-1431 Okayama Prefecture", "lat": 35.001694, "lng": 133.60013, "ref_id": 20810733, "rating": -1, "num_reviews": 0, "website": "http://www.hobase.net/", "contact_phone": "+81 80-7835-8024", "contact_email": null, "status": 1, "source_type": 1, "numberReviews": 0}, {"name": "Izumiya", "type": "hotel", "image": null, "address": "359 Tsugitaru, Maniwa 717-0415 Okayama Prefecture", "lat": 35.14192, "lng": 133.7183, "ref_id": 1111733, "rating": -1, "num_reviews": 0, "website": null, "contact_phone": "+81 867-62-3311", "contact_email": "", "status": 1, "source_type": 1, "numberReviews": 0}, {"name": "Shichifuku", "type": "hotel", "image": null, "address": "1424-1 Toyosaka, Maniwa 717-0406 Okayama Prefecture", "lat": 35.19259, "lng": 133.73125, "ref_id": 1119471, "rating": -1, "num_reviews": 0, "website": "", "contact_phone": "+81 867-62-2001", "contact_email": "", "status": 1, "source_type": 1, "numberReviews": 0}, {"name": "Maga Hotel", "type": "hotel", "image": null, "address": "184 Nakama, Maniwa 717-0416 Okayama Prefecture", "lat": 35.1376, "lng": 133.7153, "ref_id": 1111578, "rating": -1, "num_reviews": 0, "website": "", "contact_phone": "+81 867-62-3636", "contact_email": "", "status": 1, "source_type": 1, "numberReviews": 0}, {"name": "Katsuyama Sports Park Campsite", "type": "hotel", "image": null, "address": "1192 Fukuya, Maniwa Okayama Prefecture", "lat": 35.08318, "lng": 133.67216, "ref_id": 20509899, "rating": -1, "num_reviews": 0, "website": "http://www.city.maniwa.lg.jp/soshiki/58/25365.html", "contact_phone": "+81 867-44-2900", "contact_email": null, "status": 1, "source_type": 1, "numberReviews": 0}, {"name": "Funatsu", "type": "hotel", "image": null, "address": "243-2 Mita, Maniwa 717-0022 Okayama Prefecture", "lat": 35.080994, "lng": 133.68616, "ref_id": 8671748, "rating": -1, "num_reviews": 0, "website": null, "contact_phone": "+81 867-44-3097", "contact_email": null, "status": 1, "source_type": 1, "numberReviews": 0}, {"name": "Fukuyama New Castle Hotel", "type": "hotel", "image": "https://dynamic-media-cdn.tripadvisor.com/media/photo-o/06/da/7d/a3/1f.jpg?w=1000&s=1", "address": "8-16 Sannomarucho, Fukuyama 720-0066 Qu\u00e2\u0323n Hiroshima", "lat": 34.488586, "lng": 133.3609, "ref_id": 1073605, "rating": 4, "num_reviews": 0, "website": "http://www.new-castle.net/", "contact_phone": "+81 84-922-2121", "contact_email": "", "status": 1, "source_type": 1, "numberReviews": 218}, {"name": "Richmond Hotel Fukuyama Ekimae", "type": "hotel", "image": "https://dynamic-media-cdn.tripadvisor.com/media/photo-o/11/47/fe/ab/deluxe-double--v17844069.jpg?w=1000&s=1", "address": "1-1 Higashisakuramachi, Fukuyama 720-0065 Qu\u00e2\u0323n Hiroshima", "lat": 34.48763, "lng": 133.36276, "ref_id": 2063927, "rating": 4.5, "num_reviews": 0, "website": "http://www.richmondhotel.jp/fukuyama/index.php?hotel_id=49", "contact_phone": "+81 84-973-8030", "contact_email": "", "status": 1, "source_type": 1, "numberReviews": 579}, {"name": "Urbain Hiroshima Central", "type": "hotel", "image": "https://dynamic-media-cdn.tripadvisor.com/media/photo-o/10/20/a7/4b/breakfast-lounge--v16797164.jpg?w=1000&s=1", "address": "5-20 Teppocho, Naka-Ku, Hiroshima 730-0017 Qu\u00e2\u0323n Hiroshima", "lat": 34.39644, "lng": 132.46439, "ref_id": 3486637, "rating": 4, "num_reviews": 0, "website": "http://www.urbainhiroshimacentral.com/", "contact_phone": "+81 82-511-5211", "contact_email": "info-hce@urbain-hotels.com", "status": 1, "source_type": 1, "numberReviews": 416}, {"name": "Miyajima Morinoyado", "type": "hotel", "image": "https://dynamic-media-cdn.tripadvisor.com/media/photo-o/1b/5d/db/cc/caption.jpg?w=1000&s=1", "address": "Miyajimacho Omoto Park, Hatsukaichi 739-0588 Qu\u00e2\u0323n Hiroshima", "lat": 34.295135, "lng": 132.3147, "ref_id": 325034, "rating": 4, "num_reviews": 0, "website": "http://www.morinoyado.jp/", "contact_phone": "+81 829-44-0430", "contact_email": "info@morinoyado.jp", "status": 1, "source_type": 1, "numberReviews": 119}, {"name": "Hotel Kikunoya", "type": "hotel", "image": "https://dynamic-media-cdn.tripadvisor.com/media/photo-o/1a/d6/aa/b5/caption.jpg?w=1000&s=1", "address": "335 Chuemachi, Miyajimacho, Hatsukaichi 739-0523 Qu\u00e2\u0323n Hiroshima", "lat": 34.29431, "lng": 132.32143, "ref_id": 2558912, "rating": 4, "num_reviews": 0, "website": "http://miyajima-kikunoya.com/", "contact_phone": "+81 829-40-2400", "contact_email": "info@miyajima-kikunoya.com", "status": 1, "source_type": 1, "numberReviews": 135}, {"name": "Hiroshima Tokyu REI Hotel", "type": "hotel", "image": "https://dynamic-media-cdn.tripadvisor.com/media/photo-o/1c/a7/91/44/120cm-wi-fi.jpg?w=1000&s=1", "address": "10-1 Mikawacho, Naka-Ku, Hiroshima 730-0029 Qu\u00e2\u0323n Hiroshima", "lat": 34.388824, "lng": 132.46187, "ref_id": 505968, "rating": 4, "num_reviews": 0, "website": "https://www.tokyuhotels.co.jp/hiroshima-r/", "contact_phone": "+81 82-244-0109", "contact_email": "", "status": 1, "source_type": 1, "numberReviews": 366}, {"name": "Sakuraya", "type": "hotel", "image": "https://dynamic-media-cdn.tripadvisor.com/media/photo-o/12/7a/97/a6/caption.jpg?w=1000&s=1", "address": "853-1 Miyajimacho, Hatsukaichi 739-0550 Qu\u00e2\u0323n Hiroshima", "lat": 34.300552, "lng": 132.32153, "ref_id": 1112530, "rating": 4.5, "num_reviews": 0, "website": "https://www.cs-homes.co.jp/", "contact_phone": "+81 829-40-2805", "contact_email": "", "status": 1, "source_type": 1, "numberReviews": 420}, {"name": "Tottori Washington Hotel Plaza", "type": "hotel", "image": "https://dynamic-media-cdn.tripadvisor.com/media/photo-o/1b/36/eb/74/caption.jpg?w=1000&s=1", "address": "102 Higashihonjicho, Tottori 680-0835 Tottori Prefecture", "lat": 35.49379, "lng": 134.22813, "ref_id": 1072622, "rating": 3.5, "num_reviews": 0, "website": "http://tottori.wh-at.com/", "contact_phone": "+81 857-27-8111", "contact_email": "", "status": 1, "source_type": 1, "numberReviews": 97}, {"name": "Livemax Resort Akimiyajima", "type": "hotel", "image": "https://dynamic-media-cdn.tripadvisor.com/media/photo-o/16/f4/c4/f1/upper-floor-room-with.jpg?w=1000&s=1", "address": "634 Miyajimacho Uonotanacho, Hatsukaichi 739-0588 Qu\u00e2\u0323n Hiroshima", "lat": 34.29877, "lng": 132.32397, "ref_id": 12958718, "rating": 3.5, "num_reviews": 0, "website": "https://www.livemax-resort.com/hiroshima/akimiyajima/", "contact_phone": "+81 829-40-2882", "contact_email": null, "status": 1, "source_type": 1, "numberReviews": 50}, {"name": "Green Rich Hotels Izumo", "type": "hotel", "image": "https://dynamic-media-cdn.tripadvisor.com/media/photo-o/07/31/13/05/caption.jpg?w=1000&s=1", "address": "1489-2 Imaichicho, Izumo 693-0001 Shimane Prefecture", "lat": 35.3633, "lng": 132.75978, "ref_id": 7286317, "rating": 4, "num_reviews": 0, "website": "http://www.gr-izumo.com/", "contact_phone": "+81 853-25-3300", "contact_email": "grh-izumo@greenhotels.co.jp", "status": 1, "source_type": 1, "numberReviews": 118}, {"name": "Kasuien Minami", "type": "hotel", "image": "https://dynamic-media-cdn.tripadvisor.com/media/photo-o/12/9d/f0/3e/caption.jpg?w=1000&s=1", "address": "1218-8 Tamatsukuri, Tamayucho, Matsue 699-0201 Shimane Prefecture", "lat": 35.417763, "lng": 133.00821, "ref_id": 1073035, "rating": 4.5, "num_reviews": 0, "website": "https://www.kasuien-minami.jp/", "contact_phone": "+81 852-62-0331", "contact_email": "", "status": 1, "source_type": 1, "numberReviews": 303}, {"name": "Iwakuni Kokusai Kanko Hotel", "type": "hotel", "image": "https://dynamic-media-cdn.tripadvisor.com/media/photo-o/13/24/59/eb/caption.jpg?w=1000&s=1", "address": "1-1-7 Iwakuni, Iwakuni 741-0062 Yamaguchi Prefecture", "lat": 34.168186, "lng": 132.17995, "ref_id": 1112333, "rating": 4, "num_reviews": 0, "website": "", "contact_phone": "+81 827-43-1111", "contact_email": "", "status": 1, "source_type": 1, "numberReviews": 149}, {"name": "Hotel Hiroshima Garden Palace", "type": "hotel", "image": "https://dynamic-media-cdn.tripadvisor.com/media/photo-o/0a/16/e3/5d/hiroshima-garden-palace.jpg?w=1000&s=1", "address": "1-15-21 Hikarimachi, Higashi-Ku, Hiroshima 732-0052 Qu\u00e2\u0323n Hiroshima", "lat": 34.398014, "lng": 132.48036, "ref_id": 558187, "rating": 3.5, "num_reviews": 0, "website": "http://www.hotelgp-hiroshima.com/", "contact_phone": "+81 82-262-1122", "contact_email": "hir-info@hotelgp-hiroshima.com", "status": 1, "source_type": 1, "numberReviews": 109}, {"name": "Super Hotel Hiroshima", "type": "hotel", "image": "https://dynamic-media-cdn.tripadvisor.com/media/photo-s/02/dc/11/1e/2-3-jpg.jpg?w=1000&s=1", "address": "8-11 Nishihiratsuka-Cho, Naka-Ku, Hiroshima 730-0024 Qu\u00e2\u0323n Hiroshima", "lat": 34.38822, "lng": 132.46611, "ref_id": 1133398, "rating": 4, "num_reviews": 0, "website": "", "contact_phone": "+81 82-504-9000", "contact_email": "", "status": 1, "source_type": 1, "numberReviews": 72}, {"name": "KIRO Hiroshima by THE SHARE HOTELS", "type": "hotel", "image": "https://dynamic-media-cdn.tripadvisor.com/media/photo-o/19/1c/92/25/kiro-the-share-hotels.jpg?w=1000&s=1", "address": "3-21 Mikawacho, Naka-Ku, Hiroshima 730-0029 Qu\u00e2\u0323n Hiroshima", "lat": 34.390736, "lng": 132.46178, "ref_id": 17731903, "rating": 4.5, "num_reviews": 0, "website": "https://www.thesharehotels.com/kiro/", "contact_phone": "+81 82-545-9160", "contact_email": "kiro@thesharehotels.com", "status": 1, "source_type": 1, "numberReviews": 16}, {"name": "Toyoko Inn Higashihiroshima Saijo Ekimae", "type": "hotel", "image": "https://dynamic-media-cdn.tripadvisor.com/media/photo-o/2a/0d/47/89/caption.jpg?w=1000&s=1", "address": "12-2 Saijo Hommachi, Higashihiroshima 739-0011 Qu\u00e2\u0323n Hiroshima", "lat": 34.43022, "lng": 132.74318, "ref_id": 1497071, "rating": 3.5, "num_reviews": 0, "website": "http://www.toyoko-inn.com/hotel/00160/index.html", "contact_phone": "+81 82-422-1045", "contact_email": "", "status": 1, "source_type": 1, "numberReviews": 61}, {"name": "Super Hotel Premier Shimonoseki", "type": "hotel", "image": "https://dynamic-media-cdn.tripadvisor.com/media/photo-o/1c/ac/88/ca/20210206-174119-largejpg.jpg?w=1000&s=1", "address": "3-50 Hosoeshimmachi, Shimonoseki 750-0017 Yamaguchi Prefecture", "lat": 33.94918, "lng": 130.92836, "ref_id": 19334753, "rating": 4, "num_reviews": 0, "website": "http://www.superhotel.co.jp/s_hotels/shimonoseki/", "contact_phone": "+81 83-229-9000", "contact_email": null, "status": 1, "source_type": 1, "numberReviews": 6}, {"name": "Hotel Areaone Izumo", "type": "hotel", "image": "https://dynamic-media-cdn.tripadvisor.com/media/photo-o/09/50/25/2d/photo2jpg.jpg?w=1000&s=1", "address": "1261-23 Imaichicho, Izumo 693-0001 Shimane Prefecture", "lat": 35.361797, "lng": 132.75908, "ref_id": 1072997, "rating": 3.5, "num_reviews": 0, "website": "http://www.hotel-areaone.com/izumo/", "contact_phone": "+81 853-24-2766", "contact_email": "", "status": 1, "source_type": 1, "numberReviews": 17}, {"name": "Toyoko Inn Yonago ekimae", "type": "hotel", "image": "https://dynamic-media-cdn.tripadvisor.com/media/photo-o/2a/03/00/8c/caption.jpg?w=1000&s=1", "address": "100 Meiji cho, Yonago 683-0053 Tottori Prefecture", "lat": 35.424427, "lng": 133.33566, "ref_id": 1497076, "rating": 3.5, "num_reviews": 0, "website": "http://www.toyoko-inn.com/hotel/00161/index.html", "contact_phone": "+81 859-36-1045", "contact_email": "", "status": 1, "source_type": 1, "numberReviews": 106}, {"name": "Uzu House", "type": "hotel", "image": "https://dynamic-media-cdn.tripadvisor.com/media/photo-o/0e/2b/1f/0f/roof-terrace-by-night.jpg?w=1000&s=1", "address": "7-8 Amidaijicho, Shimonoseki 750-0003 Yamaguchi Prefecture", "lat": 33.958958, "lng": 130.94963, "ref_id": 11549825, "rating": 4.5, "num_reviews": 0, "website": "http://uzuhouse.com", "contact_phone": "+81 83-250-9787", "contact_email": "info@uzuhouse.com", "status": 1, "source_type": 1, "numberReviews": 27}, {"name": "Vessel Inn Hiroshima-Ekimae", "type": "hotel", "image": "https://dynamic-media-cdn.tripadvisor.com/media/photo-o/0a/d3/85/88/vhr4-3.jpg?w=1000&s=1", "address": "1-1-1 Nishikaniya Minami-ku, Hiroshima 732-0804 Qu\u00e2\u0323n Hiroshima", "lat": 34.393425, "lng": 132.47833, "ref_id": 1566487, "rating": 4, "num_reviews": 0, "website": "http://hiroshima-ekimae.hotelsevenseas.jp/", "contact_phone": "+81 82-568-1177", "contact_email": "", "status": 1, "source_type": 1, "numberReviews": 110}, {"name": "Hotel Route Inn Yamaguchi Yudaonsen", "type": "hotel", "image": "https://dynamic-media-cdn.tripadvisor.com/media/photo-o/19/78/30/1f/caption.jpg?w=1000&s=1", "address": "9-1 Sentocho, Yamaguchi 753-0076 Yamaguchi Prefecture", "lat": 34.167076, "lng": 131.46254, "ref_id": 15747160, "rating": 4, "num_reviews": 0, "website": "https://www.route-inn.co.jp/", "contact_phone": "+81 50-5576-8001", "contact_email": null, "status": 1, "source_type": 1, "numberReviews": 15}, {"name": "Hotel Rich", "type": "hotel", "image": "https://dynamic-media-cdn.tripadvisor.com/media/photo-o/11/b2/63/48/caption.jpg?w=1000&s=1", "address": "2-36-1 Kabe, Asakitaku, Hiroshima 731-0221 Qu\u00e2\u0323n Hiroshima", "lat": 34.512085, "lng": 132.51144, "ref_id": 1166130, "rating": 3.5, "num_reviews": 0, "website": "", "contact_phone": "+81 82-815-7777", "contact_email": "", "status": 1, "source_type": 1, "numberReviews": 6}, {"name": "Toyoko Inn Tottori-eki Minami-guchi", "type": "hotel", "image": "https://dynamic-media-cdn.tripadvisor.com/media/photo-o/29/f1/c0/d9/caption.jpg?w=1000&s=1", "address": "2-153-3 Tomiyasu, Tottori 680-0845 Tottori Prefecture", "lat": 35.492626, "lng": 134.22787, "ref_id": 1495503, "rating": 3.5, "num_reviews": 0, "website": "http://www.toyoko-inn.com/hotel/00046/index.html", "contact_phone": "+81 857-36-1045", "contact_email": "", "status": 1, "source_type": 1, "numberReviews": 79}, {"name": "Izumo Royal Hotel", "type": "hotel", "image": "https://dynamic-media-cdn.tripadvisor.com/media/photo-o/1c/68/94/1d/2020.jpg?w=1000&s=1", "address": "831 Watarihashicho, Izumo 693-0004 Shimane Prefecture", "lat": 35.367725, "lng": 132.74557, "ref_id": 1072958, "rating": 4, "num_reviews": 0, "website": "https://www.izumo-royal.com", "contact_phone": "+81 853-23-7211", "contact_email": "", "status": 1, "source_type": 1, "numberReviews": 88}, {"name": "Hotel Kuretakeso Hiroshima Otemachi", "type": "hotel", "image": "https://dynamic-media-cdn.tripadvisor.com/media/photo-o/1b/0f/72/8c/photo0jpg.jpg?w=1000&s=1", "address": "3-7-3 Otemachi, Naka-Ku, Hiroshima 730-0051 Qu\u00e2\u0323n Hiroshima", "lat": 34.388107, "lng": 132.4548, "ref_id": 16754934, "rating": 4.5, "num_reviews": 0, "website": "http://www.kuretake-inn.com/hiroshima/", "contact_phone": "+81 82-241-5511", "contact_email": null, "status": 1, "source_type": 1, "numberReviews": 24}, {"name": "Aki Grand Hotel & Spa", "type": "hotel", "image": "https://dynamic-media-cdn.tripadvisor.com/media/photo-o/11/2e/34/6f/sea-view-japanese-style.jpg?w=1000&s=1", "address": "1-1-17 Miyajimaguchinishi, Hatsukaichi 739-0412 Qu\u00e2\u0323n Hiroshima", "lat": 34.303986, "lng": 132.29645, "ref_id": 1075646, "rating": 3.5, "num_reviews": 0, "website": "http://www.akigh.co.jp/", "contact_phone": "+81 829-56-0111", "contact_email": "info@akigh.co.jp", "status": 1, "source_type": 1, "numberReviews": 322}, {"name": "Maniwa City Hotel Sunrise", "type": "hotel", "image": "https://dynamic-media-cdn.tripadvisor.com/media/photo-o/10/7e/b8/54/caption.jpg?w=1000&s=1", "address": "258-6 So, Maniwa 719-3204 Okayama Prefecture", "lat": 35.06987, "lng": 133.75044, "ref_id": 1111101, "rating": 4, "num_reviews": 0, "website": "http://www.maniwa-sunrise.com/", "contact_phone": "+81 867-42-2121", "contact_email": "", "status": 1, "source_type": 1, "numberReviews": 13}, {"name": "Prince Hotel Shimonoseki", "type": "hotel", "image": "https://dynamic-media-cdn.tripadvisor.com/media/photo-o/13/b5/3d/d8/photo0jpg.jpg?w=1000&s=1", "address": "3-10-7 Takezaki-cho, Shimonoseki 750-0025 Yamaguchi Prefecture", "lat": 33.95219, "lng": 130.9213, "ref_id": 1075619, "rating": 3.5, "num_reviews": 0, "website": "", "contact_phone": "+81 83-232-2301", "contact_email": "", "status": 1, "source_type": 1, "numberReviews": 30}, {"name": "Hotel Area One Okayama", "type": "hotel", "image": "https://dynamic-media-cdn.tripadvisor.com/media/photo-s/02/d9/73/5b/caption.jpg?w=1000&s=1", "address": "7-1 Saiwaicho, Kita-ku, Okayama 700-0903 Okayama Prefecture", "lat": 34.662178, "lng": 133.91913, "ref_id": 1096920, "rating": 3, "num_reviews": 0, "website": "http://www.hotel-areaone.com/okayama/", "contact_phone": "+81 86-234-5678", "contact_email": "", "status": 1, "source_type": 1, "numberReviews": 184}, {"name": "Mange Tak Resort Onomichi", "type": "hotel", "image": "https://dynamic-media-cdn.tripadvisor.com/media/photo-o/29/41/8d/9f/hotel-entrance.jpg?w=1000&s=1", "address": "2-4-4 Tsuchido, Onomichi 722-0035 Qu\u00e2\u0323n Hiroshima", "lat": 34.408817, "lng": 133.20172, "ref_id": 25234784, "rating": -1, "num_reviews": 0, "website": "http://mangetakresort-onomichi.com/", "contact_phone": "+81 848-38-9801", "contact_email": "mangetak.2021.onomichi@gmail.com", "status": 1, "source_type": 1, "numberReviews": 0}, {"name": "Ryokan Onomichi Nishiyama", "type": "hotel", "image": "https://dynamic-media-cdn.tripadvisor.com/media/photo-o/2a/3e/ae/7d/caption.jpg?w=1000&s=1", "address": "678-1 Sanba-cho, Onomichi 722-0052 Qu\u00e2\u0323n Hiroshima", "lat": 34.416103, "lng": 133.23198, "ref_id": 26344086, "rating": -1, "num_reviews": 0, "website": "https://o-nishiyama.co.jp/", "contact_phone": "+81 848-37-3145", "contact_email": "info@o-nishiyama.co.jp", "status": 1, "source_type": 1, "numberReviews": 0}, {"name": "Guest House Theta-mura", "type": "hotel", "image": "https://dynamic-media-cdn.tripadvisor.com/media/partner/bookingcom/photo-o/2b/0f/18/41/caption.jpg?w=1000&s=1", "address": "2-22-6 Kubo, Onomichi 722-0045 Qu\u00e2\u0323n Hiroshima", "lat": 34.411213, "lng": 133.20569, "ref_id": 26852589, "rating": -1, "num_reviews": 0, "website": "https://theta-mura.jp/", "contact_phone": "+81 80-2933-3296", "contact_email": null, "status": 1, "source_type": 1, "numberReviews": 0}, {"name": "Singai Cabin", "type": "hotel", "image": "https://dynamic-media-cdn.tripadvisor.com/media/partner/bookingcom/photo-o/29/31/a4/13/caption.jpg?w=1000&s=1", "address": "2-9-1 Kubo, Onomichi 722-0045 Qu\u00e2\u0323n Hiroshima", "lat": 34.411823, "lng": 133.20547, "ref_id": 18816249, "rating": -1, "num_reviews": 0, "website": null, "contact_phone": null, "contact_email": null, "status": 1, "source_type": 1, "numberReviews": 0}, {"name": "Guest House Onomichi Popo", "type": "hotel", "image": null, "address": "877-1 Mukaihigashi-cho, Onomichi 722-0062 Qu\u00e2\u0323n Hiroshima", "lat": 34.40663, "lng": 133.2108, "ref_id": 20814052, "rating": -1, "num_reviews": 0, "website": "https://onomichipawpaw.com/", "contact_phone": "+81 90-3744-2679", "contact_email": null, "status": 1, "source_type": 1, "numberReviews": 0}, {"name": "Keiko House", "type": "hotel", "image": null, "address": "536-1 Nochi Saizakicho, Mihara 729-2252 Qu\u00e2\u0323n Hiroshima", "lat": 34.341595, "lng": 133.05069, "ref_id": 2062364, "rating": -1, "num_reviews": 0, "website": null, "contact_phone": "+81 848-69-1240", "contact_email": "", "status": 1, "source_type": 1, "numberReviews": 0}, {"name": "Mihara City Sagi Seminar Center", "type": "hotel", "image": null, "address": "555-1 Mukotanoura Sagiuracho, Mihara 723-0022 Qu\u00e2\u0323n Hiroshima", "lat": 34.331314, "lng": 133.10127, "ref_id": 18919547, "rating": -1, "num_reviews": 0, "website": "https://www.city.mihara.hiroshima.jp/site/kyouiku/ssc.html", "contact_phone": "+81 848-60-7020", "contact_email": null, "status": 1, "source_type": 1, "numberReviews": 0}, {"name": "Hakuryuko Sports Chanter", "type": "hotel", "image": null, "address": "1211-1 Daiwacho Waki, Mihara 729-1321 Qu\u00e2\u0323n Hiroshima", "lat": 34.50537, "lng": 132.92027, "ref_id": 13221658, "rating": -1, "num_reviews": 0, "website": null, "contact_phone": "+81 847-34-1689", "contact_email": null, "status": 1, "source_type": 1, "numberReviews": 0}, {"name": "Histrical Tea Celemony House, Cycling", "type": "hotel", "image": null, "address": "19-12 Higashitsuchidocho, Onomichi 722-0033 Qu\u00e2\u0323n Hiroshima", "lat": 34.410324, "lng": 133.20029, "ref_id": 17674094, "rating": -1, "num_reviews": 0, "website": null, "contact_phone": null, "contact_email": null, "status": 1, "source_type": 1, "numberReviews": 0}, {"name": "Shinwa Onomichi Flats", "type": "hotel", "image": "https://dynamic-media-cdn.tripadvisor.com/media/partner/bookingcom/photo-o/22/a4/b7/b9/caption.jpg?w=1000&s=1", "address": "1-6-29 Kuriharahigashi, Onomichi 722-0025 Qu\u00e2\u0323n Hiroshima", "lat": 34.413223, "lng": 133.19243, "ref_id": 18218560, "rating": -1, "num_reviews": 0, "website": null, "contact_phone": "+81 848-29-5577", "contact_email": null, "status": 1, "source_type": 1, "numberReviews": 0}, {"name": "Onomichi Guest House Namiuchigiwa", "type": "hotel", "image": "https://dynamic-media-cdn.tripadvisor.com/media/photo-o/1b/33/68/5b/caption.jpg?w=1000&s=1", "address": "10-7 Ozakihommachi, Onomichi 722-0054 Qu\u00e2\u0323n Hiroshima", "lat": 34.410923, "lng": 133.21089, "ref_id": 17689986, "rating": -1, "num_reviews": 0, "website": "http://namiuchigiwa.jp", "contact_phone": "+81 80-9716-9297", "contact_email": "info@namiuchigiwa.jp", "status": 1, "source_type": 1, "numberReviews": 0}, {"name": "Kintoki Ryokan", "type": "hotel", "image": null, "address": "2-15-6 Kubo, Onomichi 722-0045 Qu\u00e2\u0323n Hiroshima", "lat": 34.411427, "lng": 133.20639, "ref_id": 13391558, "rating": -1, "num_reviews": 0, "website": null, "contact_phone": "+81 848-37-2010", "contact_email": null, "status": 1, "source_type": 1, "numberReviews": 0}, {"name": "Onomichi Marine Youth Center", "type": "hotel", "image": null, "address": "3035-3 Mukaishimacho Tachibana, Onomichi 722-0071 Qu\u00e2\u0323n Hiroshima", "lat": 34.362507, "lng": 133.21236, "ref_id": 20857718, "rating": -1, "num_reviews": 0, "website": "", "contact_phone": "+81 848-44-6707", "contact_email": null, "status": 1, "source_type": 1, "numberReviews": 0}, {"name": "Setoda Sunset Beach Campsite", "type": "hotel", "image": null, "address": "1506-15 Tarumi, Setodacho, Onomichi Qu\u00e2\u0323n Hiroshima", "lat": 34.280563, "lng": 133.07367, "ref_id": 20697508, "rating": -1, "num_reviews": 0, "website": null, "contact_phone": null, "contact_email": null, "status": 1, "source_type": 1, "numberReviews": 0}, {"name": "Bingo Sports Park Auto Campsite", "type": "hotel", "image": null, "address": "997 Kuriharacho, Onomichi 722-0022 Qu\u00e2\u0323n Hiroshima", "lat": 34.43316, "lng": 133.17741, "ref_id": 13221595, "rating": -1, "num_reviews": 0, "website": "http://www.bingo-sportspark.com/guide.html", "contact_phone": "+81 848-48-0394", "contact_email": null, "status": 1, "source_type": 1, "numberReviews": 0}, {"name": "Onomichi Guest House Irohaso", "type": "hotel", "image": null, "address": "13-18 Sangenyacho, Onomichi 722-0031 Qu\u00e2\u0323n Hiroshima", "lat": 34.40696, "lng": 133.19221, "ref_id": 21503178, "rating": -1, "num_reviews": 0, "website": "http://irohasou.com/", "contact_phone": "+81 90-4270-9874", "contact_email": "info@irohasou.com", "status": 1, "source_type": 1, "numberReviews": 0}, {"name": "Glampdome Setouchi Shimanami", "type": "hotel", "image": "https://dynamic-media-cdn.tripadvisor.com/media/photo-o/2b/6a/2a/89/glampdome-setouchi-shimanami.jpg?w=1000&s=1", "address": "1491-5 Setodacho Miyabara, Onomichi 722-2402 Qu\u00e2\u0323n Hiroshima", "lat": 34.268406, "lng": 133.11308, "ref_id": 27148194, "rating": -1, "num_reviews": 0, "website": "https://rest-glamping.com/gdss/room", "contact_phone": null, "contact_email": null, "status": 1, "source_type": 1, "numberReviews": 0}, {"name": "Takemuraya Bekkan", "type": "hotel", "image": null, "address": "1650 Minari Minogo-cho minari, Onomichi 722-0215 Qu\u00e2\u0323n Hiroshima", "lat": 34.44923, "lng": 133.19809, "ref_id": 1075701, "rating": -1, "num_reviews": 0, "website": "", "contact_phone": "+81 848-48-1111", "contact_email": "", "status": 1, "source_type": 1, "numberReviews": 0}, {"name": "Onomichi Port Plaza Hotel", "type": "hotel", "image": null, "address": "5-3 Tenma-cho, Onomichi 722-0038 Qu\u00e2\u0323n Hiroshima", "lat": 34.404613, "lng": 133.18979, "ref_id": 1075697, "rating": -1, "num_reviews": 0, "website": "", "contact_phone": "+81 848-25-3161", "contact_email": "", "status": 1, "source_type": 1, "numberReviews": 0}, {"name": "Hotel Okajima", "type": "hotel", "image": null, "address": "843-4 Mukaishima-cho, Onomichi 722-0073 Qu\u00e2\u0323n Hiroshima", "lat": 34.40191, "lng": 133.19678, "ref_id": 1075694, "rating": -1, "num_reviews": 0, "website": "", "contact_phone": "+81 848-44-0498", "contact_email": "", "status": 1, "source_type": 1, "numberReviews": 0}, {"name": "Matsumoto Ryokan", "type": "hotel", "image": null, "address": "901-4 Mukai Higashicho, Onomichi 722-0062 Qu\u00e2\u0323n Hiroshima", "lat": 34.406837, "lng": 133.20825, "ref_id": 13391566, "rating": -1, "num_reviews": 0, "website": null, "contact_phone": "+81 848-44-2705", "contact_email": null, "status": 1, "source_type": 1, "numberReviews": 0}, {"name": "Onomichi Hostel Yutori", "type": "hotel", "image": null, "address": "4-5 Temmancho, Onomichi 722-0038 Qu\u00e2\u0323n Hiroshima", "lat": 34.40423, "lng": 133.18918, "ref_id": 21380418, "rating": -1, "num_reviews": 0, "website": null, "contact_phone": null, "contact_email": null, "status": 1, "source_type": 1, "numberReviews": 0}, {"name": "Taishoya Ryokan", "type": "hotel", "image": null, "address": "434-5 Innoshima Nakashocho, Yamazaki-ku, Onomichi 722-2211 Qu\u00e2\u0323n Hiroshima", "lat": 34.32324, "lng": 133.17082, "ref_id": 13391644, "rating": -1, "num_reviews": 0, "website": null, "contact_phone": "+81 845-24-0037", "contact_email": null, "status": 1, "source_type": 1, "numberReviews": 0}, {"name": "Onomichi Mochilero", "type": "hotel", "image": null, "address": "18-3 Sangenyacho, Onomichi 722-0031 Qu\u00e2\u0323n Hiroshima", "lat": 34.41026, "lng": 133.19614, "ref_id": 27097709, "rating": -1, "num_reviews": 0, "website": null, "contact_phone": "+81 70-1505-6033", "contact_email": null, "status": 1, "source_type": 1, "numberReviews": 0}, {"name": "Beach Villa Tachibana", "type": "hotel", "image": null, "address": "2729-3 Mukaishimacho Tachibana, Onomichi 722-0071 Qu\u00e2\u0323n Hiroshima", "lat": 34.361923, "lng": 133.20818, "ref_id": 26851806, "rating": -1, "num_reviews": 0, "website": null, "contact_phone": "+81 84-932-6789", "contact_email": "maruei932@gmail.com", "status": 1, "source_type": 1, "numberReviews": 0}, {"name": "Onomichi Shimanami Guesthouse", "type": "hotel", "image": null, "address": "20129-1 Tachibana, Mukaishimacho, Onomichi 722-0071 Qu\u00e2\u0323n Hiroshima", "lat": 34.363335, "lng": 133.2021, "ref_id": 14155605, "rating": -1, "num_reviews": 0, "website": "http://shimanami-gh.com/", "contact_phone": "+81 848-36-5336", "contact_email": null, "status": 1, "source_type": 1, "numberReviews": 0}, {"name": "Shimanami Setoda Camp Ground", "type": "hotel", "image": null, "address": "1509-9 Setodacho Miyahara, Onomichi 722-2402 Qu\u00e2\u0323n Hiroshima", "lat": 34.280205, "lng": 133.07243, "ref_id": 20881807, "rating": -1, "num_reviews": 0, "website": "https://www.uminet.jp/play/detail.php?id=170", "contact_phone": "+81 845-28-1688", "contact_email": null, "status": 1, "source_type": 1, "numberReviews": 0}, {"name": "Ginsui Ryokan", "type": "hotel", "image": null, "address": "2218-4 Kojinku, Innoshima Habucho, Onomichi 722-2323 Qu\u00e2\u0323n Hiroshima", "lat": 34.284683, "lng": 133.17873, "ref_id": 13287430, "rating": -1, "num_reviews": 0, "website": null, "contact_phone": "+81 845-22-0318", "contact_email": null, "status": 1, "source_type": 1, "numberReviews": 0}, {"name": "Daishin Ryokan", "type": "hotel", "image": null, "address": "5069 Takasucho, Onomichi 729-0141 Qu\u00e2\u0323n Hiroshima", "lat": 34.43365, "lng": 133.22787, "ref_id": 13391033, "rating": -1, "num_reviews": 0, "website": null, "contact_phone": "+81 848-46-0899", "contact_email": null, "status": 1, "source_type": 1, "numberReviews": 0}, {"name": "Aoyama Mansion", "type": "hotel", "image": null, "address": "1-1-14 Nagae, Onomichi 722-0046 Qu\u00e2\u0323n Hiroshima", "lat": 34.41154, "lng": 133.20184, "ref_id": 20283813, "rating": -1, "num_reviews": 0, "website": null, "contact_phone": "+81 848-29-5577", "contact_email": null, "status": 1, "source_type": 1, "numberReviews": 0}, {"name": "Tsubakian", "type": "hotel", "image": "https://dynamic-media-cdn.tripadvisor.com/media/partner/bookingcom/photo-o/2b/69/ff/0d/caption.jpg?w=1000&s=1", "address": "1-2 Gofukumachi, Hagi 758-0072 Yamaguchi Prefecture", "lat": 34.412575, "lng": 131.39328, "ref_id": 26825204, "rating": -1, "num_reviews": 0, "website": "https://haginohi.com/html/tsubakian/reserve/", "contact_phone": "+81 80-1638-4450", "contact_email": null, "status": 1, "source_type": 1, "numberReviews": 0}, {"name": "women only ulala guesthouse", "type": "hotel", "image": "https://dynamic-media-cdn.tripadvisor.com/media/partner/bookingcom/photo-o/2b/50/c7/77/caption.jpg?w=1000&s=1", "address": "2317 Chinto, Hagi 758-0011 Yamaguchi Prefecture", "lat": 34.41415, "lng": 131.42235, "ref_id": 27108186, "rating": -1, "num_reviews": 0, "website": "https://ulala-guesthouse.com/ulala-guesthouse/%e3%81%8a%e9%83%a8%e5%b1%8b%e7%b4%b9%e4%bb%8b/", "contact_phone": "+81 90-7773-9092", "contact_email": null, "status": 1, "source_type": 1, "numberReviews": 0}, {"name": "Kanmuriyama General Park Auto Campsite", "type": "hotel", "image": null, "address": "6288 Murozumimura, Hikari 743-0001 Yamaguchi Prefecture", "lat": 33.950897, "lng": 131.95946, "ref_id": 20835092, "rating": -1, "num_reviews": 0, "website": "http://www.kanmuriyama-park.com/park/autocamp/", "contact_phone": "+81 833-74-3330", "contact_email": null, "status": 1, "source_type": 1, "numberReviews": 0}, {"name": "Kinoshita Ryokan", "type": "hotel", "image": null, "address": "598 Ushima, Hikari 743-0003 Yamaguchi Prefecture", "lat": 33.858482, "lng": 132.00781, "ref_id": 13395122, "rating": -1, "num_reviews": 0, "website": null, "contact_phone": "+81 833-79-3281", "contact_email": null, "status": 1, "source_type": 1, "numberReviews": 0}, {"name": "Suo no Mori Lodge", "type": "hotel", "image": null, "address": "1705-1 Tateno, Hikari 743-0062 Yamaguchi Prefecture", "lat": 34.00577, "lng": 131.96552, "ref_id": 13229823, "rating": -1, "num_reviews": 0, "website": "", "contact_phone": "+81 833-77-5789", "contact_email": null, "status": 1, "source_type": 1, "numberReviews": 0}, {"name": "Island Academy", "type": "hotel", "image": null, "address": "5-3-23 Murozumi, Hikari 743-0007 Yamaguchi Prefecture", "lat": 33.926018, "lng": 131.97119, "ref_id": 17457878, "rating": -1, "num_reviews": 0, "website": "http://island-ac.jp/", "contact_phone": "+81 833-75-0303", "contact_email": "islandacademy@wing.ocn.ne.jp", "status": 1, "source_type": 1, "numberReviews": 0}, {"name": "Ryokan Ayumiso", "type": "hotel", "image": null, "address": "5-12-15 Shimata, Hikari 743-0063 Yamaguchi Prefecture", "lat": 33.978287, "lng": 131.93796, "ref_id": 13310461, "rating": -1, "num_reviews": 0, "website": null, "contact_phone": "+81 833-71-1141", "contact_email": null, "status": 1, "source_type": 1, "numberReviews": 0}, {"name": "Matsubatei Ryokan", "type": "hotel", "image": null, "address": "2-1-26 Shimata, Hikari 743-0063 Yamaguchi Prefecture", "lat": 33.973316, "lng": 131.93503, "ref_id": 13229610, "rating": -1, "num_reviews": 0, "website": null, "contact_phone": "+81 833-48-7115", "contact_email": null, "status": 1, "source_type": 1, "numberReviews": 0}, {"name": "Hikariso", "type": "hotel", "image": null, "address": "1-6-3 Asae, Hikari 743-0021 Yamaguchi Prefecture", "lat": 33.971874, "lng": 131.92859, "ref_id": 13229473, "rating": -1, "num_reviews": 0, "website": null, "contact_phone": "+81 833-71-0331", "contact_email": null, "status": 1, "source_type": 1, "numberReviews": 0}, {"name": "Hikari Station Avenue", "type": "hotel", "image": null, "address": "3-4-3 Nijigahama, Hikari 743-0022 Yamaguchi Prefecture", "lat": 33.973316, "lng": 131.91624, "ref_id": 13229479, "rating": -1, "num_reviews": 0, "website": null, "contact_phone": "+81 833-74-0888", "contact_email": null, "status": 1, "source_type": 1, "numberReviews": 0}, {"name": "Kanakyu", "type": "hotel", "image": null, "address": "5-20-10 Murozumi, Hikari 743-0007 Yamaguchi Prefecture", "lat": 33.928497, "lng": 131.96938, "ref_id": 1089546, "rating": -1, "num_reviews": 0, "website": "", "contact_phone": "+81 833-78-0330", "contact_email": "", "status": 1, "source_type": 1, "numberReviews": 0}, {"name": "Minshuku Hamamura", "type": "hotel", "image": null, "address": "3-41 Kogaisaku, Yanai 742-0032 Yamaguchi Prefecture", "lat": 33.96232, "lng": 132.09421, "ref_id": 13229626, "rating": -1, "num_reviews": 0, "website": null, "contact_phone": "+81 820-22-2056", "contact_email": null, "status": 1, "source_type": 1, "numberReviews": 0}, {"name": "Minatoya Ryokan", "type": "hotel", "image": null, "address": "134-21 Yanai Shirakata HIgashi, Yanai 742-0021 Yamaguchi Prefecture", "lat": 33.957607, "lng": 132.13336, "ref_id": 13229622, "rating": -1, "num_reviews": 0, "website": null, "contact_phone": "+81 820-22-0744", "contact_email": null, "status": 1, "source_type": 1, "numberReviews": 0}, {"name": "Kobayashi Ryokan", "type": "hotel", "image": null, "address": "4312 Tairagun Tsuruhajime, Yanai 742-0041 Yamaguchi Prefecture", "lat": 33.798134, "lng": 132.2025, "ref_id": 13229583, "rating": -1, "num_reviews": 0, "website": null, "contact_phone": "+81 820-47-2811", "contact_email": null, "status": 1, "source_type": 1, "numberReviews": 0}, {"name": "Hotsukokuya Ryokan", "type": "hotel", "image": null, "address": "1843 Mishima Utsu, Hagi 758-0701 Yamaguchi Prefecture", "lat": 34.782772, "lng": 131.14384, "ref_id": 13229522, "rating": -1, "num_reviews": 0, "website": null, "contact_phone": "+81 838-23-2233", "contact_email": null, "status": 1, "source_type": 1, "numberReviews": 0}, {"name": "Minshuku Furusato", "type": "hotel", "image": "https://dynamic-media-cdn.tripadvisor.com/media/photo-o/12/66/3e/a4/caption.jpg?w=1000&s=1", "address": "260 Hijiwara, Hagi 758-0025 Yamaguchi Prefecture", "lat": 34.410732, "lng": 131.40826, "ref_id": 1089536, "rating": -1, "num_reviews": 0, "website": null, "contact_phone": "+81 838-22-6645", "contact_email": "", "status": 1, "source_type": 1, "numberReviews": 0}, {"name": "Hagi Okan Natsukigen Exchange Facility", "type": "hotel", "image": null, "address": "14-1 Sasanami, Hagi 753-0101 Yamaguchi Prefecture", "lat": 34.238388, "lng": 131.46089, "ref_id": 13229436, "rating": -1, "num_reviews": 0, "website": null, "contact_phone": "+81 838-56-0101", "contact_email": null, "status": 1, "source_type": 1, "numberReviews": 0}, {"name": "Minshuku Fujiwara", "type": "hotel", "image": null, "address": "69-8 Karahimachi, Hagi 758-0044 Yamaguchi Prefecture", "lat": 34.409683, "lng": 131.40169, "ref_id": 13203852, "rating": -1, "num_reviews": 0, "website": null, "contact_phone": "+81 838-22-1618", "contact_email": null, "status": 1, "source_type": 1, "numberReviews": 0}, {"name": "Ichimaru Ryokan", "type": "hotel", "image": null, "address": "50 Tarjacho, Hagi 758-0054 Yamaguchi Prefecture", "lat": 34.41554, "lng": 131.39587, "ref_id": 13229513, "rating": -1, "num_reviews": 0, "website": null, "contact_phone": "+81 838-22-0996", "contact_email": null, "status": 1, "source_type": 1, "numberReviews": 0}, {"name": "Susawan Ecology Campsite", "type": "hotel", "image": null, "address": "787 Susa, Hagi 759-3411 Yamaguchi Prefecture", "lat": 34.621857, "lng": 131.58125, "ref_id": 3342214, "rating": -1, "num_reviews": 0, "website": "http://www.haginet.ne.jp/users/ecocam/", "contact_phone": "+81 8387-6-2727", "contact_email": null, "status": 1, "source_type": 1, "numberReviews": 0}, {"name": "Kogetsu Ryokan", "type": "hotel", "image": null, "address": "4980-26 Susa Mizuumi, Hagi 759-3411 Yamaguchi Prefecture", "lat": 34.624447, "lng": 131.60735, "ref_id": 13229588, "rating": -1, "num_reviews": 0, "website": "http://kougetu.net/", "contact_phone": "+81 8387-6-2011", "contact_email": null, "status": 1, "source_type": 1, "numberReviews": 0}, {"name": "Tanakaya", "type": "hotel", "image": null, "address": "3083-2 Chinto, Hagi 758-0011 Yamaguchi Prefecture", "lat": 34.419704, "lng": 131.4064, "ref_id": 1880829, "rating": -1, "num_reviews": 0, "website": "", "contact_phone": "+81 838-22-7538", "contact_email": "", "status": 1, "source_type": 1, "numberReviews": 0}, {"name": "Komuroya Ryokan", "type": "hotel", "image": null, "address": "1101 Esaki, Hagi 759-3113 Yamaguchi Prefecture", "lat": 34.639214, "lng": 131.6533, "ref_id": 1880827, "rating": -1, "num_reviews": 0, "website": "", "contact_phone": "+81 8387-2-0041", "contact_email": "", "status": 1, "source_type": 1, "numberReviews": 0}, {"name": "Tanagawa campsite", "type": "hotel", "image": null, "address": "173-13-1 Shimoda, Hagi Yamaguchi Prefecture", "lat": 34.653206, "lng": 131.66206, "ref_id": 20699131, "rating": -1, "num_reviews": 0, "website": "http://www.yutoripark-tamagawa.com/?page_id=34", "contact_phone": "+81 8387-2-1150", "contact_email": null, "status": 1, "source_type": 1, "numberReviews": 0}, {"name": "Nakamura Business Hotel", "type": "hotel", "image": null, "address": "2990-7 Chinto Shinkawa Minamiku, Hagi 758-0011 Yamaguchi Prefecture", "lat": 34.417282, "lng": 131.40913, "ref_id": 13395148, "rating": -1, "num_reviews": 0, "website": null, "contact_phone": "+81 838-22-7303", "contact_email": null, "status": 1, "source_type": 1, "numberReviews": 0}, {"name": "Mt. Fusuma Nem Hill Campsite", "type": "hotel", "image": null, "address": "2698-1 Takasashimo, Hagi 758-0303 Yamaguchi Prefecture", "lat": 34.4502, "lng": 131.5997, "ref_id": 20787691, "rating": -1, "num_reviews": 0, "website": "http://www.city.hagi.lg.jp/site/furusato/h18922.html", "contact_phone": "+81 8388-6-0211", "contact_email": null, "status": 1, "source_type": 1, "numberReviews": 0}, {"name": "Hayashiya", "type": "hotel", "image": null, "address": "2660 Sasanami, Hagi 753-0101 Yamaguchi Prefecture", "lat": 34.28654, "lng": 131.4637, "ref_id": 13395114, "rating": -1, "num_reviews": 0, "website": "http://y-hayashiya.com/", "contact_phone": "+81 838-56-0007", "contact_email": null, "status": 1, "source_type": 1, "numberReviews": 0}, {"name": "Himawari Ryokan", "type": "hotel", "image": null, "address": "34-1 Mishima, Hagi 758-0701 Yamaguchi Prefecture", "lat": 34.76203, "lng": 131.1501, "ref_id": 13229484, "rating": -1, "num_reviews": 0, "website": null, "contact_phone": "+81 838-23-3315", "contact_email": null, "status": 1, "source_type": 1, "numberReviews": 0}, {"name": "Minshuku Nagaiso", "type": "hotel", "image": null, "address": "819-3 Susa, Hagi 759-3411 Yamaguchi Prefecture", "lat": 34.622932, "lng": 131.58432, "ref_id": 13395142, "rating": -1, "num_reviews": 0, "website": null, "contact_phone": "+81 8387-6-3010", "contact_email": null, "status": 1, "source_type": 1, "numberReviews": 0}, {"name": "Hagi Grand Hotel Tenku", "type": "hotel", "image": null, "address": "25 Furuhagimachi, Hagi 758-0026 Yamaguchi Prefecture", "lat": 34.41593, "lng": 131.4039, "ref_id": 21224487, "rating": -1, "num_reviews": 0, "website": null, "contact_phone": "+81 838-25-1211", "contact_email": null, "status": 1, "source_type": 1, "numberReviews": 0}, {"name": "Fairfield by Marriott Okayama Hiruzen Highland", "type": "hotel", "image": "https://dynamic-media-cdn.tripadvisor.com/media/photo-o/2b/03/da/a4/exterior.jpg?w=1000&s=1", "address": "1385-9 Hiruzen Kamitokuyama, Maniwa 717-0612 Okayama Prefecture", "lat": 35.27699, "lng": 133.6229, "ref_id": 25158511, "rating": 3, "num_reviews": 0, "website": "https://www.marriott.com/en-us/hotels/okjfi-fairfield-okayama-hiruzen-highland/overview/", "contact_phone": "+81 867-66-7550", "contact_email": null, "status": 1, "source_type": 1, "numberReviews": 1}, {"name": "Hongo Grand Hotel", "type": "hotel", "image": null, "address": "1426-1 Hongo-cho Hongo, Mihara 729-0412 Qu\u00e2\u0323n Hiroshima", "lat": 34.40964, "lng": 132.98567, "ref_id": 1132697, "rating": 3, "num_reviews": 0, "website": "", "contact_phone": "+81 848-86-4411", "contact_email": "", "status": 1, "source_type": 1, "numberReviews": 2}, {"name": "Doi Ryokan", "type": "hotel", "image": "https://dynamic-media-cdn.tripadvisor.com/media/photo-o/29/55/dc/51/6.jpg?w=1000&s=1", "address": "1893-3 Innoshima Habucho, Shiohama Kita-ku, Onomichi 722-2323 Qu\u00e2\u0323n Hiroshima", "lat": 34.286064, "lng": 133.17818, "ref_id": 13221636, "rating": 3, "num_reviews": 0, "website": null, "contact_phone": "+81 845-22-0333", "contact_email": null, "status": 1, "source_type": 1, "numberReviews": 1}, {"name": "Morokeya Ryokan", "type": "hotel", "image": "https://dynamic-media-cdn.tripadvisor.com/media/photo-o/14/11/4e/3b/photo0jpg.jpg?w=1000&s=1", "address": "104-1 Mitsugichokami, Onomichi 722-0341 Qu\u00e2\u0323n Hiroshima", "lat": 34.515697, "lng": 133.14656, "ref_id": 1113192, "rating": 3, "num_reviews": 0, "website": "", "contact_phone": "+81 848-76-0074", "contact_email": "", "status": 1, "source_type": 1, "numberReviews": 1}, {"name": "Sato Ryokan", "type": "hotel", "image": "https://dynamic-media-cdn.tripadvisor.com/media/photo-o/0c/c1/22/09/photo0jpg.jpg?w=1000&s=1", "address": "3-1 Nishigoshocho, Onomichi 722-0037 Qu\u00e2\u0323n Hiroshima", "lat": 34.403603, "lng": 133.19121, "ref_id": 1113199, "rating": 3, "num_reviews": 0, "website": "", "contact_phone": "+81 848-22-2879", "contact_email": "", "status": 1, "source_type": 1, "numberReviews": 2}, {"name": "Hiba Dogoyama Kogenso", "type": "hotel", "image": "https://dynamic-media-cdn.tripadvisor.com/media/photo-o/09/96/a0/de/caption.jpg?w=1000&s=1", "address": "152-10 Saijocho Misaka Dogoyama Kogen Kurokan Park, Shobara 729-5611 Qu\u00e2\u0323n Hiroshima", "lat": 35.05041, "lng": 133.18738, "ref_id": 8744403, "rating": 3, "num_reviews": 0, "website": "http://dogoyama.jp/", "contact_phone": "+81 824-84-2170", "contact_email": null, "status": 1, "source_type": 1, "numberReviews": 1}, {"name": "Gourmand Hotel", "type": "hotel", "image": "https://dynamic-media-cdn.tripadvisor.com/media/photo-o/27/30/f5/dc/caption.jpg?w=1000&s=1", "address": "2-1-28 Chuo, Takehara 725-0026 Qu\u00e2\u0323n Hiroshima", "lat": 34.339996, "lng": 132.90976, "ref_id": 13287444, "rating": 3, "num_reviews": 0, "website": null, "contact_phone": "+81 846-22-2363", "contact_email": null, "status": 1, "source_type": 1, "numberReviews": 1}, {"name": "Hiroshima Techno Plaza", "type": "hotel", "image": "https://dynamic-media-cdn.tripadvisor.com/media/photo-o/08/66/80/eb/caption.jpg?w=1000&s=1", "address": "3-13-26 Kagamiyama, Higashihiroshima 739-0046 Qu\u00e2\u0323n Hiroshima", "lat": 34.3961, "lng": 132.73586, "ref_id": 1089767, "rating": 3, "num_reviews": 0, "website": "", "contact_phone": "+81 82-420-0500", "contact_email": "", "status": 1, "source_type": 1, "numberReviews": 2}, {"name": "Kappo Ryokan Urashima", "type": "hotel", "image": "https://dynamic-media-cdn.tripadvisor.com/media/photo-o/12/eb/ba/d7/caption.jpg?w=1000&s=1", "address": "35 Nishiteramachi, Tsuyama 708-0045 Okayama Prefecture", "lat": 35.060062, "lng": 133.99309, "ref_id": 13075994, "rating": 3, "num_reviews": 0, "website": "http://primenet2010.biz/urashima/", "contact_phone": "+81 868-22-2387", "contact_email": null, "status": 1, "source_type": 1, "numberReviews": 2}, {"name": "Business Hotel Takahashi", "type": "hotel", "image": null, "address": "1943-5 Sakaemachi, Takahashi 716-0035 Okayama Prefecture", "lat": 34.789455, "lng": 133.61525, "ref_id": 2720127, "rating": 3, "num_reviews": 0, "website": "http://www10.plala.or.jp/bh-takahashi/", "contact_phone": "+81 866-22-6766", "contact_email": "", "status": 1, "source_type": 1, "numberReviews": 1}, {"name": "Midori Ryokan", "type": "hotel", "image": null, "address": "1337 Sakaemachi, Takahashi 716-0035 Okayama Prefecture", "lat": 34.789593, "lng": 133.6149, "ref_id": 13226202, "rating": 3, "num_reviews": 0, "website": null, "contact_phone": "+81 866-22-2537", "contact_email": null, "status": 1, "source_type": 1, "numberReviews": 1}, {"name": "Business Ryokan Bichuji", "type": "hotel", "image": null, "address": "98 Shoden, Niimi 718-0013 Okayama Prefecture", "lat": 34.966846, "lng": 133.46504, "ref_id": 1111855, "rating": 3, "num_reviews": 0, "website": "", "contact_phone": "+81 867-72-3731", "contact_email": "", "status": 1, "source_type": 1, "numberReviews": 1}, {"name": "Ryokan Tamaya", "type": "hotel", "image": "https://dynamic-media-cdn.tripadvisor.com/media/photo-s/02/bf/58/03/caption.jpg?w=1000&s=1", "address": "241-97 Hinasechohinase, Bizen 701-3204 Okayama Prefecture", "lat": 34.73408, "lng": 134.27107, "ref_id": 2695168, "rating": 3, "num_reviews": 0, "website": "http://www.h-tamaya.jp/index.html", "contact_phone": "+81 869-72-3456", "contact_email": "", "status": 1, "source_type": 1, "numberReviews": 1}, {"name": "Kodai Taiken no Sato Mahoroba", "type": "hotel", "image": "https://dynamic-media-cdn.tripadvisor.com/media/photo-o/02/be/c5/d6/caption.jpg?w=1000&s=1", "address": "Hinasecho Hinase, Bizen 701-3204 Okayama Prefecture", "lat": 34.7323, "lng": 134.26707, "ref_id": 1882867, "rating": 3, "num_reviews": 0, "website": "http://www.ikoi-okayama.com/mahroba/", "contact_phone": "+81 90-4698-1237", "contact_email": "", "status": 1, "source_type": 1, "numberReviews": 1}, {"name": "Araki Ryokan", "type": "hotel", "image": null, "address": "1280 Nishikatakami, Bizen 705-0021 Okayama Prefecture", "lat": 34.743546, "lng": 134.18372, "ref_id": 1110303, "rating": 3, "num_reviews": 0, "website": "", "contact_phone": "+81 869-64-2004", "contact_email": "", "status": 1, "source_type": 1, "numberReviews": 1}, {"name": "Tosaya Ryokan", "type": "hotel", "image": null, "address": "228-1 Konkochootani, Asakuchi 719-0111 Okayama Prefecture", "lat": 34.540268, "lng": 133.62311, "ref_id": 1880834, "rating": 3, "num_reviews": 0, "website": "http://www.tosaya-r.jp/", "contact_phone": "+81 865-42-2157", "contact_email": "", "status": 1, "source_type": 1, "numberReviews": 1}, {"name": "Business Hotel Nishina", "type": "hotel", "image": "https://dynamic-media-cdn.tripadvisor.com/media/photo-s/02/bf/60/0f/caption.jpg?w=1000&s=1", "address": "6070-1 Satomi, Satosho-cho, Asakuchi-gun 719-0301 Okayama Prefecture", "lat": 34.528793, "lng": 133.56969, "ref_id": 1880836, "rating": 3, "num_reviews": 0, "website": "http://www.kcv.ne.jp/~bhnisina/", "contact_phone": "+81 865-64-7247", "contact_email": "", "status": 1, "source_type": 1, "numberReviews": 3}, {"name": "Nadaya Ryokan", "type": "hotel", "image": null, "address": "291 Makabe, Mimasaka 707-0113 Okayama Prefecture", "lat": 35.07786, "lng": 134.19066, "ref_id": 1111796, "rating": 3, "num_reviews": 0, "website": "", "contact_phone": "+81 868-77-0020", "contact_email": "", "status": 1, "source_type": 1, "numberReviews": 2}, {"name": "Minshuku Chigusa", "type": "hotel", "image": "https://dynamic-media-cdn.tripadvisor.com/media/photo-s/02/bf/2f/49/caption.jpg?w=1000&s=1", "address": "1496-7 Shimotsui, Kurashiki 711-0927 Okayama Prefecture", "lat": 34.44893, "lng": 133.78665, "ref_id": 1864131, "rating": 3, "num_reviews": 0, "website": null, "contact_phone": "+81 86-472-5880", "contact_email": "", "status": 1, "source_type": 1, "numberReviews": 1}, {"name": "Business Hotel New Futaba", "type": "hotel", "image": "https://dynamic-media-cdn.tripadvisor.com/media/photo-o/0b/ed/31/8e/caption.jpg?w=1000&s=1", "address": "1-6-5 Ekimaecho, Okayama 700-0023 Okayama Prefecture", "lat": 34.666824, "lng": 133.92097, "ref_id": 1089144, "rating": 3, "num_reviews": 0, "website": "", "contact_phone": "+81 86-222-0308", "contact_email": "", "status": 1, "source_type": 1, "numberReviews": 6}, {"name": "Hotel Okayama", "type": "hotel", "image": "https://dynamic-media-cdn.tripadvisor.com/media/photo-s/02/bf/3d/af/caption.jpg?w=1000&s=1", "address": "3-23 Nishikimachi, Kita-ku, Okayama 700-0902 Okayama Prefecture", "lat": 34.663628, "lng": 133.9218, "ref_id": 1089158, "rating": 3, "num_reviews": 0, "website": "", "contact_phone": "+81 86-232-7070", "contact_email": "", "status": 1, "source_type": 1, "numberReviews": 2}, {"name": "Okayamaken Seinenkan", "type": "hotel", "image": "https://dynamic-media-cdn.tripadvisor.com/media/photo-o/09/98/68/93/caption.jpg?w=1000&s=1", "address": "1-4-1 Tsushimahigashi, Okayama 700-0081 Okayama Prefecture", "lat": 34.68755, "lng": 133.92738, "ref_id": 1089075, "rating": 3, "num_reviews": 0, "website": "", "contact_phone": "+81 86-254-7722", "contact_email": "", "status": 1, "source_type": 1, "numberReviews": 1}, {"name": "Masuno Honkan", "type": "hotel", "image": null, "address": "6-10 Masunocho, Okayama 704-8175 Okayama Prefecture", "lat": 34.65915, "lng": 133.9957, "ref_id": 1111903, "rating": 3, "num_reviews": 0, "website": "", "contact_phone": "+81 86-942-0606", "contact_email": "", "status": 1, "source_type": 1, "numberReviews": 1}, {"name": "Business Hotel Nakami", "type": "hotel", "image": null, "address": "137 Nishifurumatsu, Okayama 700-0927 Okayama Prefecture", "lat": 34.649128, "lng": 133.91171, "ref_id": 1082674, "rating": 3, "num_reviews": 0, "website": "", "contact_phone": "+81 86-223-9147", "contact_email": "", "status": 1, "source_type": 1, "numberReviews": 2}, {"name": "Business Ryokan Takezono", "type": "hotel", "image": "https://dynamic-media-cdn.tripadvisor.com/media/photo-o/02/bf/69/ef/caption.jpg?w=1000&s=1", "address": "607 Fukutomi, Wake-cho, Wake-gun 709-0442 Okayama Prefecture", "lat": 34.797543, "lng": 134.1519, "ref_id": 1880841, "rating": 3, "num_reviews": 0, "website": "", "contact_phone": "+81 869-92-0021", "contact_email": "", "status": 1, "source_type": 1, "numberReviews": 1}, {"name": "Sanso Yanahara", "type": "hotel", "image": "https://dynamic-media-cdn.tripadvisor.com/media/photo-o/0f/b1/77/f0/caption.jpg?w=1000&s=1", "address": "728-10 Yanahara, Misaki-cho, Kume-gun 708-1527 Okayama Prefecture", "lat": 34.963093, "lng": 134.05667, "ref_id": 8700342, "rating": 3, "num_reviews": 0, "website": "http://ww2.tiki.ne.jp/~yanahara/kannai.htm", "contact_phone": "+81 868-62-0181", "contact_email": null, "status": 1, "source_type": 1, "numberReviews": 2}, {"name": "Miyasumi Park Minwamura", "type": "hotel", "image": "https://dynamic-media-cdn.tripadvisor.com/media/photo-o/1c/ce/b5/44/caption.jpg?w=1000&s=1", "address": "400-11 Nishigawa Kami, Misaki-cho, Kume-gun 709-3406 Okayama Prefecture", "lat": 34.972263, "lng": 133.82306, "ref_id": 16956039, "rating": 3, "num_reviews": 0, "website": null, "contact_phone": "+81 867-27-2039", "contact_email": null, "status": 1, "source_type": 1, "numberReviews": 1}, {"name": "Ark Hotel", "type": "hotel", "image": null, "address": "1-73 Higashihonmachi, Matsue 690-0842 Shimane Prefecture", "lat": 35.46956, "lng": 133.05647, "ref_id": 1107071, "rating": 3, "num_reviews": 0, "website": "", "contact_phone": "+81 852-26-7880", "contact_email": "", "status": 1, "source_type": 1, "numberReviews": 3}, {"name": "Pension Tobita", "type": "hotel", "image": "https://dynamic-media-cdn.tripadvisor.com/media/photo-o/05/ce/f4/b0/pension-tobita.jpg?w=1000&s=1", "address": "924-4 Hamasada-cho, Matsue 690-0855 Shimane Prefecture", "lat": 35.47287, "lng": 133.0273, "ref_id": 1087305, "rating": 3, "num_reviews": 0, "website": "", "contact_phone": "+81 852-36-6933", "contact_email": "", "status": 1, "source_type": 1, "numberReviews": 1}, {"name": "Business Hotel Kageyama Inn", "type": "hotel", "image": null, "address": "19 Tenjinmachi, Matsue 690-0064 Shimane Prefecture", "lat": 35.46368, "lng": 133.05591, "ref_id": 1087181, "rating": 3, "num_reviews": 0, "website": "", "contact_phone": "+81 852-21-4849", "contact_email": "", "status": 1, "source_type": 1, "numberReviews": 1}, {"name": "LUXe", "type": "hotel", "image": "https://dynamic-media-cdn.tripadvisor.com/media/partner/bookingcom/photo-o/29/55/67/60/caption.jpg?w=1000&s=1", "address": "833-1 Saijocho Shimominaga, Higashihiroshima 739-0023 Qu\u00e2\u0323n Hiroshima", "lat": 34.393734, "lng": 132.76949, "ref_id": 20383909, "rating": -1, "num_reviews": 0, "website": null, "contact_phone": null, "contact_email": null, "status": 1, "source_type": 1, "numberReviews": 0}, {"name": "Hotel Joyce", "type": "hotel", "image": "https://dynamic-media-cdn.tripadvisor.com/media/partner/bookingcom/photo-o/2a/b2/ac/fc/caption.jpg?w=1000&s=1", "address": "2990-1 Shimominaga, Saijo-cho, Higashihiroshima 739-0023 Qu\u00e2\u0323n Hiroshima", "lat": 34.39638, "lng": 132.76367, "ref_id": 20383769, "rating": -1, "num_reviews": 0, "website": null, "contact_phone": "+91 44 2561 2566", "contact_email": null, "status": 1, "source_type": 1, "numberReviews": 0}, {"name": "HOTEL R9 The Yard Tsuyama", "type": "hotel", "image": "https://dynamic-media-cdn.tripadvisor.com/media/partner/bookingcom/photo-o/29/32/26/93/caption.jpg?w=1000&s=1", "address": "1033-1 Innosho, Tsuyama 708-0014 Okayama Prefecture", "lat": 35.059845, "lng": 133.94841, "ref_id": 23970387, "rating": -1, "num_reviews": 0, "website": null, "contact_phone": "+81 868-35-3940", "contact_email": null, "status": 1, "source_type": 1, "numberReviews": 0}, {"name": "Aki Kokubun-ji Temple Lodging", "type": "hotel", "image": "https://dynamic-media-cdn.tripadvisor.com/media/partner/bookingcom/photo-o/29/2d/44/2c/caption.jpg?w=1000&s=1", "address": "2064 Yoshiyuki, Saijocho, Higashihiroshima 739-0002 Qu\u00e2\u0323n Hiroshima", "lat": 34.43414, "lng": 132.74878, "ref_id": 17559003, "rating": -1, "num_reviews": 0, "website": null, "contact_phone": "+81 82-430-7763", "contact_email": null, "status": 1, "source_type": 1, "numberReviews": 0}, {"name": "Fairfield By Marriott Okayama Tsuyama", "type": "hotel", "image": "https://dynamic-media-cdn.tripadvisor.com/media/photo-o/2b/03/e8/37/exterior.jpg?w=1000&s=1", "address": "647-3 Miyao, Tsuyama 709-4613 Okayama Prefecture", "lat": 35.05583, "lng": 133.92397, "ref_id": 25365551, "rating": -1, "num_reviews": 0, "website": "", "contact_phone": "+81 868-20-1015", "contact_email": null, "status": 1, "source_type": 1, "numberReviews": 0}, {"name": "Kanai Ryokan", "type": "hotel", "image": null, "address": "3611 Akitsucho Mitsu, Higashihiroshima 739-2402 Qu\u00e2\u0323n Hiroshima", "lat": 34.32046, "lng": 132.81909, "ref_id": 13391052, "rating": -1, "num_reviews": 0, "website": null, "contact_phone": "+81 846-45-0063", "contact_email": null, "status": 1, "source_type": 1, "numberReviews": 0}, {"name": "Yakiniku Minshuku Manpuku", "type": "hotel", "image": null, "address": "1381-3 Nakagouchi, Kouchicho, Higashihiroshima 739-2201 Qu\u00e2\u0323n Hiroshima", "lat": 34.42638, "lng": 132.7433, "ref_id": 14159413, "rating": -1, "num_reviews": 0, "website": null, "contact_phone": null, "contact_email": null, "status": 1, "source_type": 1, "numberReviews": 0}, {"name": "Rider House Tabinoyado375", "type": "hotel", "image": null, "address": "1170-2 Toyosakachonomi, Higashihiroshima 739-2311 Qu\u00e2\u0323n Hiroshima", "lat": 34.559998, "lng": 132.80142, "ref_id": 3627913, "rating": -1, "num_reviews": 0, "website": null, "contact_phone": "090-8066-766", "contact_email": null, "status": 1, "source_type": 1, "numberReviews": 0}, {"name": "Yoshidaya Ryokan", "type": "hotel", "image": null, "address": "4175-3 Akitsucho Mitsu, Higashihiroshima 739-2402 Qu\u00e2\u0323n Hiroshima", "lat": 34.31776, "lng": 132.81859, "ref_id": 13288052, "rating": -1, "num_reviews": 0, "website": null, "contact_phone": "+81 846-45-0034", "contact_email": null, "status": 1, "source_type": 1, "numberReviews": 0}, {"name": "Minshuku Mampuku", "type": "hotel", "image": null, "address": "1381-3 Kochicho Nakagochi, Higashihiroshima 739-2201 Qu\u00e2\u0323n Hiroshima", "lat": 34.472446, "lng": 132.88974, "ref_id": 17608651, "rating": -1, "num_reviews": 0, "website": "http://www.nihon-kankou.or.jp/hiroshima/detail/34212dd5682052077", "contact_phone": "+81 82-437-0128", "contact_email": null, "status": 1, "source_type": 1, "numberReviews": 0}, {"name": "Minshuku Toyosaka", "type": "hotel", "image": null, "address": "3427 Kiyotake, Toyosakacho, Higashihiroshima 739-2313 Qu\u00e2\u0323n Hiroshima", "lat": 34.59092, "lng": 132.81172, "ref_id": 13287742, "rating": -1, "num_reviews": 0, "website": null, "contact_phone": "+81 82-432-4801", "contact_email": null, "status": 1, "source_type": 1, "numberReviews": 0}, {"name": "Saijou Grand Hotel", "type": "hotel", "image": null, "address": "730 Saijochoshimominaga, Higashihiroshima 739-0023 Qu\u00e2\u0323n Hiroshima", "lat": 34.386425, "lng": 132.77142, "ref_id": 1096887, "rating": -1, "num_reviews": 0, "website": null, "contact_phone": "+81 82-426-0721", "contact_email": "", "status": 1, "source_type": 1, "numberReviews": 0}, {"name": "Ikoinomori Park Campsite", "type": "hotel", "image": null, "address": "941-17 Saijochojiya, Higashihiroshima Qu\u00e2\u0323n Hiroshima", "lat": 34.446938, "lng": 132.73856, "ref_id": 20554546, "rating": -1, "num_reviews": 0, "website": null, "contact_phone": null, "contact_email": null, "status": 1, "source_type": 1, "numberReviews": 0}, {"name": "Saijo Guesthouse Hattan", "type": "hotel", "image": "https://dynamic-media-cdn.tripadvisor.com/media/partner/bookingcom/photo-o/1b/6e/80/6b/bed.jpg?w=1000&s=1", "address": "12-1 Saijonishi Hommachi, Higashihiroshima 739-0043 Qu\u00e2\u0323n Hiroshima", "lat": 34.42848, "lng": 132.73651, "ref_id": 20807360, "rating": -1, "num_reviews": 0, "website": "https://indoor-lodging-2065.business.site/", "contact_phone": "+81 82-437-5190", "contact_email": null, "status": 1, "source_type": 1, "numberReviews": 0}, {"name": "Toyoko Inn Higashi-hiroshima Ekimae", "type": "hotel", "image": null, "address": "2-2-31 Minaga Higashihiroshima city, Hiroshima, Higashihiroshima 739-0026 Qu\u00e2\u0323n Hiroshima", "lat": 34.38747, "lng": 132.75972, "ref_id": 26344909, "rating": -1, "num_reviews": 0, "website": "https://www.toyoko-inn.com/search/detail/00172/?lcl_id=ja", "contact_phone": "+81 82-426-2045", "contact_email": null, "status": 1, "source_type": 1, "numberReviews": 0}, {"name": "Kinoya Ryokan", "type": "hotel", "image": null, "address": "4215-15 Akitsucho Mitsu, Higashihiroshima 739-2402 Qu\u00e2\u0323n Hiroshima", "lat": 34.317116, "lng": 132.81827, "ref_id": 13222048, "rating": -1, "num_reviews": 0, "website": null, "contact_phone": "+81 846-45-1045", "contact_email": null, "status": 1, "source_type": 1, "numberReviews": 0}, {"name": "Inn-Sect", "type": "hotel", "image": "https://dynamic-media-cdn.tripadvisor.com/media/partner/bookingcom/photo-o/29/52/26/92/caption.jpg?w=1000&s=1", "address": "29 Nikaimachi, Tsuyama 708-0024 Okayama Prefecture", "lat": 35.05903, "lng": 134.00146, "ref_id": 20376909, "rating": -1, "num_reviews": 0, "website": "https://inn-sect.com/", "contact_phone": "+81 868-32-8421", "contact_email": null, "status": 1, "source_type": 1, "numberReviews": 0}, {"name": "Yagi Ryokan", "type": "hotel", "image": null, "address": "65-1 Konakabara, Kamocho, Tsuyama 709-3906 Okayama Prefecture", "lat": 35.178394, "lng": 134.05092, "ref_id": 13384756, "rating": -1, "num_reviews": 0, "website": null, "contact_phone": "+81 868-42-2872", "contact_email": null, "status": 1, "source_type": 1, "numberReviews": 0}, {"name": "Kuroki Campground Third Campsite", "type": "hotel", "image": null, "address": "646-9 Kamocho Kurogi, Tsuyama 709-3902 Okayama Prefecture", "lat": 35.23649, "lng": 134.0498, "ref_id": 13384727, "rating": -1, "num_reviews": 0, "website": "http://www.kurogicamp.com/annai/annai.html", "contact_phone": "+81 868-42-7615", "contact_email": null, "status": 1, "source_type": 1, "numberReviews": 0}, {"name": "\u7f8e\u90fd \u6d25\u5c71\u5eb5", "type": "hotel", "image": null, "address": "8-1 Nakanocho, Tsuyama 708-0834 Okayama Prefecture", "lat": 35.06223, "lng": 134.01344, "ref_id": 25193626, "rating": -1, "num_reviews": 0, "website": "http://www.bitotsuyama.com/", "contact_phone": "+81 868-31-0178", "contact_email": null, "status": 1, "source_type": 1, "numberReviews": 0}, {"name": "Sitorinosato Kume Lodge", "type": "hotel", "image": null, "address": "1507-1 Kamiyo, Tsuyama 709-4601 Okayama Prefecture", "lat": 35.039284, "lng": 133.91841, "ref_id": 11679964, "rating": -1, "num_reviews": 0, "website": "http://www.sitorinosato.jp/%E8%87%AA%E7%82%8A%E5%9E%8B%E5%AE%BF%E6%B3%8A%E6%96%BD%E8%A8%AD-%E4%B9%85%E7%B1%B3%E3%83%AD%E3%83%83%E3%82%B8/", "contact_phone": "+81 868-57-2143", "contact_email": null, "status": 1, "source_type": 1, "numberReviews": 0}, {"name": "Saraen", "type": "hotel", "image": null, "address": "557-1 Hirafuku, Tsuyama 708-0872 Okayama Prefecture", "lat": 35.048584, "lng": 133.9706, "ref_id": 8672088, "rating": -1, "num_reviews": 0, "website": null, "contact_phone": "+81 868-28-1641", "contact_email": null, "status": 1, "source_type": 1, "numberReviews": 0}, {"name": "Tsuyama Sports Lodge Yayoiso", "type": "hotel", "image": null, "address": "144 Katsube, Tsuyama 708-0804 Okayama Prefecture", "lat": 35.08531, "lng": 134.01848, "ref_id": 13229540, "rating": -1, "num_reviews": 0, "website": "https://www.facebook.com/%E6%B4%A5%E5%B1%B1%E3%82%B9%E3%83%9D%E3%83%BC%E3%83%84%E3%83%AD%E3%83%83%E3%82%B8%E5%BC%A5%E7%94%9F%E8%8D%98-902537193167128/timeline/", "contact_phone": "+81 868-24-3555", "contact_email": null, "status": 1, "source_type": 1, "numberReviews": 0}, {"name": "Tsuyama Onsen Ikoinoyado Shiramokuso", "type": "hotel", "image": null, "address": "107 InokuchI, Tsuyama 708-0885 Okayama Prefecture", "lat": 35.05321, "lng": 133.99077, "ref_id": 13229492, "rating": -1, "num_reviews": 0, "website": null, "contact_phone": "+81 868-22-1775", "contact_email": null, "status": 1, "source_type": 1, "numberReviews": 0}, {"name": "Komorebi no Mori", "type": "hotel", "image": null, "address": "286 Kuroki Kamocho, Tsuyama 709-3902 Okayama Prefecture", "lat": 35.213676, "lng": 134.04388, "ref_id": 20810765, "rating": -1, "num_reviews": 0, "website": "http://www.tvt.ne.jp/~komorebi/", "contact_phone": "+81 90-3372-0321", "contact_email": null, "status": 1, "source_type": 1, "numberReviews": 0}, {"name": "Janome Business Hotel", "type": "hotel", "image": null, "address": "12 Togawamachi, Tsuyama 708-0037 Okayama Prefecture", "lat": 35.059486, "lng": 133.99901, "ref_id": 13226013, "rating": -1, "num_reviews": 0, "website": null, "contact_phone": "+81 868-22-3489", "contact_email": null, "status": 1, "source_type": 1, "numberReviews": 0}, {"name": "Sengokuso", "type": "hotel", "image": null, "address": "1-16 Showamachi, Tsuyama 708-0886 Okayama Prefecture", "lat": 35.055717, "lng": 134.00066, "ref_id": 13229162, "rating": -1, "num_reviews": 0, "website": null, "contact_phone": "+81 868-23-5252", "contact_email": null, "status": 1, "source_type": 1, "numberReviews": 0}, {"name": "Keikokuso", "type": "hotel", "image": null, "address": "735-22 Kamocho Kurami, Tsuyama 709-3901 Okayama Prefecture", "lat": 35.25799, "lng": 134.04614, "ref_id": 1112172, "rating": -1, "num_reviews": 0, "website": "", "contact_phone": "+81 868-42-5360", "contact_email": "", "status": 1, "source_type": 1, "numberReviews": 0}, {"name": "Ryokan Fuminoya", "type": "hotel", "image": null, "address": "210-5 Kamigawara, Tsuyama 708-0002 Okayama Prefecture", "lat": 35.083057, "lng": 134.0027, "ref_id": 13225752, "rating": -1, "num_reviews": 0, "website": "http://www.oyado-fuminoya.com/", "contact_phone": "+81 868-23-8228", "contact_email": null, "status": 1, "source_type": 1, "numberReviews": 0}, {"name": "Daiyasu Ryokan", "type": "hotel", "image": null, "address": "1-43 Minamimachi, Tsuyama 708-0881 Okayama Prefecture", "lat": 35.056076, "lng": 134.00291, "ref_id": 13225715, "rating": -1, "num_reviews": 0, "website": null, "contact_phone": "+81 868-23-6573", "contact_email": null, "status": 1, "source_type": 1, "numberReviews": 0},