[{"name": "Krua Song Phi Nong", "type": "restaurant", "image": "https://dynamic-media-cdn.tripadvisor.com/media/photo-o/16/05/34/16/dsc-0712-largejpg.jpg?w=1000&s=1", "address": "197/1, Taweesinka Road Tha Taphao, Chumphon 86000 Thailand", "lat": 10.49731, "lng": 99.17437, "ref_id": 15698324, "rating": 3, "num_reviews": 0, "website": "https://www.facebook.com/pages/category/Deli/%E0%B8%84%E0%B8%A3%E0%B8%B1%E0%B8%A7%E0%B8%AA%E0%B8%AD%E0%B8%87%E0%B8%9E%E0%B8%B5%E0%B9%88%E0%B8%99%E0%B9%89%E0%B8%AD%E0%B8%87%E0%B8%8A%E0%B8%B8%E0%B8%A1%E0%B8%9E%E0%B8%A3-980137045439900/", "contact_phone": "+66 84 992 3246", "contact_email": null, "status": 1, "source_type": 1, "numberReviews": 1}, {"name": "RimRua Seafood", "type": "restaurant", "image": "https://dynamic-media-cdn.tripadvisor.com/media/photo-o/12/bf/1f/9f/caption.jpg?w=1000&s=1", "address": "99/1 Moo 6 Baantongmaha, Pak Khlong, Pathio 86210 Thailand", "lat": 10.85944, "lng": 99.42667, "ref_id": 14012185, "rating": -1, "num_reviews": 0, "website": "http://www.facebook.com/rimrua168", "contact_phone": "+66 83 655 5534", "contact_email": null, "status": 1, "source_type": 1, "numberReviews": 0}, {"name": "Khraw Kun Ying Chumphon", "type": "restaurant", "image": null, "address": "Krumluang Chumphon, Tha Taphao 86000 Thailand", "lat": 10.50087, "lng": 99.18123, "ref_id": 17607161, "rating": -1, "num_reviews": 0, "website": "http://www.facebook.com/kunying2019chumphon", "contact_phone": "+66 80 144 1411", "contact_email": "teedinranong@hotmail.com", "status": 1, "source_type": 1, "numberReviews": 0}, {"name": "Thang Ka Si", "type": "restaurant", "image": null, "address": "Bang Son Sub-district, Pathio 86160 Thailand", "lat": 10.67944, "lng": 99.314, "ref_id": 17558972, "rating": -1, "num_reviews": 0, "website": "https://www.facebook.com/%E0%B8%96%E0%B8%B1%E0%B8%87%E0%B8%81%E0%B8%B0%E0%B8%AA%E0%B8%B5-pubrestaurant-285392805416325/", "contact_phone": "+66 98 898 7999", "contact_email": null, "status": 1, "source_type": 1, "numberReviews": 0}, {"name": "Wanwaan Bakery", "type": "restaurant", "image": null, "address": "Tambon Chum Kho, Pathio 86160 Thailand", "lat": 10.725928, "lng": 99.38239, "ref_id": 17512039, "rating": -1, "num_reviews": 0, "website": "https://www.facebook.com/tooktakonnika/", "contact_phone": "+66 80 698 5431", "contact_email": null, "status": 1, "source_type": 1, "numberReviews": 0}, {"name": "Juichi", "type": "restaurant", "image": null, "address": "Krumluang Chumphon, Tha Taphao, Mueang Chumphon, Chumphon 86000 Thailand", "lat": 10.500614, "lng": 99.18161, "ref_id": 12703384, "rating": -1, "num_reviews": 0, "website": "https://www.facebook.com/%E0%B8%88%E0%B8%B9%E0%B8%AD%E0%B8%B4%E0%B8%88%E0%B8%B4-%E0%B8%AB%E0%B8%A1%E0%B8%B9%E0%B8%81%E0%B8%B0%E0%B8%97%E0%B8%B0-1684742588439346/", "contact_phone": "+66 81 308 4858", "contact_email": null, "status": 1, "source_type": 1, "numberReviews": 0}, {"name": "Manlika", "type": "restaurant", "image": null, "address": "108/5  (Fl. Lobby) Mix Hotel, Chumphon- Pak Nam Road, Bang Mahk Subdistrict, Mueang Chumphon District, Chumphon Thailand", "lat": null, "lng": null, "ref_id": 3712755, "rating": -1, "num_reviews": 0, "website": null, "contact_phone": "+66 77 502 291", "contact_email": null, "status": 1, "source_type": 1, "numberReviews": 0}, {"name": "Wang Phai", "type": "restaurant", "image": null, "address": "2/9    Chumphon Grand Palace Hotel(Fl.2) , Chumphon-Ranong Road, Wang Pai Subdistrict, Mueang Chumphon District, Chumphon Thailand", "lat": null, "lng": null, "ref_id": 3713994, "rating": -1, "num_reviews": 0, "website": null, "contact_phone": "0775748004", "contact_email": null, "status": 1, "source_type": 1, "numberReviews": 0}, {"name": "Boat Noodle 15 Baht", "type": "restaurant", "image": null, "address": "332 Moo 4, Lang Suan 86110 Thailand", "lat": 9.94651, "lng": 99.11319, "ref_id": 15029409, "rating": -1, "num_reviews": 0, "website": "https://www.facebook.com/nanlapat2534/", "contact_phone": "+66 62 221 6738", "contact_email": null, "status": 1, "source_type": 1, "numberReviews": 0}, {"name": "Kumsairee Restaurant", "type": "restaurant", "image": null, "address": "100/2 Moo 7, beachfront, inside Khum Sairi Resort, Kromluang Chumphon Rd., Had Sairi Sub-District, Mueang Chumphon District, Chumphon Thailand", "lat": null, "lng": null, "ref_id": 3712871, "rating": -1, "num_reviews": 0, "website": null, "contact_phone": "0775582445", "contact_email": null, "status": 1, "source_type": 1, "numberReviews": 0}, {"name": "Steak & MuYang Mafia", "type": "restaurant", "image": null, "address": "133, Krumluang Chumphon Road Tha Taphao, Chumphon 86000 Thailand", "lat": 10.500119, "lng": 99.183464, "ref_id": 13384160, "rating": -1, "num_reviews": 0, "website": "https://www.facebook.com/%E0%B8%AA%E0%B9%80%E0%B8%95%E0%B9%87%E0%B8%81%E0%B8%AB%E0%B8%A1%E0%B8%B9%E0%B8%A2%E0%B9%88%E0%B8%B2%E0%B8%87%E0%B8%A1%E0%B8%B2%E0%B9%80%E0%B8%9F%E0%B8%B5%E0%B8%A2-1526928610968092/", "contact_phone": "+66 88 440 6250", "contact_email": "kob_steak@hotmail.com", "status": 1, "source_type": 1, "numberReviews": 0}, {"name": "Jao Jun", "type": "restaurant", "image": null, "address": "Bang Luek, Chumphon 86000 Thailand", "lat": 10.521968, "lng": 99.17815, "ref_id": 12869932, "rating": -1, "num_reviews": 0, "website": null, "contact_phone": "+66 89 172 1349", "contact_email": null, "status": 1, "source_type": 1, "numberReviews": 0}, {"name": "Hot Pot Buffet Value", "type": "restaurant", "image": null, "address": "195  Carrefour Chumphon(Fl.1), Wang Pai Subdistrict, Mueang Chumphon District, Chumphon Thailand", "lat": 10.49892, "lng": 99.16121, "ref_id": 3714696, "rating": -1, "num_reviews": 0, "website": "http://www.hotpot.co.th", "contact_phone": "+66 77 658 903", "contact_email": null, "status": 1, "source_type": 1, "numberReviews": 0}, {"name": "Nana Beach Hotel Restaurant", "type": "restaurant", "image": null, "address": "10/2 Moo 8, Saphli Thailand", "lat": 10.607255, "lng": 99.24988, "ref_id": 24071848, "rating": -1, "num_reviews": 0, "website": null, "contact_phone": null, "contact_email": null, "status": 1, "source_type": 1, "numberReviews": 0}, {"name": "Sit-Nee De", "type": "restaurant", "image": null, "address": "74/3 Moo 4, Soi Porminathamka 24, Bang Mak Subdistrict, Chumphon 86000 Thailand", "lat": 10.431094, "lng": 99.17883, "ref_id": 20053335, "rating": -1, "num_reviews": 0, "website": "https://www.facebook.com/sitneedebangmark/?ref=page_internal", "contact_phone": "+66 81 535 5355", "contact_email": null, "status": 1, "source_type": 1, "numberReviews": 0}, {"name": "Jer Kan Rim Khong", "type": "restaurant", "image": null, "address": "39 Tambon Bang Mak, Chumphon 86000 Thailand", "lat": 10.47589, "lng": 99.20805, "ref_id": 19187647, "rating": -1, "num_reviews": 0, "website": "https://www.facebook.com/nestsiacafe/", "contact_phone": "+66 84 333 4833", "contact_email": null, "status": 1, "source_type": 1, "numberReviews": 0}, {"name": "Kanda Food Shop", "type": "restaurant", "image": "https://dynamic-media-cdn.tripadvisor.com/media/photo-o/12/41/42/9c/getlstd-property-photo.jpg?w=1000&s=1", "address": "282/12-13 Poraminmanka Road Tha Taphao, Chumphon 86000 Thailand", "lat": 10.491786, "lng": 99.182304, "ref_id": 13797991, "rating": -1, "num_reviews": 0, "website": "http://www.kandafoodshop.com", "contact_phone": "+66 77 511 707", "contact_email": "kandafoodshop@gmail.com", "status": 1, "source_type": 1, "numberReviews": 0}, {"name": "SHINGU RESTAURANT", "type": "restaurant", "image": null, "address": "Tha Taphao Subdistrict, Mueang District, Chumphon 23/6 Krom Luang Road., Chumphon Thailand", "lat": 10.500748, "lng": 99.18102, "ref_id": 25298018, "rating": -1, "num_reviews": 0, "website": null, "contact_phone": "+66 96 648 6989", "contact_email": null, "status": 1, "source_type": 1, "numberReviews": 0}, {"name": "The Seaside Tha Ruea Cafe&Bistro", "type": "restaurant", "image": "https://dynamic-media-cdn.tripadvisor.com/media/photo-o/2a/7e/ba/38/caption.jpg?w=1000&s=1", "address": "39 5, Hat Sai Ri, Mueang Chumphon district, Chumphon 86120 Thailand", "lat": 10.354994, "lng": 99.23065, "ref_id": 26697692, "rating": 5, "num_reviews": 0, "website": null, "contact_phone": "+66 87 543 5215", "contact_email": null, "status": 1, "source_type": 1, "numberReviews": 1}, {"name": "Nana Beach Restaurant", "type": "restaurant", "image": "https://dynamic-media-cdn.tripadvisor.com/media/photo-o/14/d8/67/0d/photo0jpg.jpg?w=1000&s=1", "address": "10/2 Moo 2, Saphli 86230 Thailand", "lat": 10.569432, "lng": 99.27459, "ref_id": 13359470, "rating": 3.5, "num_reviews": 0, "website": "https://www.facebook.com/Nanabeachchumphon/", "contact_phone": "+66 77 622 999", "contact_email": null, "status": 1, "source_type": 1, "numberReviews": 14}, {"name": "Seafood Wishes", "type": "restaurant", "image": "https://dynamic-media-cdn.tripadvisor.com/media/photo-o/15/e4/98/9b/photo1jpg.jpg?w=1000&s=1", "address": "3180 The Saphli, Saphli 86230 Thailand", "lat": 10.60246, "lng": 99.27231, "ref_id": 10267227, "rating": 4, "num_reviews": 0, "website": null, "contact_phone": "+66 87 474 3669", "contact_email": null, "status": 1, "source_type": 1, "numberReviews": 3}, {"name": "F\u0101 R\u012b D\u0101 Ch\u0101 Rot\u012b", "type": "restaurant", "image": "https://dynamic-media-cdn.tripadvisor.com/media/photo-o/17/cd/0f/bc/img20190604231634-largejpg.jpg?w=1000&s=1", "address": "142/12 Krumluang Chumphon 4/3 Alley, Chumphon 86000 Thailand", "lat": 10.50105, "lng": 99.17953, "ref_id": 16727013, "rating": 3.5, "num_reviews": 0, "website": null, "contact_phone": "+66 80 695 1996", "contact_email": null, "status": 1, "source_type": 1, "numberReviews": 5}, {"name": "C with U By Oon I Mon", "type": "restaurant", "image": "https://dynamic-media-cdn.tripadvisor.com/media/photo-o/15/df/8c/dc/1546002775405-largejpg.jpg?w=1000&s=1", "address": "123/7 Soi Krom Luang 3/1, Tha Taphao 86000 Thailand", "lat": 10.500751, "lng": 99.185715, "ref_id": 10089095, "rating": 4.5, "num_reviews": 0, "website": "http://www.facebook.com/cwithu/", "contact_phone": "+66 86 953 6353", "contact_email": null, "status": 1, "source_type": 1, "numberReviews": 2}, {"name": "MD Pizza", "type": "restaurant", "image": "https://dynamic-media-cdn.tripadvisor.com/media/photo-o/0a/f6/07/da/md-pizza.jpg?w=1000&s=1", "address": "4/14 Moo 8 Thung Wua Laen Beach Saphli Subdistrict, Pathio 86230 Thailand", "lat": 10.5599, "lng": 99.2738, "ref_id": 6090594, "rating": 3.5, "num_reviews": 0, "website": "http://mdpizza.wix.com/mdpizza", "contact_phone": "+66 77 622 815", "contact_email": null, "status": 1, "source_type": 1, "numberReviews": 16}, {"name": "Overflowing Pizza, Steak, Thung Kha Intersection", "type": "restaurant", "image": "https://dynamic-media-cdn.tripadvisor.com/media/photo-o/21/9c/90/2a/caption.jpg?w=1000&s=1", "address": "Asia Road 41, Chumphon 86100 Thailand", "lat": 9.110243, "lng": 99.161064, "ref_id": 23723773, "rating": 5, "num_reviews": 0, "website": "https://www.facebook.com/%E0%B8%9E%E0%B8%B4%E0%B8%8B%E0%B8%8B%E0%B9%88%E0%B8%B2%E0%B8%AB%E0%B8%99%E0%B9%89%E0%B8%B2%E0%B8%97%E0%B8%B0%E0%B8%A5%E0%B8%B1%E0%B8%81-%E0%B8%AA%E0%B9%80%E0%B8%95%E0%B9%87%E0%B8%81-%E0%B8%AA%E0%B8%B5%E0%B9%88%E0%B9%81%E0%B8%A2%E0%B8%81%E0%B8%97%E0%B8%B8%E0%B9%88%E0%B8%87%E0%B8%84%E0%B8%B2-103011881456755/", "contact_phone": "+66 95 575 4523", "contact_email": null, "status": 1, "source_type": 1, "numberReviews": 1}, {"name": "K-Had Restaurant", "type": "restaurant", "image": "https://dynamic-media-cdn.tripadvisor.com/media/photo-o/07/30/13/25/k-had-restaurant.jpg?w=1000&s=1", "address": "Thung Wua Laen Beach, Pathio 86000 Thailand", "lat": 10.55268, "lng": 99.27364, "ref_id": 7352530, "rating": 4, "num_reviews": 0, "website": null, "contact_phone": "+66 77 560 208", "contact_email": null, "status": 1, "source_type": 1, "numberReviews": 4}, {"name": "Nice Burger", "type": "restaurant", "image": "https://dynamic-media-cdn.tripadvisor.com/media/photo-o/09/72/ef/42/nice-burger.jpg?w=1000&s=1", "address": "224 Moo 5 Tambon Bang Ma, Chumphon 86000 Thailand", "lat": 10.603541, "lng": 99.25583, "ref_id": 8531086, "rating": 5, "num_reviews": 0, "website": "https://www.facebook.com/aniceburger/timeline", "contact_phone": "+66 81 373 3563", "contact_email": null, "status": 1, "source_type": 1, "numberReviews": 2}, {"name": "Khrua Rod Fai", "type": "restaurant", "image": "https://dynamic-media-cdn.tripadvisor.com/media/photo-o/0e/65/a2/7f/crispy-pork-with-basil.jpg?w=1000&s=1", "address": "North East of Train Station, Chumphon 86000 Thailand", "lat": null, "lng": null, "ref_id": 8486646, "rating": 4.5, "num_reviews": 0, "website": null, "contact_phone": "+66 85 795 7022", "contact_email": null, "status": 1, "source_type": 1, "numberReviews": 3}, {"name": "Build Bar&Bistro", "type": "restaurant", "image": null, "address": "Soi Suk Samer, Chumphon 86000 Thailand", "lat": 10.4958, "lng": 99.18127, "ref_id": 18920729, "rating": 5, "num_reviews": 0, "website": "http://www.facebook.com/buildbarandbistro", "contact_phone": "+66 91 451 7878", "contact_email": null, "status": 1, "source_type": 1, "numberReviews": 1}, {"name": "Take A Seat Cafe Chumphon", "type": "restaurant", "image": "https://dynamic-media-cdn.tripadvisor.com/media/photo-o/1a/08/fa/54/photo0jpg.jpg?w=1000&s=1", "address": "Hwy 3180 Beach Road Next to White Beach and Mali Blues, Saphli 86230 Thailand", "lat": 10.60246, "lng": 99.27231, "ref_id": 9837251, "rating": 5, "num_reviews": 0, "website": "http://www.facebook.com/haveaseatchumphon", "contact_phone": "+66 88 486 9690", "contact_email": null, "status": 1, "source_type": 1, "numberReviews": 1}, {"name": "Nous Cafe", "type": "restaurant", "image": "https://dynamic-media-cdn.tripadvisor.com/media/photo-o/0d/c8/e2/c4/2016-12-03-00-largejpg.jpg?w=1000&s=1", "address": "2279 Tesco Lotus Pattanakarn, Lang Suan Thailand", "lat": null, "lng": null, "ref_id": 4688942, "rating": 4.5, "num_reviews": 0, "website": null, "contact_phone": "66(0)3221439", "contact_email": null, "status": 1, "source_type": 1, "numberReviews": 3}, {"name": "Ton Mayom Noodle", "type": "restaurant", "image": null, "address": "Highway 3180 Saphli Subdistrict, Pathio 86230 Thailand", "lat": 10.60246, "lng": 99.27231, "ref_id": 9802116, "rating": 4.5, "num_reviews": 0, "website": null, "contact_phone": "+66 77 560 154", "contact_email": null, "status": 1, "source_type": 1, "numberReviews": 2}, {"name": "Ran Chumphon Tae Teiym", "type": "restaurant", "image": "https://dynamic-media-cdn.tripadvisor.com/media/photo-o/17/d6/de/a0/ran-chumphon-tae-teiym.jpg?w=1000&s=1", "address": "Tha Taphao, Chumphon 86000 Thailand", "lat": 10.49947, "lng": 99.17873, "ref_id": 17559002, "rating": 5, "num_reviews": 0, "website": null, "contact_phone": "+66 89 730 9177", "contact_email": null, "status": 1, "source_type": 1, "numberReviews": 1}, {"name": "The Pizza Shop", "type": "restaurant", "image": null, "address": "5/5 Pracha-utit Rd, Lang Suan 86110 Thailand", "lat": 9.942846, "lng": 99.07085, "ref_id": 4760339, "rating": 5, "num_reviews": 0, "website": "https://www.facebook.com/thepizzashopthailand", "contact_phone": "+66 84 163 1925", "contact_email": null, "status": 1, "source_type": 1, "numberReviews": 1}, {"name": "Rim Nam Restaurant", "type": "restaurant", "image": "https://dynamic-media-cdn.tripadvisor.com/media/photo-o/14/43/a6/b2/foods-and-views.jpg?w=1000&s=1", "address": "Provincial Highway 4198 Pak Tako, Thung Tako 86220 Thailand", "lat": 10.13311, "lng": 99.15023, "ref_id": 14015565, "rating": 5, "num_reviews": 0, "website": "http://restaurant-33525.business.site/", "contact_phone": "+66 87 278 2905", "contact_email": null, "status": 1, "source_type": 1, "numberReviews": 1}, {"name": "Signature", "type": "restaurant", "image": "https://dynamic-media-cdn.tripadvisor.com/media/photo-o/10/02/c2/6f/kurbu-pork-chop-with.jpg?w=1000&s=1", "address": "195 Moo 3 Wamp Pai Big C floor 1, Chumphon 86000 Thailand", "lat": 10.503371, "lng": 99.142136, "ref_id": 12667057, "rating": 4, "num_reviews": 0, "website": "http://www.SignatureSteakLoft.com", "contact_phone": "+66 91 545 2275", "contact_email": null, "status": 1, "source_type": 1, "numberReviews": 4}, {"name": "Fame Cafe", "type": "restaurant", "image": "https://dynamic-media-cdn.tripadvisor.com/media/photo-o/12/bc/50/ee/interior.jpg?w=1000&s=1", "address": "Saladaeng 6, Chumphon Thailand", "lat": 10.500059, "lng": 99.17717, "ref_id": 3877725, "rating": 3, "num_reviews": 0, "website": null, "contact_phone": null, "contact_email": null, "status": 1, "source_type": 1, "numberReviews": 49}, {"name": "DJL POOL BAR", "type": "restaurant", "image": null, "address": "14/102 Moo 2, Sairee Beach, Chumphon 84360 Thailand", "lat": 10.396278, "lng": 99.27998, "ref_id": 7103890, "rating": 5, "num_reviews": 0, "website": "https://www.facebook.com/DJLPoolBar/", "contact_phone": "+66 62 260 1621", "contact_email": "info@scubadivekohtao.com", "status": 1, "source_type": 1, "numberReviews": 1}, {"name": "Khrua Chanchira Re", "type": "restaurant", "image": "https://dynamic-media-cdn.tripadvisor.com/media/photo-o/0a/e9/37/81/photo2jpg.jpg?w=1000&s=1", "address": "Pak Nam Subdistrict, Chumphon 86000 Thailand", "lat": 10.49423, "lng": 99.1752, "ref_id": 7903450, "rating": 3.5, "num_reviews": 0, "website": null, "contact_phone": "+66 82 783 5177", "contact_email": null, "status": 1, "source_type": 1, "numberReviews": 3}, {"name": "Krua Khun Sura Si", "type": "restaurant", "image": null, "address": "2/8 Nawamin Ruamjai Road Tathapao, Chumphon 86000 Thailand", "lat": 10.5008, "lng": 99.17412, "ref_id": 8724384, "rating": 5, "num_reviews": 0, "website": "https://www.facebook.com/%E0%B8%84%E0%B8%A3%E0%B8%B1%E0%B8%A7%E0%B8%84%E0%B8%B8%E0%B8%93%E0%B8%AA%E0%B8%B8%E0%B8%A3%E0%B8%B0%E0%B8%A8%E0%B8%A3%E0%B8%B5-%E0%B8%88%E0%B8%8A%E0%B8%B8%E0%B8%A1%E0%B8%9E%E0%B8%A3-1587714121506488/", "contact_phone": "+66 86 941 1370", "contact_email": null, "status": 1, "source_type": 1, "numberReviews": 1}, {"name": "Apple Cafe", "type": "restaurant", "image": null, "address": "Thungwualaen Beach Street Sa Phli, Pathio 86230 Thailand", "lat": null, "lng": null, "ref_id": 4698087, "rating": 3.5, "num_reviews": 0, "website": null, "contact_phone": "+66 83 391 4405", "contact_email": null, "status": 1, "source_type": 1, "numberReviews": 4}, {"name": "Tongue&Groove Bar and Cafe", "type": "restaurant", "image": null, "address": "8/7 Moo2 Ban Ko Tao Tambon Mae Haad, Chumphon 84360 Thailand", "lat": 10.084314, "lng": 99.82443, "ref_id": 7218402, "rating": 5, "num_reviews": 0, "website": "https://www.facebook.com/pages/Tongue-Groove-Beach-Bar-Koh-Tao-Thailand/407011999405139?ref=br_tf", "contact_phone": "+66 91 004 4522", "contact_email": "kohtaolofthostel@gmail.com", "status": 1, "source_type": 1, "numberReviews": 1}, {"name": "Lam Rew Seafood", "type": "restaurant", "image": "https://dynamic-media-cdn.tripadvisor.com/media/photo-o/06/7f/32/54/caption.jpg?w=1000&s=1", "address": "94 Moo 4, Bang Nam Chuet Subdistrict, Lang Suan Thailand", "lat": null, "lng": null, "ref_id": 4404923, "rating": 4, "num_reviews": 0, "website": null, "contact_phone": "+66 89 292 3924", "contact_email": null, "status": 1, "source_type": 1, "numberReviews": 1}, {"name": "Anna's Pad Thai", "type": "restaurant", "image": "https://dynamic-media-cdn.tripadvisor.com/media/photo-o/05/8a/bd/30/anna-s-pad-thai.jpg?w=1000&s=1", "address": "Pathio 86230 Thailand", "lat": null, "lng": null, "ref_id": 6373175, "rating": 5, "num_reviews": 0, "website": null, "contact_phone": "+66 89 478 7344", "contact_email": null, "status": 1, "source_type": 1, "numberReviews": 1}, {"name": "The Food Forest Kitchen", "type": "restaurant", "image": "https://dynamic-media-cdn.tripadvisor.com/media/photo-o/17/bb/9f/21/our-restaurant-on-top.jpg?w=1000&s=1", "address": "71/4 Moo 4 Tambon Paksong, Phato 86180 Thailand", "lat": 9.757614, "lng": 98.703285, "ref_id": 12614109, "rating": 4, "num_reviews": 0, "website": "http://www.ecologicthailand.com/thefoodforestkitchenrestaurant", "contact_phone": "+66 86 172 1090", "contact_email": "tcdf.ecologic@gmail.com", "status": 1, "source_type": 1, "numberReviews": 1}, {"name": "Kitchen Toi", "type": "restaurant", "image": null, "address": "Chaloem Phra Kiat Rd. Na Thung Subdistrict, Chumphon 86000 Thailand", "lat": null, "lng": null, "ref_id": 8862428, "rating": 4, "num_reviews": 0, "website": null, "contact_phone": "+66 77 504 163", "contact_email": null, "status": 1, "source_type": 1, "numberReviews": 1}, {"name": "Kaeng Pae Ka", "type": "restaurant", "image": "https://dynamic-media-cdn.tripadvisor.com/media/photo-o/09/63/db/91/caption.jpg?w=1000&s=1", "address": "168 Petchkasem Rd, Tambon Sap Anan, Tha Sae 86140 Thailand", "lat": 10.701905, "lng": 99.203926, "ref_id": 3709555, "rating": 4, "num_reviews": 0, "website": null, "contact_phone": "+66 77 651 437", "contact_email": null, "status": 1, "source_type": 1, "numberReviews": 2}, {"name": "Krua Rim Klong", "type": "restaurant", "image": "https://dynamic-media-cdn.tripadvisor.com/media/photo-o/0e/a0/9f/88/krua-rim-klong.jpg?w=1000&s=1", "address": "119/1 Moo 9,  Tark Dat Subdistrict, Mueang Chumphon District, Chumphon Thailand", "lat": null, "lng": null, "ref_id": 3715547, "rating": 3, "num_reviews": 0, "website": null, "contact_phone": "+66 81 273 9998", "contact_email": null, "status": 1, "source_type": 1, "numberReviews": 2}, {"name": "Le Betole", "type": "restaurant", "image": "https://dynamic-media-cdn.tripadvisor.com/media/photo-o/26/88/da/81/we-are-open.jpg?w=1000&s=1", "address": "10/1 Moo 8 Thung Wua Laen beach, Chumphon 86230 Thailand", "lat": 10.570548, "lng": 99.27453, "ref_id": 17818397, "rating": 4.5, "num_reviews": 0, "website": "https://lebetole.com/", "contact_phone": "+66 85 783 8011", "contact_email": "lebetole@gmail.com", "status": 1, "source_type": 1, "numberReviews": 71}, {"name": "Pirates Terrace", "type": "restaurant", "image": "https://dynamic-media-cdn.tripadvisor.com/media/photo-o/04/90/92/7f/restaurant-n-guesthouse.jpg?w=1000&s=1", "address": "54/7 Thung wua lean Saplee, Pathio 86230 Thailand", "lat": 10.565013, "lng": 99.27389, "ref_id": 2414427, "rating": 4, "num_reviews": 0, "website": "http://www.facebook.com/pirates.terrace", "contact_phone": "+66 81 956 5621", "contact_email": "piratesterrace@yahoo.com", "status": 1, "source_type": 1, "numberReviews": 115}, {"name": "Farang Bar", "type": "restaurant", "image": "https://dynamic-media-cdn.tripadvisor.com/media/photo-s/02/73/e2/b3/nice-garden.jpg?w=1000&s=1", "address": "69/36 Thatapao Road A. Meuang Chumphon, Chumphon 86000 Thailand", "lat": 10.498093, "lng": 99.17461, "ref_id": 2198163, "rating": 4, "num_reviews": 0, "website": "http://www.facebook.com/FarangBarChumphon/", "contact_phone": "+66 80 380 6263", "contact_email": "farangbarchumphon@gmail.com", "status": 1, "source_type": 1, "numberReviews": 161}, {"name": "Take A Seat Cafe", "type": "restaurant", "image": "https://dynamic-media-cdn.tripadvisor.com/media/photo-o/0a/ef/16/c7/front-porch-next-to-old.jpg?w=1000&s=1", "address": "Thung Wua Laeng Beach, Chumphon 86160 Thailand", "lat": 10.560437, "lng": 99.27371, "ref_id": 10192213, "rating": 5, "num_reviews": 0, "website": "https://www.facebook.com/haveaseatchumphon/", "contact_phone": "+66 88 486 9690", "contact_email": null, "status": 1, "source_type": 1, "numberReviews": 24}, {"name": "Green Kitchen", "type": "restaurant", "image": "https://dynamic-media-cdn.tripadvisor.com/media/photo-o/05/cd/81/a2/green-kitchen.jpg?w=1000&s=1", "address": "110/32 Soi Suksamoe, Krommaluangchumphon Road,Thataphao,Mueang Chumphon, Chumphon Thailand", "lat": 10.498847, "lng": 99.179344, "ref_id": 4404807, "rating": 4, "num_reviews": 0, "website": null, "contact_phone": "+66 77 571 731", "contact_email": "greenkitchen@live.com", "status": 1, "source_type": 1, "numberReviews": 49}, {"name": "Yay Puad", "type": "restaurant", "image": "https://dynamic-media-cdn.tripadvisor.com/media/photo-o/18/bf/56/f0/photo0jpg.jpg?w=1000&s=1", "address": "74   Bang Mahk Subdistrict , Mueang Chumphon District, Chumphon Thailand", "lat": 10.479338, "lng": 99.19553, "ref_id": 3712129, "rating": 4.5, "num_reviews": 0, "website": null, "contact_phone": "+66 93 680 8375", "contact_email": null, "status": 1, "source_type": 1, "numberReviews": 19}, {"name": "Old Time Cafe", "type": "restaurant", "image": "https://dynamic-media-cdn.tripadvisor.com/media/photo-o/16/1a/15/96/photo0jpg.jpg?w=1000&s=1", "address": "Soi Suk Samoe 9, Suk Samoe Road Tha Taphao, Chumphon 86000 Thailand", "lat": 10.498658, "lng": 99.180916, "ref_id": 12800917, "rating": 4, "num_reviews": 0, "website": null, "contact_phone": "+66 85 060 6064", "contact_email": null, "status": 1, "source_type": 1, "numberReviews": 46}, {"name": "Aeki's Bar", "type": "restaurant", "image": "https://dynamic-media-cdn.tripadvisor.com/media/photo-o/14/a7/99/4b/photo0jpg.jpg?w=1000&s=1", "address": "Soi Lord Thagrotfai, Tha Taphao 86000 Thailand", "lat": 10.503125, "lng": 99.17653, "ref_id": 12379773, "rating": 4.5, "num_reviews": 0, "website": "https://aekis-bar-aeksiam-muaythai.business.site/", "contact_phone": "+66 89 185 5485", "contact_email": "the3independent@gmail.com", "status": 1, "source_type": 1, "numberReviews": 19}, {"name": "Aqua viva", "type": "restaurant", "image": "https://dynamic-media-cdn.tripadvisor.com/media/photo-o/12/22/2e/77/photo0jpg.jpg?w=1000&s=1", "address": "85, Moo 5 Na Cha-ang, Chumphon 86000 Thailand", "lat": 10.554739, "lng": 99.26961, "ref_id": 13335904, "rating": 5, "num_reviews": 0, "website": "https://www.facebook.com/Aquaviva-192727491289237/", "contact_phone": "+66 61 195 9833", "contact_email": "aquaviva.chumphon@gmail.com", "status": 1, "source_type": 1, "numberReviews": 16}, {"name": "Mae Mai Seafood", "type": "restaurant", "image": "https://dynamic-media-cdn.tripadvisor.com/media/daodao/photo-o/18/97/8e/8d/photo3jpg.jpg?w=1000&s=1", "address": "4098 Highway Pak Nam, Chumphon 86120 Thailand", "lat": 10.430247, "lng": 99.26076, "ref_id": 12946219, "rating": 4, "num_reviews": 0, "website": null, "contact_phone": "+66 77 521 603", "contact_email": null, "status": 1, "source_type": 1, "numberReviews": 22}, {"name": "Chuen Jai Cafe", "type": "restaurant", "image": "https://dynamic-media-cdn.tripadvisor.com/media/photo-o/18/bf/1f/db/photo0jpg.jpg?w=1000&s=1", "address": "25/63 Soi 1, Krom Luang Chumphon Rd, Tha Taphao 86000 Thailand", "lat": 10.501074, "lng": 99.17954, "ref_id": 17696760, "rating": 5, "num_reviews": 0, "website": null, "contact_phone": "+66 85 215 5924", "contact_email": null, "status": 1, "source_type": 1, "numberReviews": 10}, {"name": "Nit's Kitchen", "type": "restaurant", "image": "https://dynamic-media-cdn.tripadvisor.com/media/photo-o/1c/55/7c/aa/caption.jpg?w=1000&s=1", "address": "90/6 Moo 5, Saphli 86230 Thailand", "lat": 10.588993, "lng": 99.279495, "ref_id": 7811544, "rating": 4.5, "num_reviews": 0, "website": null, "contact_phone": "+66 85 729 5919", "contact_email": "pornsawan7776@gmail.com", "status": 1, "source_type": 1, "numberReviews": 16}, {"name": "Prikhorm", "type": "restaurant", "image": "https://dynamic-media-cdn.tripadvisor.com/media/photo-o/17/79/a0/61/20190510-201525-largejpg.jpg?w=1000&s=1", "address": "38 Opposite to Virajsilp Hospital Tha Tapao Subdistrict Mueang Chumporn District, Chumphon Thailand", "lat": null, "lng": null, "ref_id": 3713271, "rating": 4, "num_reviews": 0, "website": null, "contact_phone": "+66 77 570 707", "contact_email": null, "status": 1, "source_type": 1, "numberReviews": 34}, {"name": "Mali Blue's Bar", "type": "restaurant", "image": "https://dynamic-media-cdn.tripadvisor.com/media/photo-o/07/77/31/c8/caption.jpg?w=1000&s=1", "address": "Moo 8, Pathio 86230 Thailand", "lat": 10.560558, "lng": 99.273766, "ref_id": 6721420, "rating": 3.5, "num_reviews": 0, "website": null, "contact_phone": null, "contact_email": null, "status": 1, "source_type": 1, "numberReviews": 35}, {"name": "Lui Seafood", "type": "restaurant", "image": "https://dynamic-media-cdn.tripadvisor.com/media/photo-o/13/3e/ed/b7/caption.jpg?w=1000&s=1", "address": "32/6 Moo 4 Tambon Pak Nam, Chumphon 86120 Thailand", "lat": 10.412339, "lng": 99.25085, "ref_id": 8074499, "rating": 4, "num_reviews": 0, "website": "http://www.raanlui.com/", "contact_phone": "+66 77 521 135", "contact_email": null, "status": 1, "source_type": 1, "numberReviews": 26}, {"name": "Yim Podchana Seafood", "type": "restaurant", "image": "https://dynamic-media-cdn.tripadvisor.com/media/photo-o/1a/7b/54/d1/photo0jpg.jpg?w=1000&s=1", "address": "39/2 Thung Kha, Chumphon 86100 Thailand", "lat": 10.38305, "lng": 99.14637, "ref_id": 12981710, "rating": 5, "num_reviews": 0, "website": null, "contact_phone": "+66 77 554 094", "contact_email": null, "status": 1, "source_type": 1, "numberReviews": 4}, {"name": "Nong Mai Seafood", "type": "restaurant", "image": "https://dynamic-media-cdn.tripadvisor.com/media/photo-o/08/07/47/e6/caption.jpg?w=1000&s=1", "address": "38/1 Moo 1 Hat Sairee Subdistrict, Chumphon Thailand", "lat": null, "lng": null, "ref_id": 8155276, "rating": 4, "num_reviews": 0, "website": null, "contact_phone": "+66 77 558 002", "contact_email": null, "status": 1, "source_type": 1, "numberReviews": 6}, {"name": "Leko Restaurant", "type": "restaurant", "image": "https://dynamic-media-cdn.tripadvisor.com/media/photo-o/1c/bb/f6/6d/img-20210312-1943156.jpg?w=1000&s=1", "address": "Opposite Sunny Beach Resort, Pak Tako 86220 Thailand", "lat": 10.10882, "lng": 99.14711, "ref_id": 15618035, "rating": 5, "num_reviews": 0, "website": null, "contact_phone": "+66 85 793 5127", "contact_email": null, "status": 1, "source_type": 1, "numberReviews": 4}, {"name": "Yong Hong Huad", "type": "restaurant", "image": "https://dynamic-media-cdn.tripadvisor.com/media/photo-o/11/a1/89/57/getlstd-property-photo.jpg?w=1000&s=1", "address": "7, 130/6-7 Saladaeng Tha Tapao, Chumphon 86000 Thailand", "lat": 10.498896, "lng": 99.17705, "ref_id": 13344427, "rating": 5, "num_reviews": 0, "website": null, "contact_phone": "+66 77 511 433", "contact_email": null, "status": 1, "source_type": 1, "numberReviews": 3}, {"name": "Dozo", "type": "restaurant", "image": "", "address": "Soi Suk Samua 9, Pracha Uthit Rd. Tha Taphao Subdistrict, Chumphon 86000 Thailand", "lat": 10.4949, "lng": 99.18048, "ref_id": 8848928, "rating": 5, "num_reviews": 0, "website": null, "contact_phone": "+66 77 512 239", "contact_email": null, "status": 1, "source_type": 1, "numberReviews": 4}, {"name": "Green Field Restaurant", "type": "restaurant", "image": "https://dynamic-media-cdn.tripadvisor.com/media/photo-o/28/24/15/26/green-field-restaurant.jpg?w=1000&s=1", "address": "Saphli, Chumphon 86230 Thailand", "lat": 10.584744, "lng": 99.27569, "ref_id": 25310326, "rating": 5, "num_reviews": 0, "website": "https://web.facebook.com/greenfield.co.th", "contact_phone": "+66 86 426 2369", "contact_email": "nicezaaa@hotmail.com", "status": 1, "source_type": 1, "numberReviews": 2}, {"name": "Hor Jiah Dimsum@Chumphon", "type": "restaurant", "image": "https://dynamic-media-cdn.tripadvisor.com/media/photo-o/1a/29/63/61/i-love-this-place-been.jpg?w=1000&s=1", "address": "Tha Ta Pao, Chumphon 86000 Thailand", "lat": 10.4987, "lng": 99.1785, "ref_id": 16767791, "rating": 4, "num_reviews": 0, "website": null, "contact_phone": null, "contact_email": null, "status": 1, "source_type": 1, "numberReviews": 5}, {"name": "River Terrace", "type": "restaurant", "image": "https://dynamic-media-cdn.tripadvisor.com/media/photo-o/0e/a4/a2/a2/main-entrance.jpg?w=1000&s=1", "address": "80/3, Chumphon Thailand", "lat": 10.514191, "lng": 99.17798, "ref_id": 10064048, "rating": 4.5, "num_reviews": 0, "website": "https://www.facebook.com/riverterracecafe/", "contact_phone": "+66 85 403 9777", "contact_email": null, "status": 1, "source_type": 1, "numberReviews": 7}, {"name": "Loong Plen", "type": "restaurant", "image": "https://dynamic-media-cdn.tripadvisor.com/media/photo-o/13/17/1e/a5/caption.jpg?w=1000&s=1", "address": "Bang Mak Subdistrict, Chumphon 86000 Thailand", "lat": null, "lng": null, "ref_id": 10130493, "rating": 5, "num_reviews": 0, "website": null, "contact_phone": "+66 89 921 8927", "contact_email": null, "status": 1, "source_type": 1, "numberReviews": 4}, {"name": "Field Good Chumphon Restaurant", "type": "restaurant", "image": "https://dynamic-media-cdn.tripadvisor.com/media/photo-o/24/7b/18/b0/pad-thai-with-giant-river.jpg?w=1000&s=1", "address": "99/5 Villlage No.1 Banmak Subdistrict , Muang Near Coca Cola Intersection, Chumphon 86000 Thailand", "lat": 10.480457, "lng": 99.193306, "ref_id": 23902129, "rating": 5, "num_reviews": 0, "website": "http://www.facebook.com/fieldgood2021", "contact_phone": "+66 86 001 2088", "contact_email": "fieldgood2021@gmail.com", "status": 1, "source_type": 1, "numberReviews": 2}, {"name": "View Sea Food", "type": "restaurant", "image": "https://dynamic-media-cdn.tripadvisor.com/media/photo-o/05/58/be/ef/naturally.jpg?w=1000&s=1", "address": "13/2 Beachside, In front of View Resort, Saphli Subdistrict, Patiw District, Chumphon Thailand", "lat": 10.567079, "lng": 99.274155, "ref_id": 3715912, "rating": 3.5, "num_reviews": 0, "website": null, "contact_phone": "0775602146", "contact_email": null, "status": 1, "source_type": 1, "numberReviews": 14}, {"name": "Steak On 3", "type": "restaurant", "image": "https://dynamic-media-cdn.tripadvisor.com/media/photo-o/13/10/76/64/tenderloin-source-from.jpg?w=1000&s=1", "address": "3 Moo 3, Soi Kuan Kru, Saphli 86230 Thailand", "lat": 10.607255, "lng": 99.24988, "ref_id": 14116295, "rating": 4.5, "num_reviews": 0, "website": "https://www.facebook.com/STEAK-ON3-1749992215235610/", "contact_phone": "+66 62 474 4164", "contact_email": null, "status": 1, "source_type": 1, "numberReviews": 3}, {"name": "Phoenix Restaurant & Bar", "type": "restaurant", "image": "https://dynamic-media-cdn.tripadvisor.com/media/photo-o/24/0f/ed/81/night-time-at-the-restaurant.jpg?w=1000&s=1", "address": "90/5 Moo 5 Saphli Subdistrict, Pathio 86230 Thailand", "lat": 10.58934, "lng": 99.280136, "ref_id": 24017033, "rating": 4, "num_reviews": 0, "website": "http://www.facebook.com/pephoenixsaphil/", "contact_phone": "+66 91 451 7878", "contact_email": null, "status": 1, "source_type": 1, "numberReviews": 5}, {"name": "Ban Phuk Pouk", "type": "restaurant", "image": "https://dynamic-media-cdn.tripadvisor.com/media/photo-o/1b/9b/a9/ca/20200723-171137-largejpg.jpg?w=1000&s=1", "address": "55 Moo 7 Bang Mak, Chumphon 86000 Thailand", "lat": 10.468781, "lng": 99.18592, "ref_id": 13276571, "rating": 4.5, "num_reviews": 0, "website": "https://www.facebook.com/banphakpouk/", "contact_phone": "+66 88 753 2325", "contact_email": null, "status": 1, "source_type": 1, "numberReviews": 3}, {"name": "Krua Nang Lung", "type": "restaurant", "image": "https://dynamic-media-cdn.tripadvisor.com/media/photo-o/19/0e/d4/9c/20190830-182600-largejpg.jpg?w=1000&s=1", "address": "9 Moo 5 Chumphon-Ranong Rd Wang Mai, Chumphon 86000 Thailand", "lat": 10.527639, "lng": 99.07819, "ref_id": 13202893, "rating": 5, "num_reviews": 0, "website": null, "contact_phone": "+66 77 501 776", "contact_email": null, "status": 1, "source_type": 1, "numberReviews": 2}, {"name": "Talay Sai Hotel", "type": "hotel", "image": "https://dynamic-media-cdn.tripadvisor.com/media/photo-o/28/73/07/b1/sea-view-twin-room-with.jpg?w=1000&s=1", "address": "54/3 Moo 8, Pathio 86230 Thailand", "lat": 10.565212, "lng": 99.27389, "ref_id": 7033919, "rating": 4, "num_reviews": 0, "website": "http://www.talaysai-hotel.com", "contact_phone": "+66 81 607 0505", "contact_email": "talaysaihotel@gmail.com", "status": 1, "source_type": 1, "numberReviews": 66}, {"name": "Pirates Terrace", "type": "hotel", "image": "https://dynamic-media-cdn.tripadvisor.com/media/partner/bookingcom/photo-o/1a/61/62/03/cycling.jpg?w=1000&s=1", "address": "54/7 Moo. 8 Thungwualaen, Saplee, Pathio 86230 Thailand", "lat": 10.56647, "lng": 99.26862, "ref_id": 15127442, "rating": -1, "num_reviews": 0, "website": null, "contact_phone": null, "contact_email": null, "status": 1, "source_type": 1, "numberReviews": 0}, {"name": "Ecologic Thailand", "type": "hotel", "image": null, "address": "71/4 M4 Pak Song, Phato 86180 Thailand", "lat": 9.75795, "lng": 98.70441, "ref_id": 20862465, "rating": -1, "num_reviews": 0, "website": "https://www.facebook.com/ECOLOGICTHAILAND/", "contact_phone": "+66 86 172 1090", "contact_email": null, "status": 1, "source_type": 1, "numberReviews": 0}, {"name": "Baan Dala", "type": "hotel", "image": null, "address": "89/3 Moo. 4 T. Napho, Sawi 86130 Thailand", "lat": 10.244663, "lng": 99.053345, "ref_id": 14178739, "rating": -1, "num_reviews": 0, "website": null, "contact_phone": "+66 77 532 154", "contact_email": null, "status": 1, "source_type": 1, "numberReviews": 0}, {"name": "Kiangchan Resort", "type": "hotel", "image": null, "address": "98 Moo 4, Sawi 86130 Thailand", "lat": 10.248635, "lng": 99.09043, "ref_id": 14057642, "rating": -1, "num_reviews": 0, "website": null, "contact_phone": "+66 77 557 221", "contact_email": null, "status": 1, "source_type": 1, "numberReviews": 0}, {"name": "Krang Prong Resort and Took Kitchen", "type": "hotel", "image": null, "address": "8/3 Moo. 10 T. Wisai Tai, Sawi 86130 Thailand", "lat": 10.32785, "lng": 99.09543, "ref_id": 14054672, "rating": -1, "num_reviews": 0, "website": null, "contact_phone": null, "contact_email": null, "status": 1, "source_type": 1, "numberReviews": 0}, {"name": "Velatalay Resort", "type": "hotel", "image": null, "address": "83/1 Moo 2, Sawi 86130 Thailand", "lat": 10.233333, "lng": 99.083336, "ref_id": 25270106, "rating": -1, "num_reviews": 0, "website": "https://www.facebook.com/velatalay.resort/", "contact_phone": "+66 99 454 4490", "contact_email": null, "status": 1, "source_type": 1, "numberReviews": 0}, {"name": "Chogun Resort", "type": "hotel", "image": "https://dynamic-media-cdn.tripadvisor.com/media/partner/bookingcom/photo-o/1b/14/bc/b8/4994587.jpg?w=1000&s=1", "address": "29/22 Krom Luang Road, Tha Taphao 86000 Thailand", "lat": 10.3998, "lng": 99.2798, "ref_id": 20050752, "rating": -1, "num_reviews": 0, "website": null, "contact_phone": null, "contact_email": null, "status": 1, "source_type": 1, "numberReviews": 0}, {"name": "A Lazy Person Hostel", "type": "hotel", "image": "https://dynamic-media-cdn.tripadvisor.com/media/partner/bookingcom/photo-o/1c/ca/b8/50/6349808.jpg?w=1000&s=1", "address": "206/12 Thanon Krumluang Chumphon, Tha Taphao 86000 Thailand", "lat": 10.501432, "lng": 99.177475, "ref_id": 23191382, "rating": -1, "num_reviews": 0, "website": "https://www.facebook.com/alazypersonhostel", "contact_phone": "+66 92 925 9744", "contact_email": "alazypersonhostel@gmail.com", "status": 1, "source_type": 1, "numberReviews": 0}, {"name": "Willow Pillow Guest House & Poshtel", "type": "hotel", "image": "https://dynamic-media-cdn.tripadvisor.com/media/partner/bookingcom/photo-o/2b/d5/36/7d/caption.jpg?w=1000&s=1", "address": "69 Krom Luang Road, Tha Taphao 86000 Thailand", "lat": 10.500532, "lng": 99.182816, "ref_id": 27477916, "rating": -1, "num_reviews": 0, "website": "https://www.facebook.com/profile.php?id=61555922820310&mibextid=hu50Ix", "contact_phone": "+66 92 395 9391", "contact_email": "willowpillow.th@gmail.com", "status": 1, "source_type": 1, "numberReviews": 0}, {"name": "Chumphon's Hostel", "type": "hotel", "image": "https://dynamic-media-cdn.tripadvisor.com/media/photo-o/1c/59/f3/33/chumphon-s-hostel.jpg?w=1000&s=1", "address": "75/70 Krom Luang Soi 3, Tha Taphao 86000 Thailand", "lat": 10.500488, "lng": 99.18382, "ref_id": 21368986, "rating": -1, "num_reviews": 0, "website": "https://www.facebook.com/ChumphonHostel/", "contact_phone": "+66 81 555 0257", "contact_email": "cpnhostel@gmail.com", "status": 1, "source_type": 1, "numberReviews": 0}, {"name": "The Farang Bar Guesthouse", "type": "hotel", "image": null, "address": "69/36 Thatapao Road, Tha Taphao 86000 Thailand", "lat": 10.49822, "lng": 99.17445, "ref_id": 17439078, "rating": -1, "num_reviews": 0, "website": null, "contact_phone": null, "contact_email": null, "status": 1, "source_type": 1, "numberReviews": 0}, {"name": "B.R.S. at Hotel Baanbumrungsuk", "type": "hotel", "image": null, "address": "191 Pisitpayabarn Road, Tha Taphao Thailand", "lat": 10.497847, "lng": 99.18558, "ref_id": 23209924, "rating": -1, "num_reviews": 0, "website": null, "contact_phone": null, "contact_email": null, "status": 1, "source_type": 1, "numberReviews": 0}, {"name": "Imm Paknham", "type": "hotel", "image": null, "address": "811/30, Pak Nam 86150 Thailand", "lat": null, "lng": null, "ref_id": 27523774, "rating": -1, "num_reviews": 0, "website": null, "contact_phone": null, "contact_email": null, "status": 1, "source_type": 1, "numberReviews": 0}, {"name": "Muji Hotel KrabI", "type": "hotel", "image": null, "address": "2/4 Maharaj Road, Pak Nam 81000 Thailand", "lat": null, "lng": null, "ref_id": 27700753, "rating": -1, "num_reviews": 0, "website": "https://www.facebook.com/profile.php?id=61554319991573", "contact_phone": "+66 64 879 9295", "contact_email": null, "status": 1, "source_type": 1, "numberReviews": 0}, {"name": "Palmtaew Resort", "type": "hotel", "image": null, "address": "40 M.2, Na Kratam Thailand", "lat": 10.599384, "lng": 99.157394, "ref_id": 20887309, "rating": -1, "num_reviews": 0, "website": null, "contact_phone": null, "contact_email": null, "status": 1, "source_type": 1, "numberReviews": 0}, {"name": "Chumphon Fishing Resort", "type": "hotel", "image": "https://dynamic-media-cdn.tripadvisor.com/media/partner/bookingcom/photo-o/1b/17/31/cb/5548919.jpg?w=1000&s=1", "address": "39/1, Khun Krathing 86000 Thailand", "lat": 10.47368, "lng": 99.1334, "ref_id": 20052123, "rating": -1, "num_reviews": 0, "website": "https://www.facebook.com/chumphonfishingresortthailand/", "contact_phone": null, "contact_email": null, "status": 1, "source_type": 1, "numberReviews": 0}, {"name": "Tang Su Ratn Chay Le Risxrth", "type": "hotel", "image": null, "address": "23 Hmu 4, Bang Nam Chuet 86150 Thailand", "lat": 10.011913, "lng": 99.15955, "ref_id": 21353772, "rating": -1, "num_reviews": 0, "website": "https://www.facebook.com/tungsurat/", "contact_phone": "+66 93 712 1587", "contact_email": null, "status": 1, "source_type": 1, "numberReviews": 0}, {"name": "SN Resort Langsuan", "type": "hotel", "image": null, "address": "57 Hmu 1, Bang Nam Chuet 86150 Thailand", "lat": 9.971998, "lng": 99.15079, "ref_id": 24042065, "rating": -1, "num_reviews": 0, "website": null, "contact_phone": "+66 77 551 119", "contact_email": null, "status": 1, "source_type": 1, "numberReviews": 0}, {"name": "Baan Nai Kao Resort & Coffee", "type": "hotel", "image": null, "address": "249 Moo 1, Sap Anan 86140 Thailand", "lat": 10.73254, "lng": 99.18823, "ref_id": 21409424, "rating": -1, "num_reviews": 0, "website": "https://www.facebook.com/profile.php?id=100026110357214", "contact_phone": "+66 65 410 1939", "contact_email": null, "status": 1, "source_type": 1, "numberReviews": 0}, {"name": "Sukprasert Resort", "type": "hotel", "image": "https://dynamic-media-cdn.tripadvisor.com/media/partner/bookingcom/photo-o/20/84/6a/d7/caption.jpg?w=1000&s=1", "address": "34 Moo 4, Wang Phai 75120 Thailand", "lat": 10.510093, "lng": 99.121765, "ref_id": 23181526, "rating": -1, "num_reviews": 0, "website": null, "contact_phone": null, "contact_email": null, "status": 1, "source_type": 1, "numberReviews": 0}, {"name": "Vimanthong Resort1", "type": "hotel", "image": null, "address": "261 Moo 9, Wang Phai Thailand", "lat": 10.518466, "lng": 99.122955, "ref_id": 20904432, "rating": -1, "num_reviews": 0, "website": null, "contact_phone": null, "contact_email": null, "status": 1, "source_type": 1, "numberReviews": 0}, {"name": "Thai House", "type": "hotel", "image": null, "address": "Petchakesem Road, 62/6 Moo 1, Wang Phai 73110 Thailand", "lat": 13.743866, "lng": 100.211525, "ref_id": 10760462, "rating": -1, "num_reviews": 0, "website": null, "contact_phone": null, "contact_email": null, "status": 1, "source_type": 1, "numberReviews": 0}, {"name": "Under Co by View", "type": "hotel", "image": "https://dynamic-media-cdn.tripadvisor.com/media/partner/bookingcom/photo-o/19/b1/de/8c/swimmingpool.jpg?w=1000&s=1", "address": "26/8 Moo 8 Thambon Saple Aumphor Patew, Thung Wua Laen Beach 86230 Thailand", "lat": 10.564399, "lng": 99.266014, "ref_id": 12269530, "rating": -1, "num_reviews": 0, "website": null, "contact_phone": null, "contact_email": null, "status": 1, "source_type": 1, "numberReviews": 0}, {"name": "Thungwua Laen Resort", "type": "hotel", "image": null, "address": "61, 3, Thung Wua Laen Beach 86230 Thailand", "lat": 10.561835, "lng": 99.27359, "ref_id": 26689331, "rating": -1, "num_reviews": 0, "website": "https://thungwualaen-resort.business.site/", "contact_phone": "+66 81 370 9739", "contact_email": null, "status": 1, "source_type": 1, "numberReviews": 0}, {"name": "Mallika Country Home", "type": "hotel", "image": null, "address": "63/2 Moo 3 Na Cha-ang, Chumphon 86000 Thailand", "lat": 10.54131, "lng": 99.22748, "ref_id": 15097495, "rating": -1, "num_reviews": 0, "website": null, "contact_phone": null, "contact_email": null, "status": 1, "source_type": 1, "numberReviews": 0}, {"name": "Banrao Hostel", "type": "hotel", "image": null, "address": "Soi Chansom, Chumphon 86000 Thailand", "lat": 10.49927, "lng": 99.17891, "ref_id": 11870441, "rating": -1, "num_reviews": 0, "website": null, "contact_phone": null, "contact_email": null, "status": 1, "source_type": 1, "numberReviews": 0}, {"name": "The Boutique Hostel", "type": "hotel", "image": null, "address": "274/11 Moo 8, T. Nathung, A. Muang, Chumphon 86000 Thailand", "lat": 10.50568, "lng": 99.12825, "ref_id": 14181709, "rating": -1, "num_reviews": 0, "website": null, "contact_phone": "+66 77 630 298", "contact_email": null, "status": 1, "source_type": 1, "numberReviews": 0}, {"name": "Sunshine Park Resort", "type": "hotel", "image": null, "address": "51 Moo. 9, T. Bangruek, A. Mueang, Chumphon 86000 Thailand", "lat": 10.49323, "lng": 99.1726, "ref_id": 14172139, "rating": -1, "num_reviews": 0, "website": null, "contact_phone": "+66 96 828 8307", "contact_email": null, "status": 1, "source_type": 1, "numberReviews": 0}, {"name": "Charlie Resort Chumphon", "type": "hotel", "image": "https://dynamic-media-cdn.tripadvisor.com/media/partner/bookingcom/photo-o/29/3e/81/fa/caption.jpg?w=1000&s=1", "address": "574 Moo 6, Chumphon 86140 Thailand", "lat": 10.853387, "lng": 99.23621, "ref_id": 23174297, "rating": -1, "num_reviews": 0, "website": null, "contact_phone": null, "contact_email": null, "status": 1, "source_type": 1, "numberReviews": 0}, {"name": "Etiiyngkhuu", "type": "hotel", "image": "https://dynamic-media-cdn.tripadvisor.com/media/partner/bookingcom/photo-o/1c/c3/ba/ff/6742843.jpg?w=1000&s=1", "address": "297/3 Moo 9, Chumphon 86000 Thailand", "lat": 10.462198, "lng": 99.156784, "ref_id": 23171032, "rating": -1, "num_reviews": 0, "website": null, "contact_phone": null, "contact_email": null, "status": 1, "source_type": 1, "numberReviews": 0}, {"name": "A-Te Chumphon Hotel", "type": "hotel", "image": "https://dynamic-media-cdn.tripadvisor.com/media/photo-s/02/c2/4f/28/a-te-chumphon-hotel.jpg?w=1000&s=1", "address": "36, Thataphao Municipality Market Road Thataphao, Chumphon 86000 Thailand", "lat": 10.496083, "lng": 99.17486, "ref_id": 2032496, "rating": 4, "num_reviews": 0, "website": null, "contact_phone": "+66 77 503 222", "contact_email": null, "status": 1, "source_type": 1, "numberReviews": 217}, {"name": "Chalicha Resort", "type": "hotel", "image": "https://dynamic-media-cdn.tripadvisor.com/media/photo-s/02/ea/84/f9/chalicha-resort.jpg?w=1000&s=1", "address": "185 Moo.9 Tambon Takdad Muang, Chumphon 86000 Thailand", "lat": 10.494275, "lng": 99.17054, "ref_id": 1902123, "rating": 4, "num_reviews": 0, "website": "http://www.chalicha.com", "contact_phone": "+66 77 502 888", "contact_email": "chalicharesort@hotmail.com", "status": 1, "source_type": 1, "numberReviews": 128}, {"name": "Nana Beach Resort", "type": "hotel", "image": "https://dynamic-media-cdn.tripadvisor.com/media/photo-o/04/86/93/39/piscine.jpg?w=1000&s=1", "address": "10/2 Moo 8, Saphli 86230 Thailand", "lat": 10.570053, "lng": 99.27381, "ref_id": 3240734, "rating": 3.5, "num_reviews": 0, "website": "http://www.nanaburihotel.com/nanabeach/", "contact_phone": "+66 77 622 999", "contact_email": null, "status": 1, "source_type": 1, "numberReviews": 209}, {"name": "Magic House", "type": "hotel", "image": "https://dynamic-media-cdn.tripadvisor.com/media/photo-o/0b/0b/96/63/magic-house.jpg?w=1000&s=1", "address": "31/6 Moo 3, T.Hat Sai Ri Mueang Chumphon District, Chumphon 86120 Thailand", "lat": 10.358847, "lng": 99.26704, "ref_id": 10029951, "rating": 4.5, "num_reviews": 0, "website": null, "contact_phone": null, "contact_email": null, "status": 1, "source_type": 1, "numberReviews": 52}, {"name": "Euro Boutique Hotel", "type": "hotel", "image": "https://dynamic-media-cdn.tripadvisor.com/media/photo-o/1c/8e/27/53/caption.jpg?w=1000&s=1", "address": "73/3 Krommaluang Chumphon Road, Chumphon 86000 Thailand", "lat": 10.5007, "lng": 99.183, "ref_id": 4872656, "rating": 4, "num_reviews": 0, "website": "https://www.facebook.com/EuroBoutiqueHotel/", "contact_phone": "+66 77 502 300", "contact_email": "eurohotel.chumphon@gmail.com", "status": 1, "source_type": 1, "numberReviews": 139}, {"name": "Sara Beachfront Boutique Resort", "type": "hotel", "image": "https://dynamic-media-cdn.tripadvisor.com/media/photo-o/0a/b2/8a/cc/sara-boutique-resort.jpg?w=1000&s=1", "address": "Sara resort 40/1 Moo. 1 Banathap Bang Son, Pathio 86160 Thailand", "lat": 10.683081, "lng": 99.34419, "ref_id": 7249768, "rating": 4.5, "num_reviews": 0, "website": null, "contact_phone": "+66 86 060 1177", "contact_email": "contact@sara-resort-chumphon.com", "status": 1, "source_type": 1, "numberReviews": 125}, {"name": "Novotel Chumphon Beach Resort&Golf", "type": "hotel", "image": "https://dynamic-media-cdn.tripadvisor.com/media/photo-o/1b/f0/f1/14/photo0jpg.jpg?w=1000&s=1", "address": "110 Moo 4,Paradonpab Beach,Paknam, Chumphon 86120 Thailand", "lat": 10.426445, "lng": 99.26351, "ref_id": 653671, "rating": 3.5, "num_reviews": 0, "website": "all.accor.com", "contact_phone": "+66 77 529 429", "contact_email": "info@novotel-chumphon.com", "status": 1, "source_type": 1, "numberReviews": 475}, {"name": "Suriwong Chumphon Hotel", "type": "hotel", "image": "https://dynamic-media-cdn.tripadvisor.com/media/photo-o/1b/00/1e/24/20200223-181838-largejpg.jpg?w=1000&s=1", "address": "125/30 Saladaeng Rd Tha Taphao Subdistrict, Chumphon 86000 Thailand", "lat": 10.498876, "lng": 99.17667, "ref_id": 3792186, "rating": 3.5, "num_reviews": 0, "website": "https://www.facebook.com/Suriwong-chumphon-Hotel-114567216759143/", "contact_phone": "+66 77 511 203", "contact_email": null, "status": 1, "source_type": 1, "numberReviews": 57}, {"name": "Tanisa Resort", "type": "hotel", "image": "https://dynamic-media-cdn.tripadvisor.com/media/photo-o/12/3e/76/99/photo1jpg.jpg?w=1000&s=1", "address": "87 Moo 10, Uthumporn Road T. Natoong, Chumphon 86000 Thailand", "lat": 10.500273, "lng": 99.19464, "ref_id": 1546144, "rating": 4, "num_reviews": 0, "website": "http://www.tanisaresort.com", "contact_phone": "+66 77 501 055", "contact_email": "booking@tanisaresort.com", "status": 1, "source_type": 1, "numberReviews": 110}, {"name": "Villa Varich", "type": "hotel", "image": "https://dynamic-media-cdn.tripadvisor.com/media/photo-o/0a/d9/b7/f6/getlstd-property-photo.jpg?w=1000&s=1", "address": "56/1 Moo 3, Poraminmanka Road, Chumphon 86000 Thailand", "lat": 10.469077, "lng": 99.19272, "ref_id": 23092729, "rating": 5, "num_reviews": 0, "website": "https://www.villavarich.com/", "contact_phone": "+66 81 543 0344", "contact_email": "villavarich@gmail.com", "status": 1, "source_type": 1, "numberReviews": 102}, {"name": "The Beach Resort & Residence", "type": "hotel", "image": "https://dynamic-media-cdn.tripadvisor.com/media/photo-o/15/ef/09/3d/the-beach-residence.jpg?w=1000&s=1", "address": "188 Moo 6 Chum Kho, Pathio 86160 Thailand", "lat": 10.722481, "lng": 99.38534, "ref_id": 14916833, "rating": 4, "num_reviews": 0, "website": "http://www.thebeachresidence.com", "contact_phone": "+66 65 431 3005", "contact_email": "info@thebeachresidence.com", "status": 1, "source_type": 1, "numberReviews": 23}, {"name": "Palm Sweet Resort", "type": "hotel", "image": "https://dynamic-media-cdn.tripadvisor.com/media/photo-o/04/38/1b/ea/swimming-pool.jpg?w=1000&s=1", "address": "115/3 Moo 2, Chumphon 86000 Thailand", "lat": 10.47336, "lng": 99.20502, "ref_id": 3135203, "rating": 3.5, "num_reviews": 0, "website": "http://www.palmsweetresort.com/", "contact_phone": "+66 77 631 111", "contact_email": "palmsweetresort@hotmail.com", "status": 1, "source_type": 1, "numberReviews": 29}, {"name": "HOP INN Chumphon", "type": "hotel", "image": "https://dynamic-media-cdn.tripadvisor.com/media/photo-o/15/d4/38/96/hop-inn-chumphon.jpg?w=1000&s=1", "address": "75/59 Soi Krumluang Chumphon 3 Tha Taphao Subdistrict, Chumphon 86000 Thailand", "lat": 10.501714, "lng": 99.183876, "ref_id": 10006273, "rating": 4.5, "num_reviews": 0, "website": "http://www.hopinnhotel.com/hotel/chumphon/", "contact_phone": "+66 2 659 2899", "contact_email": "info@hopinnhotel.com", "status": 1, "source_type": 1, "numberReviews": 38}, {"name": "Loft Mania Boutique Hotel", "type": "hotel", "image": "https://dynamic-media-cdn.tripadvisor.com/media/photo-o/12/70/f8/a6/20180326-195236-largejpg.jpg?w=1000&s=1", "address": "89/9 Pisitpayabal Rd., Chumphon 86000 Thailand", "lat": 10.4967, "lng": 99.18157, "ref_id": 10810345, "rating": 3.5, "num_reviews": 0, "website": "https://www.facebook.com/Loft-Mania-Boutique-Hotel-Chumphon-1381954185163422/?ref=page_internal", "contact_phone": "+66 77 501 789", "contact_email": "loftmania.bh@gmail.com", "status": 1, "source_type": 1, "numberReviews": 47}, {"name": "At Night", "type": "hotel", "image": "https://dynamic-media-cdn.tripadvisor.com/media/photo-o/1c/41/c9/ae/20201030-200920-largejpg.jpg?w=1000&s=1", "address": "212/2 , Krumluang Chumphon 5,, Chumphon 86000 Thailand", "lat": 10.500166, "lng": 99.18001, "ref_id": 19728191, "rating": 5, "num_reviews": 0, "website": null, "contact_phone": null, "contact_email": null, "status": 1, "source_type": 1, "numberReviews": 9}, {"name": "The Nest Private Beach Resort", "type": "hotel", "image": "https://dynamic-media-cdn.tripadvisor.com/media/photo-o/1d/bd/61/1d/the-nest-private-beach.jpg?w=1000&s=1", "address": "100 Moo 7 Hat Sai Ri Sub District, Chumphon 86120 Thailand", "lat": 10.37868, "lng": 99.261925, "ref_id": 23612893, "rating": 4, "num_reviews": 0, "website": "https://www.thenestchumphon.com/", "contact_phone": "+66 92 273 7143", "contact_email": "gm@thenestchumphon.com", "status": 1, "source_type": 1, "numberReviews": 15}, {"name": "Retro Box Hotel", "type": "hotel", "image": "https://dynamic-media-cdn.tripadvisor.com/media/photo-o/16/32/cb/dc/photo2jpg.jpg?w=1000&s=1", "address": "89 Soi 3, Krumluang Chumphon Road Tha Taphao Subdistrict, Chumphon 86000 Thailand", "lat": 10.500624, "lng": 99.18418, "ref_id": 8630673, "rating": 4.5, "num_reviews": 0, "website": "http://www.retroboxhotel.com", "contact_phone": "+66 77 510 333", "contact_email": "contact@retroboxhotel.com", "status": 1, "source_type": 1, "numberReviews": 83}, {"name": "Moonrise Villa", "type": "hotel", "image": "https://dynamic-media-cdn.tripadvisor.com/media/photo-o/0e/62/57/a0/moonrise-villa.jpg?w=1000&s=1", "address": "55/5, Moo 8, Sa Plee, Pa Tew, Chumphon 86230 Thailand", "lat": 10.565128, "lng": 99.2737, "ref_id": 11697255, "rating": 4.5, "num_reviews": 0, "website": null, "contact_phone": null, "contact_email": null, "status": 1, "source_type": 1, "numberReviews": 7}, {"name": "ONE Chumphon Hotel", "type": "hotel", "image": null, "address": "31/2 Moo11 Soi Muangchumphon1 Muangchumphon Rd, Chumphon 86000 Thailand", "lat": 10.488836, "lng": 99.18205, "ref_id": 26437832, "rating": 5, "num_reviews": 0, "website": null, "contact_phone": "+66 82 965 9192", "contact_email": null, "status": 1, "source_type": 1, "numberReviews": 1}, {"name": "De Sea Almond", "type": "hotel", "image": "https://dynamic-media-cdn.tripadvisor.com/media/photo-o/0a/82/58/fd/de-sea-almond.jpg?w=1000&s=1", "address": "119/17 Moo 6 Hat Sai Ri subdistrict, Chumphon 86120 Thailand", "lat": 10.393711, "lng": 99.28023, "ref_id": 6585867, "rating": 4, "num_reviews": 0, "website": null, "contact_phone": "+66 81 916 9461", "contact_email": "deseaalmond@gmail.com", "status": 1, "source_type": 1, "numberReviews": 89}, {"name": "Ariya Garden Home", "type": "hotel", "image": "https://dynamic-media-cdn.tripadvisor.com/media/photo-o/14/26/24/33/ariya-garden-home.jpg?w=1000&s=1", "address": "Rural Road 4058 Nathung, Chumphon 86000 Thailand", "lat": 10.50076, "lng": 99.17408, "ref_id": 13557967, "rating": 4.5, "num_reviews": 0, "website": "http://www.facebook.com/ariyachumphonresort/", "contact_phone": "+66 86 455 0984", "contact_email": "livfcaom.ntw@gmail.com", "status": 1, "source_type": 1, "numberReviews": 4}, {"name": "Chumphon Palace Hotel", "type": "hotel", "image": "https://dynamic-media-cdn.tripadvisor.com/media/photo-o/06/3d/24/40/caption.jpg?w=1000&s=1", "address": "328/15 Pracha U-Thit road, Chumphon 86000 Thailand", "lat": 10.4947, "lng": 99.179886, "ref_id": 3479827, "rating": 3.5, "num_reviews": 0, "website": "http://www.chumphonpalacehotel.com", "contact_phone": "+(66)77571715-22", "contact_email": "chumphonpalacehotel@gmail.com", "status": 1, "source_type": 1, "numberReviews": 26}, {"name": "Southgate Residence Hotel", "type": "hotel", "image": "https://dynamic-media-cdn.tripadvisor.com/media/photo-o/0d/d8/b0/32/photo0jpg.jpg?w=1000&s=1", "address": "155 Trirat Rd. Moo 6 Na Thung, Chumphon 86000 Thailand", "lat": 10.514152, "lng": 99.18852, "ref_id": 10850291, "rating": 3.5, "num_reviews": 0, "website": "https://southgate-residence.business.site/", "contact_phone": "+66 93 575 0988", "contact_email": null, "status": 1, "source_type": 1, "numberReviews": 13}, {"name": "Paradorn Inn", "type": "hotel", "image": "https://dynamic-media-cdn.tripadvisor.com/media/photo-o/03/99/89/ad/paradorn-inn.jpg?w=1000&s=1", "address": "180/12 Saladang Rd, Chumphon Thailand", "lat": 10.499166, "lng": 99.17764, "ref_id": 2057743, "rating": 3, "num_reviews": 0, "website": "http://www.chumphon-paradorn.com/", "contact_phone": "+66 77 511 500", "contact_email": "sales@chumphon-paradorn.com", "status": 1, "source_type": 1, "numberReviews": 27}, {"name": "Armonia Village Resort and Spa", "type": "hotel", "image": "https://dynamic-media-cdn.tripadvisor.com/media/photo-s/02/32/9b/d8/armonia-village.jpg?w=1000&s=1", "address": "85, Moo 5 Na Cha-ang, Chumphon 86000 Thailand", "lat": 10.555159, "lng": 99.26982, "ref_id": 2149708, "rating": 4, "num_reviews": 0, "website": "http://www.armoniavillage.com", "contact_phone": "+66 77 622 899", "contact_email": "info@armoniavillage.com", "status": 1, "source_type": 1, "numberReviews": 45}, {"name": "Tong Chang Resort", "type": "hotel", "image": "https://dynamic-media-cdn.tripadvisor.com/media/photo-o/0e/65/69/d6/tong-chang-resort.jpg?w=1000&s=1", "address": "258 Mueang Chumphon Road Tambon Wang Phai, Chumphon 86190 Thailand", "lat": 10.533924, "lng": 99.12225, "ref_id": 12009832, "rating": 5, "num_reviews": 0, "website": "http://www.facebook.com/TongChangResort.Chumphon", "contact_phone": "+66 63 416 2589", "contact_email": "tongchangresort@gmail.com", "status": 1, "source_type": 1, "numberReviews": 1}, {"name": "Morakot Hotel", "type": "hotel", "image": "https://dynamic-media-cdn.tripadvisor.com/media/photo-o/1a/d0/3a/8a/caption.jpg?w=1000&s=1", "address": "Thaweesinka Road, Chumphon 86000 Thailand", "lat": 10.499544, "lng": 99.175545, "ref_id": 1927871, "rating": 3.5, "num_reviews": 0, "website": null, "contact_phone": "+66 77 502 999", "contact_email": null, "status": 1, "source_type": 1, "numberReviews": 34}, {"name": "Nana Buri Hotel", "type": "hotel", "image": "https://dynamic-media-cdn.tripadvisor.com/media/photo-o/1b/82/74/2e/photo0jpg.jpg?w=1000&s=1", "address": "355/9 Procha-Utid Rd, Thatapao Mueang, Chumphon 86000 Thailand", "lat": 10.498009, "lng": 99.17934, "ref_id": 8768843, "rating": 3.5, "num_reviews": 0, "website": null, "contact_phone": null, "contact_email": null, "status": 1, "source_type": 1, "numberReviews": 20}, {"name": "Baan Klang Suan Resort", "type": "hotel", "image": "https://dynamic-media-cdn.tripadvisor.com/media/photo-o/17/4c/e5/f6/baan-klang-suan-resort.jpg?w=1000&s=1", "address": "123 T.Laem Sai A.Lang Suan, Chumphon 86110 Thailand", "lat": 9.949909, "lng": 99.1012, "ref_id": 17301509, "rating": 3.5, "num_reviews": 0, "website": "http://www.facebook.com/BKS.resort/", "contact_phone": "+66 93 645 1596", "contact_email": "krittamate.pramniya@gmail.com", "status": 1, "source_type": 1, "numberReviews": 3}, {"name": "TCDF Eco-Logic", "type": "hotel", "image": "https://dynamic-media-cdn.tripadvisor.com/media/photo-o/2a/90/a3/4f/bungalow-treetops-has.jpg?w=1000&s=1", "address": "71/2 Moo 4, Phato 86180 Thailand", "lat": 9.757476, "lng": 98.70348, "ref_id": 1598646, "rating": 5, "num_reviews": 0, "website": "http://tcdf-ecologic.jimdo.com/", "contact_phone": "+66 86 172 1090", "contact_email": "tcdf.ecologic@gmail.com", "status": 1, "source_type": 1, "numberReviews": 159}, {"name": "Maliblues Bed & Dinner", "type": "hotel", "image": "https://dynamic-media-cdn.tripadvisor.com/media/photo-o/2a/4b/2b/8c/caption.jpg?w=1000&s=1", "address": "48/1 Moo 8, Saphli 86230 Thailand", "lat": 10.560534, "lng": 99.27374, "ref_id": 20342127, "rating": 5, "num_reviews": 0, "website": "https://www.facebook.com/Maliblues-Bed-Dinner-107516130673054/", "contact_phone": "+66 83 521 9266", "contact_email": null, "status": 1, "source_type": 1, "numberReviews": 5}, {"name": "Nanaburi Hotel", "type": "hotel", "image": "https://dynamic-media-cdn.tripadvisor.com/media/photo-o/02/68/46/d6/filename-img-0316-jpg.jpg?w=1000&s=1", "address": "Chumphon Thailand", "lat": 10.5128, "lng": 99.2183, "ref_id": 1219545, "rating": 3.5, "num_reviews": 0, "website": null, "contact_phone": "+66 77 503 888", "contact_email": "info@nanaburi.com", "status": 1, "source_type": 1, "numberReviews": 61}, {"name": "Baan I Talay @ Chumphon", "type": "hotel", "image": "https://dynamic-media-cdn.tripadvisor.com/media/photo-o/0d/bf/c4/24/photo2jpg.jpg?w=1000&s=1", "address": "81/2 Moo 3, Sairee, Chumphon 86120 Thailand", "lat": 10.358556, "lng": 99.266426, "ref_id": 7735725, "rating": 3.5, "num_reviews": 0, "website": null, "contact_phone": null, "contact_email": null, "status": 1, "source_type": 1, "numberReviews": 24}, {"name": "Nora Guesthouse", "type": "hotel", "image": "https://dynamic-media-cdn.tripadvisor.com/media/photo-o/13/d1/8d/64/nora-guesthouse.jpg?w=1000&s=1", "address": "75/30 Tha Taphao, Chumphon 86000 Thailand", "lat": 10.49731, "lng": 99.17437, "ref_id": 3313468, "rating": 3.5, "num_reviews": 0, "website": null, "contact_phone": null, "contact_email": null, "status": 1, "source_type": 1, "numberReviews": 21}, {"name": "View Seafood Resort", "type": "hotel", "image": "https://dynamic-media-cdn.tripadvisor.com/media/photo-o/05/c0/ce/6d/view-seafood-resort.jpg?w=1000&s=1", "address": "13/2 Moo 8 Saplee Pathiu, Chumphon 86230 Thailand", "lat": null, "lng": null, "ref_id": 1821807, "rating": 4.5, "num_reviews": 0, "website": null, "contact_phone": "+66 77 560 214", "contact_email": "", "status": 1, "source_type": 1, "numberReviews": 16}, {"name": "Chongko Farm Stay", "type": "hotel", "image": "https://dynamic-media-cdn.tripadvisor.com/media/photo-o/0d/6c/fc/b1/chongko-clubhouse-accomodation.jpg?w=1000&s=1", "address": "244 Moo 11, Lamae 86170 Thailand", "lat": 9.68851, "lng": 98.96418, "ref_id": 11491929, "rating": 4.5, "num_reviews": 0, "website": "http://chongko-farm-stay.business.site", "contact_phone": "+66 81 950 9047", "contact_email": "chongkofarmstay@gmail.com", "status": 1, "source_type": 1, "numberReviews": 6}, {"name": "Bar Horizon Hostel", "type": "hotel", "image": "https://dynamic-media-cdn.tripadvisor.com/media/photo-o/18/26/5b/7d/20190702-110023-largejpg.jpg?w=1000&s=1", "address": "42/2 Moo.9, Hat Sai Ri 86000 Thailand", "lat": 10.414773, "lng": 99.21463, "ref_id": 12931073, "rating": 4.5, "num_reviews": 0, "website": null, "contact_phone": null, "contact_email": null, "status": 1, "source_type": 1, "numberReviews": 5}, {"name": "Mestyle Resort", "type": "hotel", "image": "https://dynamic-media-cdn.tripadvisor.com/media/photo-o/13/d3/62/63/mestyle-resort.jpg?w=1000&s=1", "address": "Poraminmanka 10, Bang Mak 86000 Thailand", "lat": 10.484138, "lng": 99.18349, "ref_id": 12817841, "rating": 4, "num_reviews": 0, "website": "https://www.facebook.com/pages/category/Personal-Blog/Mestyle-Resort-%E0%B8%A1%E0%B8%B5%E0%B8%AA%E0%B9%84%E0%B8%95%E0%B8%A5%E0%B9%8C%E0%B8%A3%E0%B8%B5%E0%B8%AA%E0%B8%AD%E0%B8%A3%E0%B9%8C%E0%B8%97-%E0%B8%8B%E0%B9%82%E0%B8%9E%E0%B8%98%E0%B8%B2%E0%B8%A3%E0%B8%AA-%E0%B8%8A%E0%B8%B8%E0%B8%A1%E0%B8%9E%E0%B8%A3-157110908186691/", "contact_phone": null, "contact_email": null, "status": 1, "source_type": 1, "numberReviews": 9}, {"name": "Nong Mai Sairi Beach Resort", "type": "hotel", "image": "https://dynamic-media-cdn.tripadvisor.com/media/photo-o/05/96/88/f8/nong-mai-sairi-beach.jpg?w=1000&s=1", "address": "38/1 M.7 T.Had Sai Ri, Chumphon 86120 Thailand", "lat": 10.389522, "lng": 99.28124, "ref_id": 3313525, "rating": 4, "num_reviews": 0, "website": null, "contact_phone": null, "contact_email": null, "status": 1, "source_type": 1, "numberReviews": 8}, {"name": "Natcha Guest House", "type": "hotel", "image": "https://dynamic-media-cdn.tripadvisor.com/media/photo-o/10/98/46/51/location.jpg?w=1000&s=1", "address": "161/2 Pisitphayaban Road, Tambon Tatapaw, Chumphon 86000 Thailand", "lat": 10.49403, "lng": 99.18052, "ref_id": 2103782, "rating": 4, "num_reviews": 0, "website": null, "contact_phone": "+66 77 501 914", "contact_email": "aomnathan2000@yahoo.com", "status": 1, "source_type": 1, "numberReviews": 15}, {"name": "Chumphon Cabana Resort & Diving Center/Hotel", "type": "hotel", "image": "https://dynamic-media-cdn.tripadvisor.com/media/photo-o/12/0f/95/e9/img-20180206-152518-largejpg.jpg?w=1000&s=1", "address": "69 Moo 8 Thung Wua Laen Beach, Pathio 86230 Thailand", "lat": 10.557414, "lng": 99.273735, "ref_id": 537509, "rating": 3, "num_reviews": 0, "website": null, "contact_phone": "+66 77 560 245", "contact_email": "info@cabana.co.th", "status": 1, "source_type": 1, "numberReviews": 109}, {"name": "Matina Resort Chumphon", "type": "hotel", "image": "https://dynamic-media-cdn.tripadvisor.com/media/photo-o/13/e9/1a/95/photo0jpg.jpg?w=1000&s=1", "address": "78/1 Moo. 4, Boraminmunka 34 Road T. Bangmak, A. Mueang, Chumphon 86000 Thailand", "lat": 10.46793, "lng": 99.20124, "ref_id": 14172204, "rating": 4.5, "num_reviews": 0, "website": null, "contact_phone": "+66 89 927 2020", "contact_email": "tukata69@gmail.com", "status": 1, "source_type": 1, "numberReviews": 4}, {"name": "Banreurnthai Chumphon", "type": "hotel", "image": "https://dynamic-media-cdn.tripadvisor.com/media/photo-o/0c/a2/ca/04/banreurnthai-chumphon.jpg?w=1000&s=1", "address": "75 2 Soi Soon Rachakan 5, Trirat Road, Nathung, Mueang, Chumphon 86000 Thailand", "lat": 10.512318, "lng": 99.18456, "ref_id": 10449990, "rating": 5, "num_reviews": 0, "website": null, "contact_phone": "+66 95 564 6592", "contact_email": null, "status": 1, "source_type": 1, "numberReviews": 4}, {"name": "The Mountain View Hat Sai Ri Resort", "type": "hotel", "image": "https://dynamic-media-cdn.tripadvisor.com/media/photo-o/22/ee/26/68/caption.jpg?w=1000&s=1", "address": "Tailandia 44, Hat Sai Ri 86120 Thailand", "lat": 10.385668, "lng": 99.277916, "ref_id": 15333489, "rating": 4.5, "num_reviews": 0, "website": null, "contact_phone": "+66 93 692 1603", "contact_email": null, "status": 1, "source_type": 1, "numberReviews": 2}, {"name": "Tharadol Resort", "type": "hotel", "image": "https://dynamic-media-cdn.tripadvisor.com/media/photo-o/17/17/57/06/tharadol-resort.jpg?w=1000&s=1", "address": "180 Chalermphakiat Rd., Moo 4 Nathung Subdistrict, Chumphon 86000 Thailand", "lat": 10.511851, "lng": 99.20609, "ref_id": 11661264, "rating": 4.5, "num_reviews": 0, "website": "http://www.tharadolresort.com", "contact_phone": "+66 77 510 913", "contact_email": "tharadol.resort@gmail.com", "status": 1, "source_type": 1, "numberReviews": 4}, {"name": "Cottage by the River", "type": "hotel", "image": "https://dynamic-media-cdn.tripadvisor.com/media/photo-o/11/28/e8/37/sitting-area-in-the-garden.jpg?w=1000&s=1", "address": "Pak Tako, Thung Tako District, Chumphon 86220 Thailand", "lat": 10.09591, "lng": 99.143, "ref_id": 13086971, "rating": 5, "num_reviews": 0, "website": "http://www.facebook.com/CottageByTheRiver/", "contact_phone": "+66 99 424 9041", "contact_email": "b.pimnada@gmail.com", "status": 1, "source_type": 1, "numberReviews": 2}, {"name": "Lion Hotel Chumphon", "type": "hotel", "image": null, "address": "118/52 Suksamur 8 Alley, Tha Taphao 86000 Thailand", "lat": 10.49953, "lng": 99.18102, "ref_id": 26612425, "rating": 5, "num_reviews": 0, "website": "https://www.facebook.com/people/%E0%B9%84%E0%B8%A5%E0%B8%AD%E0%B9%89%E0%B8%AD%E0%B8%99-%E0%B9%82%E0%B8%AE%E0%B9%80%E0%B8%97%E0%B8%A5/100076323044034/", "contact_phone": "+66 95 257 7576", "contact_email": "Leam090416@gmail.com", "status": 1, "source_type": 1, "numberReviews": 1}, {"name": "Duangjai Resort", "type": "hotel", "image": "https://dynamic-media-cdn.tripadvisor.com/media/photo-o/05/a2/65/b1/caption.jpg?w=1000&s=1", "address": "23/3 Moo 4, Wisai Nuea sub-district, Chumphon 86100 Thailand", "lat": null, "lng": null, "ref_id": 4086573, "rating": 4, "num_reviews": 0, "website": null, "contact_phone": "+66 77 556 179", "contact_email": null, "status": 1, "source_type": 1, "numberReviews": 5}, {"name": "Iyara Resort", "type": "hotel", "image": "https://dynamic-media-cdn.tripadvisor.com/media/photo-o/02/f5/11/c8/iyara-resort.jpg?w=1000&s=1", "address": "3/3 Donmung-Nongsom Road Wangpai, Chumphon 86000 Thailand", "lat": 10.53667, "lng": 99.12942, "ref_id": 2546899, "rating": 5, "num_reviews": 0, "website": null, "contact_phone": "+66 77 510 917", "contact_email": "iyararesort@hotmail.com", "status": 1, "source_type": 1, "numberReviews": 1}, {"name": "Chingcho Hotel Pathio", "type": "hotel", "image": null, "address": "3 Moo 7, Pathio 86160 Thailand", "lat": 10.79739, "lng": 99.35479, "ref_id": 18930474, "rating": 5, "num_reviews": 0, "website": null, "contact_phone": "+66 77 591 591", "contact_email": null, "status": 1, "source_type": 1, "numberReviews": 1}, {"name": "Chogun Hostel", "type": "hotel", "image": "https://dynamic-media-cdn.tripadvisor.com/media/partner/bookingcom/photo-o/27/25/74/1e/caption.jpg?w=1000&s=1", "address": "69-69/1 Krom Luang Chumphon Rd, Chumphon 86000 Thailand", "lat": 10.49875, "lng": 99.18008, "ref_id": 17666881, "rating": 4.5, "num_reviews": 0, "website": "https://www.facebook.com/chogunhostelchumphon/", "contact_phone": "+66 81 537 8477", "contact_email": null, "status": 1, "source_type": 1, "numberReviews": 2}, {"name": "Tawanchai Resort", "type": "hotel", "image": "https://dynamic-media-cdn.tripadvisor.com/media/photo-o/05/6e/b9/36/der-park.jpg?w=1000&s=1", "address": "68/2 Moo 5, Tambon Na Cha Ang, Chumphon 86000 Thailand", "lat": 10.493852, "lng": 99.17999, "ref_id": 3240955, "rating": 4.5, "num_reviews": 0, "website": null, "contact_phone": "+66 77 501 874", "contact_email": null, "status": 1, "source_type": 1, "numberReviews": 3}, {"name": "TongTomYai Homestay", "type": "hotel", "image": null, "address": "31/2 Moo 1, Chumphon 86130 Thailand", "lat": 10.212457, "lng": 99.20559, "ref_id": 11758466, "rating": 4.5, "num_reviews": 0, "website": null, "contact_phone": null, "contact_email": null, "status": 1, "source_type": 1, "numberReviews": 2}, {"name": "Baan Sipsong Panna", "type": "hotel", "image": "https://dynamic-media-cdn.tripadvisor.com/media/partner/bookingcom/photo-o/2b/40/25/ba/caption.jpg?w=1000&s=1", "address": "131,Moo.5,, Chumphon 86000 Thailand", "lat": 10.46038, "lng": 99.15552, "ref_id": 17580972, "rating": 5, "num_reviews": 0, "website": null, "contact_phone": null, "contact_email": null, "status": 1, "source_type": 1, "numberReviews": 1}, {"name": "Chaokoh Dive Resort", "type": "hotel", "image": null, "address": "14/10 Moo 8 Ban Phru Ching, Saphli 86000 Thailand", "lat": 10.560573, "lng": 99.26955, "ref_id": 9744779, "rating": 4.5, "num_reviews": 0, "website": null, "contact_phone": null, "contact_email": null, "status": 1, "source_type": 1, "numberReviews": 3}, {"name": "Ban Suan Saart", "type": "hotel", "image": "https://dynamic-media-cdn.tripadvisor.com/media/partner/bookingcom/photo-o/1f/b4/b9/d9/caption.jpg?w=1000&s=1", "address": "33/3, Moo 14, Langsuanratchakoot Road, Ban Kayae 86180 Thailand", "lat": 9.95039, "lng": 99.12483, "ref_id": 12559967, "rating": 5, "num_reviews": 0, "website": null, "contact_phone": null, "contact_email": null, "status": 1, "source_type": 1, "numberReviews": 1}, {"name": "Aranya Resort", "type": "hotel", "image": null, "address": "36/1 Moo 6 Haad Sai Ri, Mueang, Chumphon 86120 Thailand", "lat": 10.393944, "lng": 99.27862, "ref_id": 12911407, "rating": 5, "num_reviews": 0, "website": null, "contact_phone": null, "contact_email": null, "status": 1, "source_type": 1, "numberReviews": 1}, {"name": "Phupang Resort", "type": "hotel", "image": "https://dynamic-media-cdn.tripadvisor.com/media/partner/bookingcom/photo-o/1a/1a/f8/84/2645457.jpg?w=1000&s=1", "address": "159 Moo3, Phetkasam road, Chumphon 86140 Thailand", "lat": 10.521578, "lng": 99.11862, "ref_id": 12852557, "rating": 5, "num_reviews": 0, "website": null, "contact_phone": null, "contact_email": null, "status": 1, "source_type": 1, "numberReviews": 1}, {"name": "Steelloft Home Stay", "type": "hotel", "image": "https://dynamic-media-cdn.tripadvisor.com/media/photo-o/16/0a/fb/0d/steelloft-home-stay.jpg?w=1000&s=1", "address": "288 Moo, 9, Lamae 86170 Thailand", "lat": 9.92428, "lng": 99.08068, "ref_id": 15527935, "rating": 5, "num_reviews": 0, "website": null, "contact_phone": null, "contact_email": null, "status": 1, "source_type": 1, "numberReviews": 1}, {"name": "Railway Hostel", "type": "hotel", "image": null, "address": "Chumphon 86000 Thailand", "lat": 10.50183, "lng": 99.17518, "ref_id": 11848444, "rating": 5, "num_reviews": 0, "website": null, "contact_phone": null, "contact_email": null, "status": 1, "source_type": 1, "numberReviews": 1}, {"name": "C House Resort", "type": "hotel", "image": null, "address": "31-32 Moo. 5, Saphli 86130 Thailand", "lat": 10.59367, "lng": 99.28009, "ref_id": 12165163, "rating": 3.5, "num_reviews": 0, "website": null, "contact_phone": null, "contact_email": null, "status": 1, "source_type": 1, "numberReviews": 3}, {"name": "99 Bay Resort", "type": "hotel", "image": "https://dynamic-media-cdn.tripadvisor.com/media/photo-o/19/a3/d1/4b/bungalows-en-rose-a-gauche.jpg?w=1000&s=1", "address": "9 Moo 4 Paknam Langsuan, Chumphon 86150 Thailand", "lat": 10.525317, "lng": 99.11701, "ref_id": 3135204, "rating": 4, "num_reviews": 0, "website": "", "contact_phone": "+66 77 551 133", "contact_email": "", "status": 1, "source_type": 1, "numberReviews": 2}, {"name": "Love You Resort", "type": "hotel", "image": null, "address": "11 M.3 Wangpai, Chumphon 86000 Thailand", "lat": 10.50091, "lng": 99.13717, "ref_id": 8701668, "rating": 3.5, "num_reviews": 0, "website": null, "contact_phone": null, "contact_email": null, "status": 1, "source_type": 1, "numberReviews": 3}, {"name": "Room And Restaurant Little Italy", "type": "hotel", "image": null, "address": "119/4 Moo6 Hat Sai Ri Road, Chumphon 86120 Thailand", "lat": null, "lng": null, "ref_id": 15348558, "rating": 4, "num_reviews": 0, "website": null, "contact_phone": null, "contact_email": null, "status": 1, "source_type": 1, "numberReviews": 1}, {"name": "Baan Kamnerdploy Resort", "type": "hotel", "image": "https://dynamic-media-cdn.tripadvisor.com/media/photo-o/1a/64/c6/20/un-paradis-pour-budget.jpg?w=1000&s=1", "address": "1/1 Moo 5, Pathiu, Chumphon, Pathio 86120 Thailand", "lat": 10.98206, "lng": 99.49193, "ref_id": 3351261, "rating": 4, "num_reviews": 0, "website": null, "contact_phone": "+66 77 640 632", "contact_email": null, "status": 1, "source_type": 1, "numberReviews": 1}, {"name": "Seabeach Resort", "type": "hotel", "image": "https://dynamic-media-cdn.tripadvisor.com/media/photo-o/05/98/aa/2a/seabeach-resort.jpg?w=1000&s=1", "address": "4/8 Moo 8, Saphli 86230 Thailand", "lat": 10.576569, "lng": 99.27614, "ref_id": 3241931, "rating": 3.5, "num_reviews": 0, "website": null, "contact_phone": null, "contact_email": null, "status": 1, "source_type": 1, "numberReviews": 4}, {"name": "Brs Hotel", "type": "hotel", "image": "https://dynamic-media-cdn.tripadvisor.com/media/photo-o/17/22/1f/2f/screenshot-20190412-143030.jpg?w=1000&s=1", "address": "191 Pisitpayaban Rd, Chumphon 86000 Thailand", "lat": 10.45019, "lng": 99.2175, "ref_id": 16720067, "rating": 4, "num_reviews": 0, "website": null, "contact_phone": null, "contact_email": null, "status": 1, "source_type": 1, "numberReviews": 1}, {"name": "Navara Resort", "type": "hotel", "image": "https://dynamic-media-cdn.tripadvisor.com/media/partner/bookingcom/photo-o/2b/9c/c3/eb/caption.jpg?w=1000&s=1", "address": "197 Moo 6, Chum Ljp. Phathiu, Chumphon 80160 Thailand", "lat": 10.708256, "lng": 99.36934, "ref_id": 12903775, "rating": 4, "num_reviews": 0, "website": "https://www.facebook.com/Navara-Resort-1835569849829177/", "contact_phone": null, "contact_email": null, "status": 1, "source_type": 1, "numberReviews": 1}, {"name": "O.K. Hotel", "type": "hotel", "image": "https://dynamic-media-cdn.tripadvisor.com/media/photo-o/10/be/7a/77/img-20161214-175525-largejpg.jpg?w=1000&s=1", "address": "117 Moo.2, Soi Mueang 19, T. Wangpai, Chumphon 86000 Thailand", "lat": 10.494763, "lng": 99.15726, "ref_id": 5512075, "rating": 4, "num_reviews": 0, "website": null, "contact_phone": "+66 77 504 966", "contact_email": null, "status": 1, "source_type": 1, "numberReviews": 1}, {"name": "Panatara Hotel", "type": "hotel", "image": "https://dynamic-media-cdn.tripadvisor.com/media/partner/bookingcom/photo-o/22/e7/e5/4f/caption.jpg?w=1000&s=1", "address": "240/1 Moo 2,Poraminthara Makkha Road, Chumphon 86000 Thailand", "lat": 10.49364, "lng": 99.17837, "ref_id": 5502435, "rating": 3, "num_reviews": 0, "website": null, "contact_phone": "+66 77 511 702", "contact_email": null, "status": 1, "source_type": 1, "numberReviews": 2}, {"name": "Pueanjai Resort and Restuarant", "type": "hotel", "image": "https://dynamic-media-cdn.tripadvisor.com/media/photo-o/12/4c/8e/8a/img-20180309-183749-largejpg.jpg?w=1000&s=1", "address": "297/1 Moo 9, Trakdad, Chumphon 86000 Thailand", "lat": 10.55027, "lng": 99.09309, "ref_id": 12295347, "rating": 3.5, "num_reviews": 0, "website": null, "contact_phone": null, "contact_email": null, "status": 1, "source_type": 1, "numberReviews": 3}, {"name": "Buadara Chumphon Resort", "type": "hotel", "image": "https://dynamic-media-cdn.tripadvisor.com/media/photo-o/04/b8/2c/63/caption.jpg?w=1000&s=1", "address": "24/6 Moo 5, Soi 10 Saphli, Pathio 86230 Thailand", "lat": 10.639014, "lng": 99.29031, "ref_id": 3181877, "rating": 3.5, "num_reviews": 0, "website": "https://www.buadararesort.com/", "contact_phone": "+66 77 560 009", "contact_email": "", "status": 1, "source_type": 1, "numberReviews": 5}, {"name": "The Ozone City Resort", "type": "hotel", "image": "https://dynamic-media-cdn.tripadvisor.com/media/photo-o/0b/e9/75/aa/the-ozone-city-resort.jpg?w=1000&s=1", "address": "47/29 Moo 10 Na Thung Subdistrict, Chumphon 86000 Thailand", "lat": 10.496122, "lng": 99.197266, "ref_id": 5512143, "rating": 3.5, "num_reviews": 0, "website": null, "contact_phone": null, "contact_email": null, "status": 1, "source_type": 1, "numberReviews": 2}, {"name": "Miao House", "type": "hotel", "image": null, "address": "17/6 Moo8 Cabana Road Saphli Patio, Chumphon 86230 Thailand", "lat": null, "lng": null, "ref_id": 1985456, "rating": 4, "num_reviews": 0, "website": null, "contact_phone": "+66 85 784 0119", "contact_email": "info@miaohouse.com", "status": 1, "source_type": 1, "numberReviews": 2}, {"name": "PN Resort", "type": "hotel", "image": "https://dynamic-media-cdn.tripadvisor.com/media/photo-o/05/2b/56/a6/pn-resort.jpg?w=1000&s=1", "address": "Hat Laem Son Beach, Bang Nam Jued sub-district, Lang Suan Thailand", "lat": null, "lng": null, "ref_id": 4134796, "rating": 3, "num_reviews": 0, "website": null, "contact_phone": "+66 86 476 2427", "contact_email": null, "status": 1, "source_type": 1, "numberReviews": 5}, {"name": "Siam Dreams Guesthouse", "type": "hotel", "image": "https://dynamic-media-cdn.tripadvisor.com/media/photo-o/05/7a/8d/b9/the-front-of-the-guesthouse.jpg?w=1000&s=1", "address": "361/14 Soi3/1 Sooksamer Rd, Chumphon 86000 Thailand", "lat": 10.49641, "lng": 99.18073, "ref_id": 3242147, "rating": 4, "num_reviews": 0, "website": null, "contact_phone": null, "contact_email": null, "status": 1, "source_type": 1, "numberReviews": 1}, {"name": "Kamonchanok Resort", "type": "hotel", "image": null, "address": "32/4 Moo 7, Chumphon 86120 Thailand", "lat": null, "lng": null, "ref_id": 3479774, "rating": 4, "num_reviews": 0, "website": null, "contact_phone": null, "contact_email": null, "status": 1, "source_type": 1, "numberReviews": 1}, {"name": "Siritip Guesthouse", "type": "hotel", "image": "https://dynamic-media-cdn.tripadvisor.com/media/photo-o/05/21/b5/41/siritip-guesthouse.jpg?w=1000&s=1", "address": "14/4 Moo 4 T. Hat Sai Ri, Chumphon 84000 Thailand", "lat": 10.52468, "lng": 99.11698, "ref_id": 3312765, "rating": 4, "num_reviews": 0, "website": null, "contact_phone": null, "contact_email": null, "status": 1, "source_type": 1, "numberReviews": 1}, {"name": "Lamae Beach Resort", "type": "hotel", "image": null, "address": "87/1 Paknam Lamae, Lamae Rd., Lamae 86170 Thailand", "lat": 9.78827, "lng": 99.13856, "ref_id": 17366733, "rating": 3, "num_reviews": 0, "website": null, "contact_phone": null, "contact_email": null, "status": 1, "source_type": 1, "numberReviews": 1}, {"name": "Thawat Hotel", "type": "hotel", "image": "https://dynamic-media-cdn.tripadvisor.com/media/photo-o/16/7a/f1/ce/thawat-hotel.jpg?w=1000&s=1", "address": "135 Khao Ngoen Road Tambon Khan Ngoen, Lang Suan 86110 Thailand", "lat": 9.9516, "lng": 99.07317, "ref_id": 15503585, "rating": 3, "num_reviews": 0, "website": null, "contact_phone": null, "contact_email": null, "status": 1, "source_type": 1, "numberReviews": 1}, {"name": "Baan Chumphon", "type": "hotel", "image": null, "address": "69/4 Moo 8 Thung Wua Laen Beach, Saphi, Pathio 86230 Thailand", "lat": 10.56869, "lng": 99.27381, "ref_id": 14112066, "rating": 3, "num_reviews": 0, "website": null, "contact_phone": null, "contact_email": null, "status": 1, "source_type": 1, "numberReviews": 1}, {"name": "Sai Ngam Beach Resort", "type": "hotel", "image": "https://dynamic-media-cdn.tripadvisor.com/media/photo-o/08/23/9f/b2/sai-ngam-beach-resort.jpg?w=1000&s=1", "address": "2/29 Moo 5 Pak Khlong, Pathio 86210 Thailand", "lat": null, "lng": null, "ref_id": 1738251, "rating": 3, "num_reviews": 0, "website": null, "contact_phone": "+66 97 243 6266", "contact_email": "info@saingambeachresort.com", "status": 1, "source_type": 1, "numberReviews": 16}, {"name": "Chumphon Park Resort", "type": "hotel", "image": "https://dynamic-media-cdn.tripadvisor.com/media/photo-o/0f/1e/a0/4c/20170425-130304-largejpg_rotated_90.jpg?w=1000&s=1", "address": "265/3 Moo 9 Charunrat Tumbol Takdad Amphoe Jaroonratpattana Rd, Chumphon 86000 Thailand", "lat": 10.493811, "lng": 99.17254, "ref_id": 3241157, "rating": 3, "num_reviews": 0, "website": null, "contact_phone": "077575077-8", "contact_email": null, "status": 1, "source_type": 1, "numberReviews": 3}, {"name": "Jansom Chumphon Hotel", "type": "hotel", "image": "https://dynamic-media-cdn.tripadvisor.com/media/partner/bookingcom/photo-o/19/b2/de/ac/4697911.jpg?w=1000&s=1", "address": "188/138 Saladaeng Road, Thatapao, Chumphon 86000 Thailand", "lat": 10.499467, "lng": 99.17343, "ref_id": 1582833, "rating": 3, "num_reviews": 0, "website": null, "contact_phone": "66 7750 250611", "contact_email": "", "status": 1, "source_type": 1, "numberReviews": 9}, {"name": "Yong Dee Apartment", "type": "hotel", "image": "https://dynamic-media-cdn.tripadvisor.com/media/photo-o/08/00/1d/74/caption.jpg?w=1000&s=1", "address": "25/55-56 Krommaluang Road Tatapao, Chumphon 86000 Thailand", "lat": 10.50086, "lng": 99.19226, "ref_id": 2587394, "rating": 3, "num_reviews": 0, "website": null, "contact_phone": "+66 77 511 428", "contact_email": "booking@yongdeeapartment.com", "status": 1, "source_type": 1, "numberReviews": 6}, {"name": "Fame Guesthouse", "type": "hotel", "image": "https://dynamic-media-cdn.tripadvisor.com/media/photo-o/0d/a8/ae/98/photo0jpg.jpg?w=1000&s=1", "address": "188/20-21 Sala Deang Road, Chumphon 86000 Thailand", "lat": 10.49828, "lng": 99.17667, "ref_id": 3308516, "rating": 3, "num_reviews": 0, "website": "http://www.chumphon-kohtao.com/guesthouse.html", "contact_phone": "+66 77 571 077", "contact_email": null, "status": 1, "source_type": 1, "numberReviews": 48}, {"name": "Kangpheka Resort", "type": "hotel", "image": null, "address": "168 Moo 3, Sap Anan, Tha Sae 86140 Thailand", "lat": 10.69132, "lng": 99.20479, "ref_id": 7058116, "rating": 2, "num_reviews": 0, "website": null, "contact_phone": null, "contact_email": null, "status": 1, "source_type": 1, "numberReviews": 1}, {"name": "Sook San Guesthouse", "type": "hotel", "image": null, "address": "116/29 Krommaluang Road Tatapao, Chumphon 86000 Thailand", "lat": 10.499907, "lng": 99.1814, "ref_id": 3513993, "rating": 1, "num_reviews": 0, "website": null, "contact_phone": "+66 77 505 005", "contact_email": "booking@sooksanguesthouse.com", "status": 1, "source_type": 1, "numberReviews": 1}, {"name": "Starlight Beach Resort", "type": "hotel", "image": null, "address": "81 Moo 1 Paradonpab Beach, Chumphon 86120 Thailand", "lat": 10.423366, "lng": 99.269775, "ref_id": 6577538, "rating": 2.5, "num_reviews": 0, "website": "https://www.facebook.com/StarlightBeachResort/?ref=page_internal", "contact_phone": "+66 77 522 009", "contact_email": "sayhinut@hotmail.com", "status": 1, "source_type": 1, "numberReviews": 6}, {"name": "Choti Memorial Resort & Spa", "type": "hotel", "image": "https://dynamic-media-cdn.tripadvisor.com/media/partner/bookingcom/photo-o/1a/5f/74/05/bedroom.jpg?w=1000&s=1", "address": "222/22 Moo 1, Tambon Bang, Chumphon 86000 Thailand", "lat": 10.52796, "lng": 99.17618, "ref_id": 13976041, "rating": -1, "num_reviews": 0, "website": null, "contact_phone": null, "contact_email": null, "status": 1, "source_type": 1, "numberReviews": 0}, {"name": "Trirat Hometel", "type": "hotel", "image": null, "address": "156 Hmu9 Th. Tirratn, Chumphon 86000 Thailand", "lat": 10.506187, "lng": 99.17948, "ref_id": 15584413, "rating": -1, "num_reviews": 0, "website": null, "contact_phone": null, "contact_email": null, "status": 1, "source_type": 1, "numberReviews": 0}, {"name": "Ok Hotel Chumphon", "type": "hotel", "image": "https://dynamic-media-cdn.tripadvisor.com/media/partner/bookingcom/photo-o/29/e8/a0/df/caption.jpg?w=1000&s=1", "address": "117 M.2 T.W\u1ea1ngpphi X.Meuxng C.Chumphr, Chumphon 86000 Thailand", "lat": 10.494516, "lng": 99.15727, "ref_id": 17587243, "rating": -1, "num_reviews": 0, "website": null, "contact_phone": null, "contact_email": null, "status": 1, "source_type": 1, "numberReviews": 0}, {"name": "Dawrerng Hotel", "type": "hotel", "image": null, "address": "33/5 Nathung Subdistrict District Chumphon Province, Chumphon 86000 Thailand", "lat": 10.49399, "lng": 99.19433, "ref_id": 3184643, "rating": -1, "num_reviews": 0, "website": null, "contact_phone": "+66 77 642 622", "contact_email": "", "status": 1, "source_type": 1, "numberReviews": 0}, {"name": "The Nouveau Chumphon Beach Resort & Golf", "type": "hotel", "image": null, "address": "Mueang Chumphon District, Chumphon 86120 Thailand", "lat": 10.425755, "lng": 99.26345, "ref_id": 27467637, "rating": -1, "num_reviews": 0, "website": null, "contact_phone": "+66 77 529 529", "contact_email": null, "status": 1, "source_type": 1, "numberReviews": 0}, {"name": "Jae's Garden Home Resort", "type": "hotel", "image": null, "address": "318 M.8 T.Tha Kham, Chumphon 86140 Thailand", "lat": 10.5627, "lng": 99.11548, "ref_id": 15521388, "rating": -1, "num_reviews": 0, "website": "https://www.facebook.com/JaeGardenHomeResort/", "contact_phone": "+66 94 926 3247", "contact_email": null, "status": 1, "source_type": 1, "numberReviews": 0}, {"name": "Junjira Resort", "type": "hotel", "image": null, "address": "4/9 Moo 2 Pak Nam, Mueang, Chumphon 86120 Thailand", "lat": 10.42649, "lng": 99.23788, "ref_id": 17547339, "rating": -1, "num_reviews": 0, "website": null, "contact_phone": null, "contact_email": null, "status": 1, "source_type": 1, "numberReviews": 0}, {"name": "Baan Pak Ruenthai Resort", "type": "hotel", "image": null, "address": "T. Nathung A. Muang 75/2, Chumphon Thailand", "lat": 10.513646, "lng": 99.1858, "ref_id": 20907479, "rating": -1, "num_reviews": 0, "website": null, "contact_phone": null, "contact_email": null, "status": 1, "source_type": 1, "numberReviews": 0}, {"name": "S\u0304uk\u0304h Semx Kes\u0304 He\u0101 S", "type": "hotel", "image": null, "address": "118/4 T\u0304hnn Sxy Suk\u0304h Semx 8 T\u1ea3bl Th\u0300\u0101 Tap\u0323he\u0101, Chumphon 86000 Thailand", "lat": 10.49958, "lng": 99.18152, "ref_id": 21303585, "rating": -1, "num_reviews": 0, "website": null, "contact_phone": null, "contact_email": null, "status": 1, "source_type": 1, "numberReviews": 0}, {"name": "Leapusorn Resort", "type": "hotel", "image": null, "address": "1 Moo 2 R.Pagklong Pataew City Chumphon, Chumphon 77170 Thailand", "lat": 10.714483, "lng": 99.3588, "ref_id": 4871010, "rating": -1, "num_reviews": 0, "website": null, "contact_phone": null, "contact_email": null, "status": 1, "source_type": 1, "numberReviews": 0}, {"name": "Dang Resort", "type": "hotel", "image": null, "address": "71/5 Moo 8, Chumphon Thailand", "lat": 10.49305, "lng": 99.18002, "ref_id": 15187376, "rating": -1, "num_reviews": 0, "website": null, "contact_phone": null, "contact_email": null, "status": 1, "source_type": 1, "numberReviews": 0}, {"name": "Nuntarudee Resort", "type": "hotel", "image": null, "address": "Theph Vththi\u0312, Chumphon 86000 Thailand", "lat": 10.468486, "lng": 99.20504, "ref_id": 23900970, "rating": -1, "num_reviews": 0, "website": null, "contact_phone": null, "contact_email": null, "status": 1, "source_type": 1, "numberReviews": 0}, {"name": "M House Apartment", "type": "hotel", "image": null, "address": "Soi 4 , Krumma Luang Road 112/35, Chumphon Thailand", "lat": 10.50028, "lng": 99.18035, "ref_id": 20907437, "rating": -1, "num_reviews": 0, "website": null, "contact_phone": null, "contact_email": null, "status": 1, "source_type": 1, "numberReviews": 0}, {"name": "Prakarang Resort", "type": "hotel", "image": null, "address": "Krom Luang Road, Soi 3, Thatapao 89/18, Chumphon Thailand", "lat": 10.501119, "lng": 99.18405, "ref_id": 20907430, "rating": -1, "num_reviews": 0, "website": null, "contact_phone": null, "contact_email": null, "status": 1, "source_type": 1, "numberReviews": 0}, {"name": "Room 9 Hometel", "type": "hotel", "image": null, "address": "30/5 Moo 6, Chumphon 86210 Thailand", "lat": 10.848091, "lng": 99.431816, "ref_id": 21370483, "rating": -1, "num_reviews": 0, "website": null, "contact_phone": null, "contact_email": null, "status": 1, "source_type": 1, "numberReviews": 0}, {"name": "Thawesup Apartment", "type": "hotel", "image": null, "address": "Soi Krom Luang1/2, Thatapao 51/10, Chumphon Thailand", "lat": 10.500983, "lng": 99.181694, "ref_id": 20907425, "rating": -1, "num_reviews": 0, "website": null, "contact_phone": null, "contact_email": null, "status": 1, "source_type": 1, "numberReviews": 0}, {"name": "Nicasio Hotel", "type": "hotel", "image": null, "address": "106/1-2 Wongphai, Meaung, Chumphon 86000 Thailand", "lat": 10.49776, "lng": 99.17471, "ref_id": 13100332, "rating": -1, "num_reviews": 0, "website": null, "contact_phone": null, "contact_email": null, "status": 1, "source_type": 1, "numberReviews": 0}, {"name": "Traithong Guesthouse", "type": "hotel", "image": null, "address": "M. 6 T. Nachaaung A. Muang 110/3, Chumphon Thailand", "lat": 10.545936, "lng": 99.2282, "ref_id": 20907417, "rating": -1, "num_reviews": 0, "website": null, "contact_phone": null, "contact_email": null, "status": 1, "source_type": 1, "numberReviews": 0}, {"name": "Baanrommai Resort", "type": "hotel", "image": null, "address": "Nachaaung 293 M.1, Chumphon Thailand", "lat": 10.521071, "lng": 99.195885, "ref_id": 20907406, "rating": -1, "num_reviews": 0, "website": null, "contact_phone": null, "contact_email": null, "status": 1, "source_type": 1, "numberReviews": 0}, {"name": "Baan Phum Mai Resort1", "type": "hotel", "image": null, "address": "Kiri Rat Road 3180, Chumphon Thailand", "lat": 10.5317, "lng": 99.204865, "ref_id": 20878708, "rating": -1, "num_reviews": 0, "website": null, "contact_phone": null, "contact_email": null, "status": 1, "source_type": 1, "numberReviews": 0}, {"name": "Love You Resort", "type": "hotel", "image": null, "address": "Soi Sukhaphiban 8/1, Chumphon 86000 Thailand", "lat": 10.50157, "lng": 99.13592, "ref_id": 19634583, "rating": -1, "num_reviews": 0, "website": null, "contact_phone": null, "contact_email": null, "status": 1, "source_type": 1, "numberReviews": 0}, {"name": "Baan Poommai Resort", "type": "hotel", "image": null, "address": "8/1 Moo 7 T. Nachaung, Chumphon 86000 Thailand", "lat": 10.5077, "lng": 99.12543, "ref_id": 5513025, "rating": -1, "num_reviews": 0, "website": null, "contact_phone": null, "contact_email": null, "status": 1, "source_type": 1, "numberReviews": 0}, {"name": "Sukh Praserith Risxr\u0312th", "type": "hotel", "image": null, "address": "34 Hmu 4 T.Bangkhnthi, Chumphon 75120 Thailand", "lat": 10.51009, "lng": 99.12176, "ref_id": 22063021, "rating": -1, "num_reviews": 0, "website": null, "contact_phone": null, "contact_email": null, "status": 1, "source_type": 1, "numberReviews": 0}, {"name": "Orngaerm Kaandaakaaredn", "type": "hotel", "image": "https://dynamic-media-cdn.tripadvisor.com/media/partner/bookingcom/photo-o/1c/e4/6f/5f/6829448.jpg?w=1000&s=1", "address": "T\u0304hnn th\u0300\u0101 s\u00e6a_th\u0300\u0101 s\u0304a h\u0304em\u0306 d m.12 T.Th\u0300\u0101 s\u00e6a, Chumphon 86140 Thailand", "lat": 10.644657, "lng": 99.18351, "ref_id": 23261721, "rating": -1, "num_reviews": 0, "website": null, "contact_phone": null, "contact_email": null, "status": 1, "source_type": 1, "numberReviews": 0}, {"name": "Railway Hostel - Adults Only", "type": "hotel", "image": null, "address": "Nawaminruamjai Rd, Chumphon 86000 Thailand", "lat": 10.5008, "lng": 99.17412, "ref_id": 12957268, "rating": -1, "num_reviews": 0, "website": null, "contact_phone": null, "contact_email": null, "status": 1, "source_type": 1, "numberReviews": 0}, {"name": "Chum Tong Hotel", "type": "hotel", "image": null, "address": "219 Moo 7 Tambon Na Pin District, Lang Suan, Chumphon 86110 Thailand", "lat": 9.984886, "lng": 99.06853, "ref_id": 12388997, "rating": -1, "num_reviews": 0, "website": null, "contact_phone": null, "contact_email": null, "status": 1, "source_type": 1, "numberReviews": 0}, {"name": "Supin Apartment", "type": "hotel", "image": null, "address": "Nathung 174/13 Moo9, Chumphon Thailand", "lat": 10.505645, "lng": 99.18619, "ref_id": 20886571, "rating": -1, "num_reviews": 0, "website": null, "contact_phone": null, "contact_email": null, "status": 1, "source_type": 1, "numberReviews": 0}, {"name": "BaanBumrungsuk BRS Hotel", "type": "hotel", "image": "https://dynamic-media-cdn.tripadvisor.com/media/partner/bookingcom/photo-o/1b/f7/c9/96/4735235.jpg?w=1000&s=1", "address": "191,Krom Luang Raod, Chumphon 86000 Thailand", "lat": 10.494668, "lng": 99.18764, "ref_id": 21210927, "rating": -1, "num_reviews": 0, "website": null, "contact_phone": null, "contact_email": null, "status": 1, "source_type": 1, "numberReviews": 0}, {"name": "Rt\u0304hf\u1ecb R\u012bs\u0304xr\u0312th", "type": "hotel", "image": "https://dynamic-media-cdn.tripadvisor.com/media/partner/bookingcom/photo-o/1c/e4/60/84/6359662.jpg?w=1000&s=1", "address": "63/1 Moo 7, Chumphon 86000 Thailand", "lat": 10.53218, "lng": 99.142265, "ref_id": 23256021, "rating": -1, "num_reviews": 0, "website": null, "contact_phone": null, "contact_email": null, "status": 1, "source_type": 1, "numberReviews": 0}, {"name": "NN Homestay", "type": "hotel", "image": null, "address": "25/49,Moo. 9,Takdad, Mueang, Chumphon 86000 Thailand", "lat": 10.55027, "lng": 99.09309, "ref_id": 17674622, "rating": -1, "num_reviews": 0, "website": null, "contact_phone": null, "contact_email": null, "status": 1, "source_type": 1, "numberReviews": 0}, {"name": "Buadara Resort", "type": "hotel", "image": null, "address": "24/6 Moo 5, Saphli 86230 Thailand", "lat": 10.606038, "lng": 99.28244, "ref_id": 23342343, "rating": -1, "num_reviews": 0, "website": "https://www.buadararesort.com/", "contact_phone": "+66 77 560 009", "contact_email": null, "status": 1, "source_type": 1, "numberReviews": 0}, {"name": "38 Dee Sea", "type": "hotel", "image": null, "address": "5/14 Moo 8, Saphli 86230 Thailand", "lat": 10.573855, "lng": 99.27563, "ref_id": 22826374, "rating": -1, "num_reviews": 0, "website": "https://web.facebook.com/38DeeSea.Chumphon/?ref=page_internal", "contact_phone": "+66 91 037 8938", "contact_email": null, "status": 1, "source_type": 1, "numberReviews": 0}, {"name": "Chuan Phun Lodge", "type": "hotel", "image": null, "address": "54/3 Moo 8, Saphli 86230 Thailand", "lat": 10.626872, "lng": 99.28956, "ref_id": 3136233, "rating": -1, "num_reviews": 0, "website": null, "contact_phone": "+66 77 560 120", "contact_email": "chuanphunlodge@hotmail.com", "status": 1, "source_type": 1, "numberReviews": 0}, {"name": "Choti Anusorn Resort Chumphon", "type": "hotel", "image": null, "address": "222/22 Moo 1, Bang Mak 86000 Thailand", "lat": 10.47862, "lng": 99.20394, "ref_id": 26584552, "rating": -1, "num_reviews": 0, "website": null, "contact_phone": "+66 96 962 3494", "contact_email": null, "status": 1, "source_type": 1, "numberReviews": 0}, {"name": "Nant Vdi Risxrth", "type": "hotel", "image": null, "address": "79/1 M.4 S.Theph Vththi Th.Pr Mi Nth Rmrr Kha 34, Bang Mak 86000 Thailand", "lat": 10.46795, "lng": 99.20129, "ref_id": 25013880, "rating": -1, "num_reviews": 0, "website": "https://lv-lv.facebook.com/resortnanta", "contact_phone": "+66 86 396 2094", "contact_email": "pae29228@gmail.com", "status": 1, "source_type": 1, "numberReviews": 0}, {"name": "Auychai Grand Hotel", "type": "hotel", "image": null, "address": "366 Moo 4, Wang Tako 86110 Thailand", "lat": 9.965335, "lng": 99.06908, "ref_id": 23448504, "rating": -1, "num_reviews": 0, "website": "https://www.facebook.com/profile.php?id=100057455545844", "contact_phone": "+66 81 270 7795", "contact_email": null, "status": 1, "source_type": 1, "numberReviews": 0}, {"name": "Charlie Resort Chumphon", "type": "hotel", "image": null, "address": "574 Moo 6, Salui 86140 Thailand", "lat": 10.853375, "lng": 99.23624, "ref_id": 24054068, "rating": -1, "num_reviews": 0, "website": "https://hotel-17817.business.site/?utm_source=gmb&utm_medium=referral", "contact_phone": "+66 81 922 5419", "contact_email": null, "status": 1, "source_type": 1, "numberReviews": 0},