[{"name": "Chipotle Mexican Grill", "type": "restaurant", "image": null, "address": "805 Mamaroneck Ave 400301, Mamaroneck, NY 10543-1931", "lat": 40.95669, "lng": -73.7368, "ref_id": 21378302, "rating": -1, "num_reviews": 0, "website": "https://locations.chipotle.com/ny/mamaroneck/805-mamaroneck-ave?utm_source=extendednetwork&utm_medium=yext&utm_campaign=yext_listings", "contact_phone": "+1 914-873-1348", "contact_email": "NY.3587.MamaroneckCn@chipotle.com", "status": 1, "source_type": 1, "numberReviews": 0}, {"name": "North Shore Farms", "type": "restaurant", "image": null, "address": "805 Mamaroneck Ave, Mamaroneck, NY 10543-1931", "lat": 40.9568, "lng": -73.73725, "ref_id": 26978820, "rating": -1, "num_reviews": 0, "website": "http://northshorefarms.com", "contact_phone": "+1 914-381-2576", "contact_email": null, "status": 1, "source_type": 1, "numberReviews": 0}, {"name": "DeCicco & Sons Larchmont", "type": "restaurant", "image": null, "address": "2141 Palmer Ave, Larchmont, NY 10538-2406", "lat": 40.928654, "lng": -73.76463, "ref_id": 26881155, "rating": -1, "num_reviews": 0, "website": "http://deciccoandsons.com", "contact_phone": "+1 914-873-4447", "contact_email": null, "status": 1, "source_type": 1, "numberReviews": 0}, {"name": "Gianfranco Deli Mini Market", "type": "restaurant", "image": null, "address": "90 Virginia Road, White Plains, NY 10603", "lat": 41.064514, "lng": -73.77802, "ref_id": 25516629, "rating": -1, "num_reviews": 0, "website": null, "contact_phone": null, "contact_email": null, "status": 1, "source_type": 1, "numberReviews": 0}, {"name": "Hudson Valley Baking Company", "type": "restaurant", "image": null, "address": "421 Waverly Ave, Mamaroneck, NY 10543-2233", "lat": 40.95011, "lng": -73.7431, "ref_id": 26948807, "rating": -1, "num_reviews": 0, "website": "https://www.facebook.com/125300051468978", "contact_phone": "+1 914-777-9600", "contact_email": null, "status": 1, "source_type": 1, "numberReviews": 0}, {"name": "The Food Emporium", "type": "restaurant", "image": null, "address": "134 S Lexington Ave, White Plains, NY 10606-2510", "lat": 41.027473, "lng": -73.77183, "ref_id": 26942022, "rating": -1, "num_reviews": 0, "website": "http://ctownsupermarkets.com", "contact_phone": "+1 914-358-9115", "contact_email": null, "status": 1, "source_type": 1, "numberReviews": 0}, {"name": "Salerno's Taste of Philadelphia", "type": "restaurant", "image": null, "address": "223 Main St, Monson, MA 01057-1308", "lat": 42.09602, "lng": -72.31282, "ref_id": 26924302, "rating": -1, "num_reviews": 0, "website": "", "contact_phone": "+1 413-893-9444", "contact_email": null, "status": 1, "source_type": 1, "numberReviews": 0}, {"name": "McDonald's", "type": "restaurant", "image": null, "address": "299 E Main St, Westfield, MA 01085-3307", "lat": 42.11369, "lng": -72.72689, "ref_id": 13449550, "rating": 3, "num_reviews": 0, "website": "https://www.mcdonalds.com/us/en-us/location/ma/westfield/299-e-main/1550.html?cid=rf%3ayxt%3aron%3a%3aclicks%3fcid%3drf%3ayxt%3afb%3a%3aclicks", "contact_phone": "+1 413-562-3428", "contact_email": null, "status": 1, "source_type": 1, "numberReviews": 1}, {"name": "McDonald's", "type": "restaurant", "image": null, "address": "360 Main St, Springfield, MA 01105-2408", "lat": 42.091393, "lng": -72.580185, "ref_id": 4440221, "rating": 3, "num_reviews": 0, "website": "https://www.mcdonalds.com/us/en-us/location/ma/springfield/360-main-st/11926.html?cid=rf%3ayxt%3aron%3a%3aclicks%3fcid%3drf%3ayxt%3afb%3a%3aclicks", "contact_phone": "+1 413-739-3534", "contact_email": null, "status": 1, "source_type": 1, "numberReviews": 1}, {"name": "TAP Sports Bar", "type": "restaurant", "image": "https://dynamic-media-cdn.tripadvisor.com/media/photo-o/1a/db/7f/89/tap-sports-bar.jpg?w=1000&s=1", "address": "One MGM Way Next to Valet on the Casino floor, Springfield, MA 01103-2134", "lat": 42.10259, "lng": -72.59054, "ref_id": 15038710, "rating": 3, "num_reviews": 0, "website": "http://www.mgmspringfield.com/en/restaurants/tap-sports-bar.html", "contact_phone": "+1 413-273-5000", "contact_email": null, "status": 1, "source_type": 1, "numberReviews": 104}, {"name": "Chipotle Mexican Grill", "type": "restaurant", "image": null, "address": "465 East Main Street, Westfield, MA 01085", "lat": 42.112263, "lng": -72.72307, "ref_id": 25138994, "rating": 3, "num_reviews": 0, "website": "https://locations.chipotle.com/ma/westfield/465-east-main-street?utm_source=extendednetwork&utm_medium=yext&utm_campaign=yext_listings", "contact_phone": "+1 413-729-6688", "contact_email": "MA.4011.WestfieldMA@chipotle.com", "status": 1, "source_type": 1, "numberReviews": 2}, {"name": "Fu Soun Chinese Restaurant", "type": "restaurant", "image": null, "address": "494 Central St, Springfield, MA 01105-1610", "lat": 42.09752, "lng": -72.56491, "ref_id": 882950, "rating": 3, "num_reviews": 0, "website": "http://www.fusoun.com/fusoun/", "contact_phone": "+1 413-732-4023", "contact_email": "", "status": 1, "source_type": 1, "numberReviews": 2}, {"name": "Taco Bell", "type": "restaurant", "image": null, "address": "231 E Main St, Westfield, MA 01085-3307", "lat": 42.114635, "lng": -72.73097, "ref_id": 4135631, "rating": 3.5, "num_reviews": 0, "website": "https://www.facebook.com/349958181685081", "contact_phone": "+1 413-568-0153", "contact_email": null, "status": 1, "source_type": 1, "numberReviews": 3}, {"name": "Wicked Noodles", "type": "restaurant", "image": "https://dynamic-media-cdn.tripadvisor.com/media/photo-o/1c/94/bc/87/south-end-market.jpg?w=1000&s=1", "address": "One MGM Way, Springfield, MA 01103-2134", "lat": 42.098377, "lng": -72.58847, "ref_id": 15112342, "rating": 2.5, "num_reviews": 0, "website": "http://www.mgmspringfield.com/en/restaurants/south-end-market.html", "contact_phone": "+1 413-273-5000", "contact_email": null, "status": 1, "source_type": 1, "numberReviews": 3}, {"name": "X Pub", "type": "restaurant", "image": "https://dynamic-media-cdn.tripadvisor.com/media/photo-o/07/1a/0d/95/full-bar-on-christmas.jpg?w=1000&s=1", "address": "520 Sumner Ave, Springfield, MA 01108-2314", "lat": 42.0866, "lng": -72.557755, "ref_id": 882355, "rating": 2.5, "num_reviews": 0, "website": "https://www.facebook.com/197268726393", "contact_phone": "+1 413-739-9052", "contact_email": "", "status": 1, "source_type": 1, "numberReviews": 3}, {"name": "Popeyes Louisiana Kitchen", "type": "restaurant", "image": "https://dynamic-media-cdn.tripadvisor.com/media/photo-o/2b/42/b0/2a/caption.jpg?w=1000&s=1", "address": "489 State St, Springfield, MA 01109-4101", "lat": 42.10792, "lng": -72.57636, "ref_id": 23703106, "rating": 3, "num_reviews": 0, "website": "https://www.popeyes.com/store-locator/store/restaurant_240782?utm_source=yext&utm_medium=referral&utm_campaign=organic-local-listings", "contact_phone": "+14133017440", "contact_email": "pop.springfieldma@pnrestaurants.com", "status": 1, "source_type": 1, "numberReviews": 3}, {"name": "Friendly's", "type": "restaurant", "image": "https://dynamic-media-cdn.tripadvisor.com/media/photo-o/1d/ba/3e/c7/copy-of-receipt-they.jpg?w=1000&s=1", "address": "190 Springfield St, Agawam, MA 01001-1508", "lat": 42.08961, "lng": -72.6329, "ref_id": 4161075, "rating": 3, "num_reviews": 0, "website": "https://friendlys.olo.com/menu/friendlys-agawam", "contact_phone": "+1 413-786-4466", "contact_email": null, "status": 1, "source_type": 1, "numberReviews": 13}, {"name": "Chipotle Mexican Grill", "type": "restaurant", "image": null, "address": "219 Memorial Ave, West Springfield, MA 01089", "lat": 42.09573, "lng": -72.59998, "ref_id": 16825584, "rating": 3, "num_reviews": 0, "website": "https://locations.chipotle.com/ma/west-springfield/219-memorial-ave?utm_source=extendednetwork&utm_medium=yext&utm_campaign=yext_listings", "contact_phone": "+1 413-736-1005", "contact_email": "MA.2905.Wspringfield@chipotle.com", "status": 1, "source_type": 1, "numberReviews": 2}, {"name": "Gelato", "type": "restaurant", "image": "https://dynamic-media-cdn.tripadvisor.com/media/photo-o/1c/98/e3/bb/gelato-espresso.jpg?w=1000&s=1", "address": "One MGM Way, Springfield, MA 01103-2134", "lat": 42.098377, "lng": -72.58847, "ref_id": 15112356, "rating": 3, "num_reviews": 0, "website": "http://www.mgmspringfield.com/en/restaurants/south-end-market.html", "contact_phone": "+1 413-273-5000", "contact_email": null, "status": 1, "source_type": 1, "numberReviews": 4}, {"name": "Dunkin'", "type": "restaurant", "image": null, "address": "100 Congress St, Springfield, MA 01104-3461", "lat": 42.10889, "lng": -72.59517, "ref_id": 17831339, "rating": 2.5, "num_reviews": 0, "website": "https://locations.dunkindonuts.com/en/ma/springfield/100-congress-st/352548?utm_source=facebook&utm_medium=local&utm_campaign=localmaps&utm_content=352548&y_source=1_mtixmdk3otktntu5lwxvy2f0aw9ulndlynnpdgu%3d", "contact_phone": "+14133820237", "contact_email": null, "status": 1, "source_type": 1, "numberReviews": 2}, {"name": "Jackalope Restaurant", "type": "restaurant", "image": null, "address": "254 Worthington St. Springfield, Springfield, MA 01103", "lat": 42.10491, "lng": -72.59169, "ref_id": 24074895, "rating": 3, "num_reviews": 0, "website": "https://www.eatjackalope.com/?y_source=1_NzM0OTI3OTAtNzY5LWxvY2F0aW9uLndlYnNpdGU%3D", "contact_phone": "+1 413-233-4422", "contact_email": null, "status": 1, "source_type": 1, "numberReviews": 8}, {"name": "Collin's Tavern", "type": "restaurant", "image": null, "address": "997 Westfield St, West Springfield, MA 01089-3813", "lat": 42.10442, "lng": -72.64043, "ref_id": 10713524, "rating": 3, "num_reviews": 0, "website": "https://usmapy.com/collins-tavern-357086-web", "contact_phone": "+1 413-736-9772", "contact_email": null, "status": 1, "source_type": 1, "numberReviews": 4}, {"name": "Sapori", "type": "restaurant", "image": "https://dynamic-media-cdn.tripadvisor.com/media/photo-o/04/b5/ae/8e/bar-area.jpg?w=1000&s=1", "address": "324 Central Ave, White Plains, NY 10606-1210", "lat": 41.034073, "lng": -73.784676, "ref_id": 4831663, "rating": 4.5, "num_reviews": 0, "website": "http://www.saporiofwhiteplains.com", "contact_phone": "+1 914-684-8855", "contact_email": "Sapori324@gmail.com", "status": 1, "source_type": 1, "numberReviews": 114}, {"name": "The View Grill", "type": "restaurant", "image": "https://dynamic-media-cdn.tripadvisor.com/media/photo-o/0d/dc/02/89/the-view-grill.jpg?w=1000&s=1", "address": "111 Lattingtown Rd, Glen Cove, NY 11542", "lat": 40.893196, "lng": -73.62498, "ref_id": 5212829, "rating": 4.5, "num_reviews": 0, "website": "http://www.viewgrillgc.com", "contact_phone": "+1 516-200-9603", "contact_email": "chefviewgrill@gmail.com", "status": 1, "source_type": 1, "numberReviews": 124}, {"name": "Candlelight Inn", "type": "restaurant", "image": "https://dynamic-media-cdn.tripadvisor.com/media/photo-o/17/52/e2/93/photo0jpg.jpg?w=1000&s=1", "address": "519 Central Park Ave, Scarsdale, NY 10583-1018", "lat": 41.00451, "lng": -73.81279, "ref_id": 447710, "rating": 4.5, "num_reviews": 0, "website": null, "contact_phone": "+1 914-472-9706", "contact_email": "", "status": 1, "source_type": 1, "numberReviews": 161}, {"name": "TuttaBella Trattoria", "type": "restaurant", "image": "https://dynamic-media-cdn.tripadvisor.com/media/photo-o/1c/f9/c4/f3/caption.jpg?w=1000&s=1", "address": "754 Post Rd, Scarsdale, NY 10583-5002", "lat": 40.97332, "lng": -73.80352, "ref_id": 2311183, "rating": 4.5, "num_reviews": 0, "website": "http://www.tuttabellatrattoria.com/", "contact_phone": "+1 914-725-0566", "contact_email": "tuttabellatratt@optimum.net", "status": 1, "source_type": 1, "numberReviews": 98}, {"name": "Lusardi's Restaurant", "type": "restaurant", "image": "https://dynamic-media-cdn.tripadvisor.com/media/photo-o/16/da/6c/8e/photo3jpg.jpg?w=1000&s=1", "address": "1885 Palmer Ave, Larchmont, NY 10538-3035", "lat": 40.93353, "lng": -73.75839, "ref_id": 458253, "rating": 4, "num_reviews": 0, "website": "http://www.lusardislarchmont.com/", "contact_phone": "+1 914-834-5555", "contact_email": "lmc19@mariofava.com", "status": 1, "source_type": 1, "numberReviews": 160}, {"name": "Eastchester Fish Gourmet", "type": "restaurant", "image": "https://dynamic-media-cdn.tripadvisor.com/media/photo-o/03/c9/6a/78/eastchester-fish-gourmet.jpg?w=1000&s=1", "address": "837 Post Rd, Scarsdale, NY 10583-5501", "lat": 40.976704, "lng": -73.80259, "ref_id": 610958, "rating": 4.5, "num_reviews": 0, "website": "http://www.eastchesterfish.com/", "contact_phone": "+1 914-725-3450", "contact_email": "eastchesterfish@gmail.com", "status": 1, "source_type": 1, "numberReviews": 255}, {"name": "City Limits Diner", "type": "restaurant", "image": "https://dynamic-media-cdn.tripadvisor.com/media/photo-o/14/33/7b/66/20180818-145222-largejpg.jpg?w=1000&s=1", "address": "200 Central Ave, White Plains, NY 10606", "lat": 41.036396, "lng": -73.77975, "ref_id": 458249, "rating": 4, "num_reviews": 0, "website": "https://www.citylimitsdiner.com/", "contact_phone": "+1 914-686-9000", "contact_email": "", "status": 1, "source_type": 1, "numberReviews": 648}, {"name": "Benjamin Steakhouse", "type": "restaurant", "image": "https://dynamic-media-cdn.tripadvisor.com/media/photo-o/1b/a9/c5/76/porterhouse-steak.jpg?w=1000&s=1", "address": "610 Hartsdale Road, White Plains, NY 10607-1812", "lat": 41.03585, "lng": -73.80992, "ref_id": 1994508, "rating": 4, "num_reviews": 0, "website": "http://benjaminsteakhouse.com/westchester/?utm_source=TripAdvisor&utm_medium=TAWP&utm_campaign=Web", "contact_phone": "+1 914-428-6868", "contact_email": "info@benjaminsteakhouse.com", "status": 1, "source_type": 1, "numberReviews": 264}, {"name": "Encore Bistro Francais", "type": "restaurant", "image": "https://dynamic-media-cdn.tripadvisor.com/media/photo-o/06/a4/93/58/dining-room.jpg?w=1000&s=1", "address": "22 Chatsworth Ave, Larchmont, NY 10538-2924", "lat": 40.92998, "lng": -73.75175, "ref_id": 521027, "rating": 4.5, "num_reviews": 0, "website": "http://encore-bistro.com", "contact_phone": "+1 914-833-1661", "contact_email": "david@encore-bistro.com", "status": 1, "source_type": 1, "numberReviews": 134}, {"name": "The 808 Bistro", "type": "restaurant", "image": "https://dynamic-media-cdn.tripadvisor.com/media/photo-o/12/79/30/fa/the-808-bistro.jpg?w=1000&s=1", "address": "808 Scarsdale Ave, Scarsdale, NY 10583-5238", "lat": 40.984688, "lng": -73.809425, "ref_id": 1790003, "rating": 4.5, "num_reviews": 0, "website": "http://www.the808bistro.com/", "contact_phone": "+1 914-722-0808", "contact_email": "the808bistro@gmail.com", "status": 1, "source_type": 1, "numberReviews": 141}, {"name": "Sal's Pizzeria", "type": "restaurant", "image": "https://dynamic-media-cdn.tripadvisor.com/media/photo-o/16/ed/95/63/photo3jpg.jpg?w=1000&s=1", "address": "316 Mamaroneck Ave, Mamaroneck, NY 10543-2608", "lat": 40.95117, "lng": -73.73511, "ref_id": 458259, "rating": 4, "num_reviews": 0, "website": "http://www.salsmamaroneck.com/order-now", "contact_phone": "+1 914-381-2022", "contact_email": "", "status": 1, "source_type": 1, "numberReviews": 196}, {"name": "Twilight Treats", "type": "restaurant", "image": null, "address": "16 Pease Ave, Monson, MA 01057-1411", "lat": 42.09787, "lng": -72.30867, "ref_id": 26921157, "rating": -1, "num_reviews": 0, "website": "http://www.twilighttreats.net", "contact_phone": "+14134719866", "contact_email": null, "status": 1, "source_type": 1, "numberReviews": 0}, {"name": "Bruno Pizzeria", "type": "restaurant", "image": "https://dynamic-media-cdn.tripadvisor.com/media/photo-o/1b/bb/f5/b8/combination-pizza-with.jpg?w=1000&s=1", "address": "807 Springfield St, Feeding Hills, MA 01030-2155", "lat": 42.075375, "lng": -72.65579, "ref_id": 4161173, "rating": 5, "num_reviews": 0, "website": null, "contact_phone": "+1 413-786-8717", "contact_email": null, "status": 1, "source_type": 1, "numberReviews": 16}, {"name": "Regency Inn & Suites", "type": "restaurant", "image": null, "address": "19 Baldwin St, West Springfield, MA 01089-3705", "lat": 42.09419, "lng": -72.61802, "ref_id": 17528875, "rating": 5, "num_reviews": 0, "website": "http://www.regencyinnandsuites.org/", "contact_phone": "+1 413-781-2300", "contact_email": "regencyma@regencyhospitality.com", "status": 1, "source_type": 1, "numberReviews": 2}, {"name": "Main Wok Chinese Restaurant", "type": "restaurant", "image": null, "address": "590 Page Blvd, Springfield, MA 01104-3015", "lat": 42.14052, "lng": -72.5591, "ref_id": 4159880, "rating": 4, "num_reviews": 0, "website": "https://www.facebook.com/pages/Main-Wok-Chinese-Restaurant/100879383290453", "contact_phone": "+1 413-731-8888", "contact_email": null, "status": 1, "source_type": 1, "numberReviews": 6}, {"name": "KFC", "type": "restaurant", "image": null, "address": "931 Riverdale St, West Springfield, MA 01089-4613", "lat": 42.129242, "lng": -72.62456, "ref_id": 4659869, "rating": 4, "num_reviews": 0, "website": "https://www.facebook.com/502559146471922", "contact_phone": "+1 413-737-3460", "contact_email": null, "status": 1, "source_type": 1, "numberReviews": 7}, {"name": "Cedar's Food Mart and Grill Halal", "type": "restaurant", "image": null, "address": "405 Armory St, Springfield, MA 01104", "lat": 42.120625, "lng": -72.58558, "ref_id": 15164613, "rating": 5, "num_reviews": 0, "website": "https://cedarfoodmart.com/", "contact_phone": "+1 413-273-1215", "contact_email": "cedarsfoodmart@gmail.com", "status": 1, "source_type": 1, "numberReviews": 1}, {"name": "Sol Karibe", "type": "restaurant", "image": "https://dynamic-media-cdn.tripadvisor.com/media/photo-o/16/68/b4/10/photo0jpg.jpg?w=1000&s=1", "address": "1236 Main St, Springfield, MA 01103-1928", "lat": 42.10099, "lng": -72.58778, "ref_id": 4159300, "rating": 4, "num_reviews": 0, "website": "https://www.facebook.com/solkariberestaurantbar/", "contact_phone": "+1 413-737-1217", "contact_email": null, "status": 1, "source_type": 1, "numberReviews": 4}, {"name": "Starbucks", "type": "restaurant", "image": "https://dynamic-media-cdn.tripadvisor.com/media/photo-o/15/77/80/ab/photo0jpg.jpg?w=1000&s=1", "address": "1414 Main St, Springfield, MA 01144-7000", "lat": 42.10222, "lng": -72.59059, "ref_id": 15356003, "rating": 5, "num_reviews": 0, "website": "https://www.starbucks.com/store-locator/store/1021921/one-monarch-p-lace-1414-main-street-springfield-ma-01144-us", "contact_phone": "+1 413-363-0757", "contact_email": null, "status": 1, "source_type": 1, "numberReviews": 2}, {"name": "La taqueria del Pueblo Bar &Restaurant", "type": "restaurant", "image": "https://dynamic-media-cdn.tripadvisor.com/media/photo-o/2a/f7/bf/72/caption.jpg?w=1000&s=1", "address": "1168 Boston rd, Springfield, MA 01119", "lat": 42.10305, "lng": -72.58785, "ref_id": 26862618, "rating": 5, "num_reviews": 0, "website": "www.lataqueriadelpueblo.net", "contact_phone": "+1 413-363-2354", "contact_email": "luis@lataqueriadelpueblo.net", "status": 1, "source_type": 1, "numberReviews": 1}, {"name": "Gold Chopstick", "type": "restaurant", "image": null, "address": "12 Chestnut St, West Springfield, MA 01089-2804", "lat": 42.1041, "lng": -72.63817, "ref_id": 911921, "rating": 4.5, "num_reviews": 0, "website": null, "contact_phone": "+1 413-746-3338", "contact_email": "", "status": 1, "source_type": 1, "numberReviews": 5}, {"name": "Palace Pizza House", "type": "restaurant", "image": "https://dynamic-media-cdn.tripadvisor.com/media/photo-o/0e/3d/18/63/photo1jpg.jpg?w=1000&s=1", "address": "608 Page Blvd, Springfield, MA 01104-3010", "lat": 42.14085, "lng": -72.55866, "ref_id": 4718310, "rating": 4.5, "num_reviews": 0, "website": "https://www.palacepizzaeastspringfield.com/", "contact_phone": "+1 413-781-5587", "contact_email": null, "status": 1, "source_type": 1, "numberReviews": 3}, {"name": "Napoli Pizza & Restaurant", "type": "restaurant", "image": null, "address": "1633 Bay St, Springfield, MA 01109-1225", "lat": 42.129543, "lng": -72.52924, "ref_id": 23747951, "rating": 5, "num_reviews": 0, "website": "http://napolipizzaspringfield.net/", "contact_phone": "+1 413-455-2446", "contact_email": null, "status": 1, "source_type": 1, "numberReviews": 1}, {"name": "Domino's Pizza", "type": "restaurant", "image": "https://dynamic-media-cdn.tripadvisor.com/media/photo-o/0f/9c/56/c2/photo0jpg.jpg?w=1000&s=1", "address": "312 Springfield St, Agawam, MA 01001", "lat": 42.08786, "lng": -72.64012, "ref_id": 5094204, "rating": 4.5, "num_reviews": 0, "website": "https://www.dominos.com/en/?redirect=homepage&utm_source=locallistings&utm_medium=loclist&utm_campaign=localmaps", "contact_phone": "+1 413-821-0800", "contact_email": null, "status": 1, "source_type": 1, "numberReviews": 4}, {"name": "Cana y Cafe Restaurant", "type": "restaurant", "image": null, "address": "141 State St, Springfield, MA 01103", "lat": 42.101425, "lng": -72.58609, "ref_id": 23925743, "rating": 5, "num_reviews": 0, "website": "http://www.canacafema.com", "contact_phone": "+1 413-301-8253", "contact_email": "canacaferest@gmail.com", "status": 1, "source_type": 1, "numberReviews": 1}, {"name": "Wendy's", "type": "restaurant", "image": null, "address": "1290 St James Ave, Springfield, MA 01104-1319", "lat": 42.142635, "lng": -72.57489, "ref_id": 4134467, "rating": 3, "num_reviews": 0, "website": "https://locations.wendys.com/united-states/ma/springfield/1290-saint-james-ave", "contact_phone": "+1 413-276-6442", "contact_email": null, "status": 1, "source_type": 1, "numberReviews": 1}, {"name": "McDonald's", "type": "restaurant", "image": null, "address": "809 Boston Rd, Springfield, MA 01119-1313", "lat": 42.13674, "lng": -72.517784, "ref_id": 5065269, "rating": 3, "num_reviews": 0, "website": "https://www.mcdonalds.com/us/en-us/location/ma/springfield/809-boston-rd/592.html?cid=rf%3ayxt%3aron%3a%3aclicks%3fcid%3drf%3ayxt%3afb%3a%3aclicks", "contact_phone": "+1 413-783-2328", "contact_email": null, "status": 1, "source_type": 1, "numberReviews": 2}, {"name": "Antonio's", "type": "restaurant", "image": null, "address": "1030 State St, Springfield, MA 01109-3132", "lat": 42.11496, "lng": -72.55725, "ref_id": 5486753, "rating": 2, "num_reviews": 0, "website": "http://www.antoniosgrinders.com", "contact_phone": "+1 413-734-1719", "contact_email": null, "status": 1, "source_type": 1, "numberReviews": 1}, {"name": "Peacock Chinese Restaurant", "type": "restaurant", "image": null, "address": "338 Cooley St, Springfield, MA 01128-1144", "lat": 42.09419, "lng": -72.49887, "ref_id": 854383, "rating": 3, "num_reviews": 0, "website": "http://www.peacockspringfield.com", "contact_phone": "+1 413-783-9996", "contact_email": "info@peacockspringfield.com", "status": 1, "source_type": 1, "numberReviews": 24}, {"name": "Mattie's Cafe", "type": "restaurant", "image": "https://dynamic-media-cdn.tripadvisor.com/media/photo-o/0f/a7/ea/19/who-servers-steak-with.jpg?w=1000&s=1", "address": "750 Boston Rd, Springfield, MA 01119-1311", "lat": 42.13691, "lng": -72.52008, "ref_id": 385882, "rating": 2.5, "num_reviews": 0, "website": null, "contact_phone": "+1 413-782-0085", "contact_email": "", "status": 1, "source_type": 1, "numberReviews": 2}, {"name": "Olympic Deli Restaurant", "type": "restaurant", "image": null, "address": "232 Chestnut St, Springfield, MA 01103-1108", "lat": 42.108, "lng": -72.59223, "ref_id": 884090, "rating": 3, "num_reviews": 0, "website": "https://www.facebook.com/Olympic-Deli-Restaurant-257031237665623/", "contact_phone": "+1 413-732-1600", "contact_email": "", "status": 1, "source_type": 1, "numberReviews": 3}, {"name": "Paramount Pizza", "type": "restaurant", "image": "https://dynamic-media-cdn.tripadvisor.com/media/photo-o/18/d3/3b/6b/photo0jpg.jpg?w=1000&s=1", "address": "1696 Main St, Springfield, MA 01103-1214", "lat": 42.10444, "lng": -72.59406, "ref_id": 586653, "rating": 2.5, "num_reviews": 0, "website": "http://www.paramountpizza1.com/menu/", "contact_phone": "+1 413-733-0300", "contact_email": "", "status": 1, "source_type": 1, "numberReviews": 9}, {"name": "Taco Bell", "type": "restaurant", "image": null, "address": "633 Liberty St, Springfield, MA 01104-2419", "lat": 42.120632, "lng": -72.58387, "ref_id": 4136615, "rating": 2, "num_reviews": 0, "website": "https://www.facebook.com/1898234433725317", "contact_phone": "+1 413-734-8586", "contact_email": null, "status": 1, "source_type": 1, "numberReviews": 4}, {"name": "The Andrea Seaside Restaurant and Beach Bar", "type": "restaurant", "image": "https://dynamic-media-cdn.tripadvisor.com/media/photo-o/0c/3c/df/a6/photo0jpg.jpg?w=1000&s=1", "address": "89 Atlantic Ave, Westerly, RI 02891-4301", "lat": 41.320656, "lng": -71.815186, "ref_id": 4695172, "rating": 4, "num_reviews": 0, "website": "http://www.andreaseaside.com", "contact_phone": "+1 401-348-8788", "contact_email": "andreabeachbar@gmail.com", "status": 1, "source_type": 1, "numberReviews": 286}, {"name": "Cameron's Deli", "type": "restaurant", "image": "https://dynamic-media-cdn.tripadvisor.com/media/photo-o/0a/63/5f/16/13-breakfast-sandwich.jpg?w=1000&s=1", "address": "2241 Route 6, Brewster, NY 10509-2147", "lat": 41.41486, "lng": -73.64109, "ref_id": 8448167, "rating": 3.5, "num_reviews": 0, "website": "http://www.cameronsdeli.com", "contact_phone": "+1 845-302-2972", "contact_email": null, "status": 1, "source_type": 1, "numberReviews": 25}, {"name": "Leone's Restaurant", "type": "restaurant", "image": "https://dynamic-media-cdn.tripadvisor.com/media/photo-o/03/69/2c/e5/leones-exterior.jpg?w=1000&s=1", "address": "320 Cooley St, Springfield, MA 01128-1144", "lat": 42.09493, "lng": -72.49904, "ref_id": 586487, "rating": 4, "num_reviews": 0, "website": "http://www.leonesrestaurant.com", "contact_phone": "+1 413-783-4363", "contact_email": "", "status": 1, "source_type": 1, "numberReviews": 89}, {"name": "Bamboo House", "type": "restaurant", "image": "https://dynamic-media-cdn.tripadvisor.com/media/photo-o/0e/2a/78/fb/bamboo-house.jpg?w=1000&s=1", "address": "676 Belmont Ave, Springfield, MA 01108-2403", "lat": 42.08486, "lng": -72.55323, "ref_id": 603615, "rating": 4.5, "num_reviews": 0, "website": "https://www.facebook.com/Bamboo-House-224891900873065/", "contact_phone": "+1 413-732-0741", "contact_email": "", "status": 1, "source_type": 1, "numberReviews": 37}, {"name": "Ichiban East Longmeadow", "type": "restaurant", "image": "https://dynamic-media-cdn.tripadvisor.com/media/photo-o/07/88/d2/ce/ichiban-east-longmeadow.jpg?w=1000&s=1", "address": "422 N Main St, East Longmeadow, MA 01028-1850", "lat": 42.07845, "lng": -72.52719, "ref_id": 3470954, "rating": 4.5, "num_reviews": 0, "website": "http://Www.ichibaneastlongmeadow.com", "contact_phone": "+1 413-525-1688", "contact_email": null, "status": 1, "source_type": 1, "numberReviews": 46}, {"name": "DE Nardo's Family Restaurant", "type": "restaurant", "image": "https://dynamic-media-cdn.tripadvisor.com/media/photo-o/0e/2a/ed/15/dining-area.jpg?w=1000&s=1", "address": "39 Maple St, East Longmeadow, MA 01028-2745", "lat": 42.06411, "lng": -72.51569, "ref_id": 385834, "rating": 4, "num_reviews": 0, "website": "http://www.denardosrestaurant.com", "contact_phone": "+1 413-525-3600", "contact_email": "", "status": 1, "source_type": 1, "numberReviews": 47}, {"name": "Vinh Chau Vietnamese RST", "type": "restaurant", "image": "https://dynamic-media-cdn.tripadvisor.com/media/photo-o/04/06/f8/e9/hot-and-sour-soup.jpg?w=1000&s=1", "address": "409 Dickinson St, Springfield, MA 01108-1885", "lat": 42.08654, "lng": -72.55788, "ref_id": 615155, "rating": 4.5, "num_reviews": 0, "website": "https://www.vinhchaurestaurant.com/", "contact_phone": "+1 413-731-8858", "contact_email": "", "status": 1, "source_type": 1, "numberReviews": 37}, {"name": "Family Pizzeria Europa", "type": "restaurant", "image": "https://dynamic-media-cdn.tripadvisor.com/media/photo-o/09/b1/85/ca/family-pizzeria-europa.jpg?w=1000&s=1", "address": "715 Sumner Ave, Springfield, MA 01108-2438", "lat": 42.08733, "lng": -72.55049, "ref_id": 3328855, "rating": 4.5, "num_reviews": 0, "website": "http://www.familypizzeriaeuropa.com", "contact_phone": "+1 413-736-9146", "contact_email": null, "status": 1, "source_type": 1, "numberReviews": 20}, {"name": "The Local NY Style Pizzeria", "type": "restaurant", "image": null, "address": "4808, 1448 E Main St, Meriden, CT 06450", "lat": null, "lng": null, "ref_id": 19903740, "rating": -1, "num_reviews": 0, "website": null, "contact_phone": "+1 203-235-2245", "contact_email": null, "status": 1, "source_type": 1, "numberReviews": 0}, {"name": "Lucky's Bar & Pizza", "type": "restaurant", "image": null, "address": "143 Danielson Pike, Foster, RI 02825-1425", "lat": 41.81252, "lng": -71.7526, "ref_id": 4160995, "rating": 3, "num_reviews": 0, "website": null, "contact_phone": "+1 401-647-2537", "contact_email": null, "status": 1, "source_type": 1, "numberReviews": 1}, {"name": "Great Taste Fusion", "type": "restaurant", "image": null, "address": "27C Main St, New Milford, CT 06776-2807", "lat": 41.887115, "lng": -75.72827, "ref_id": 23949744, "rating": -1, "num_reviews": 0, "website": "http://www.greattastefusionct.com", "contact_phone": "+1 860-355-2518", "contact_email": "info@greattastefusionct.com", "status": 1, "source_type": 1, "numberReviews": 0}, {"name": "Bread & Cocoa", "type": "restaurant", "image": null, "address": "2110 Boston Post Rd, Larchmont, NY 10538-3707", "lat": 40.92803, "lng": -73.751396, "ref_id": 26881153, "rating": -1, "num_reviews": 0, "website": "http://cocoachocolateshop.com", "contact_phone": "+1 914-834-6463", "contact_email": null, "status": 1, "source_type": 1, "numberReviews": 0}, {"name": "Mixed Enerjy", "type": "restaurant", "image": null, "address": "2101 Boston Post Rd, Larchmont, NY 10538-3701", "lat": 40.92841, "lng": -73.751274, "ref_id": 26893482, "rating": -1, "num_reviews": 0, "website": "http://mixedenerjy.com", "contact_phone": "+1 914-315-1886", "contact_email": null, "status": 1, "source_type": 1, "numberReviews": 0}, {"name": "Big Jerk Caribbean Restaurant", "type": "restaurant", "image": null, "address": "213 Saw Mill River Road, Elmsford, NY 10523", "lat": 41.061993, "lng": -73.81514, "ref_id": 25544052, "rating": -1, "num_reviews": 0, "website": null, "contact_phone": null, "contact_email": null, "status": 1, "source_type": 1, "numberReviews": 0}, {"name": "Bagel Power", "type": "restaurant", "image": null, "address": "1078 Wilmot Rd, Scarsdale, NY 10583-6863", "lat": 40.98459, "lng": -73.77752, "ref_id": 26963326, "rating": -1, "num_reviews": 0, "website": "http://bagel-power.lany.io", "contact_phone": "+1 914-723-9870", "contact_email": null, "status": 1, "source_type": 1, "numberReviews": 0}, {"name": "Longford's Ice Cream", "type": "restaurant", "image": null, "address": "1941 Palmer Ave, Larchmont, NY 10538-2404", "lat": 40.93181, "lng": -73.76021, "ref_id": 26898356, "rating": -1, "num_reviews": 0, "website": "http://longfordsicecream.com", "contact_phone": "+1 914-834-0207", "contact_email": null, "status": 1, "source_type": 1, "numberReviews": 0}, {"name": "Teca's Tacos", "type": "restaurant", "image": null, "address": "491 5th Ave, New Rochelle, NY 10801-2212", "lat": 40.929043, "lng": -73.7713, "ref_id": 27796011, "rating": -1, "num_reviews": 0, "website": "https://restauranttecalitl.wixsite.com/tecalitlanrestaurant/tecas-taco-food-truck", "contact_phone": "+1 914-536-4000", "contact_email": null, "status": 1, "source_type": 1, "numberReviews": 0}, {"name": "American Italian Club Hotline", "type": "restaurant", "image": null, "address": "11 N Lawn Ave, Elmsford, NY 10523-2604", "lat": 41.05522, "lng": -73.81803, "ref_id": 26982303, "rating": -1, "num_reviews": 0, "website": "http://www.aiclubofelmsford.com", "contact_phone": "+1 914-592-6646", "contact_email": null, "status": 1, "source_type": 1, "numberReviews": 0}, {"name": "Istanbul halal market", "type": "restaurant", "image": null, "address": "312 Memorial Ave, West Springfield, MA 01089-4008", "lat": 42.096283, "lng": -72.60256, "ref_id": 26972693, "rating": -1, "num_reviews": 0, "website": "http://www.supermarketistanbul.com/", "contact_phone": "+1 860-849-9159", "contact_email": null, "status": 1, "source_type": 1, "numberReviews": 0}, {"name": "Talk of the Town Restaurant", "type": "restaurant", "image": null, "address": "320 Wilbraham Road, Springfield, MA 1109", "lat": 42.11301, "lng": -72.55244, "ref_id": 25470319, "rating": -1, "num_reviews": 0, "website": "https://www.facebook.com/1459072121088924", "contact_phone": "+14137317720", "contact_email": null, "status": 1, "source_type": 1, "numberReviews": 0}, {"name": "Ronald McDonald House", "type": "restaurant", "image": null, "address": "34 Chapin Ter, Springfield, MA 01107-1704", "lat": 42.11903, "lng": -72.60251, "ref_id": 26964202, "rating": -1, "num_reviews": 0, "website": "http://www.rmhc-ctma.org", "contact_phone": "+1 413-271-5683", "contact_email": null, "status": 1, "source_type": 1, "numberReviews": 0}, {"name": "McDonald's", "type": "restaurant", "image": null, "address": "429 Memorial Ave, West Springfield, MA 01089-4009", "lat": 42.09552, "lng": -72.6038, "ref_id": 15811559, "rating": -1, "num_reviews": 0, "website": "https://www.mcdonalds.com/us/en-us/location/ma/west-springfield/429-memorial-ave/10335.html?cid=rf%3ayxt%3aron%3a%3aclicks%3fcid%3drf%3ayxt%3afb%3a%3aclicks", "contact_phone": "+1 413-787-9951", "contact_email": null, "status": 1, "source_type": 1, "numberReviews": 0}, {"name": "Punjabi Kitchen", "type": "restaurant", "image": null, "address": "88 Westfield Street, West Springfield, MA 1089", "lat": 42.10659, "lng": -72.624756, "ref_id": 25496593, "rating": -1, "num_reviews": 0, "website": null, "contact_phone": null, "contact_email": null, "status": 1, "source_type": 1, "numberReviews": 0}, {"name": "C and J Carribbean Restaurant and Catering Services", "type": "restaurant", "image": null, "address": "880 State Street, Springfield, MA 01109", "lat": 42.112587, "lng": -72.56193, "ref_id": 27114661, "rating": -1, "num_reviews": 0, "website": "https://candjrestaurant.com/", "contact_phone": "+1 413-301-6430", "contact_email": "candjrestaurant@gmail.com", "status": 1, "source_type": 1, "numberReviews": 0}, {"name": "Subway", "type": "restaurant", "image": null, "address": "356 Memorial Ave, West Springfield, MA 01089-4008", "lat": 42.096558, "lng": -72.60294, "ref_id": 26892464, "rating": -1, "num_reviews": 0, "website": "http://www.subway.com/en-us", "contact_phone": "+1 413-788-0008", "contact_email": null, "status": 1, "source_type": 1, "numberReviews": 0}, {"name": "Pizza Royal", "type": "restaurant", "image": null, "address": "161 Boston Rd, Springfield, MA 01109-1748", "lat": 42.12542, "lng": -72.53441, "ref_id": 4159764, "rating": -1, "num_reviews": 0, "website": "https://www.pizzaroyalmenu.com/", "contact_phone": "+1 413-783-7710", "contact_email": null, "status": 1, "source_type": 1, "numberReviews": 0}, {"name": "El Saz\u00f3n Criollo Restaurant & Pizza", "type": "restaurant", "image": null, "address": "2550 Main St, Springfield, MA 01107-1934", "lat": 42.11321, "lng": -72.60535, "ref_id": 27752927, "rating": -1, "num_reviews": 0, "website": "https://www.facebook.com/575402179510396", "contact_phone": "+1 413-204-9424", "contact_email": null, "status": 1, "source_type": 1, "numberReviews": 0}, {"name": "Dunkin'", "type": "restaurant", "image": null, "address": "11 Pierce St, West Springfield, MA 01089-1407", "lat": 42.128635, "lng": -72.62733, "ref_id": 17831340, "rating": -1, "num_reviews": 0, "website": "https://locations.dunkindonuts.com/en/ma/west-springfield/11-pierce-st/353076?utm_source=facebook&utm_medium=local&utm_campaign=localmaps&utm_content=353076&y_source=1_mtixmti3mzitntu5lwxvy2f0aw9ulndlynnpdgu%3d", "contact_phone": "+1 413-739-8577", "contact_email": null, "status": 1, "source_type": 1, "numberReviews": 0}, {"name": "Erica's Hall of Fame Kitchen", "type": "restaurant", "image": null, "address": "666 State Street, Springfield, MA 1109", "lat": 42.110477, "lng": -72.57029, "ref_id": 25513036, "rating": -1, "num_reviews": 0, "website": null, "contact_phone": null, "contact_email": null, "status": 1, "source_type": 1, "numberReviews": 0}, {"name": "White Lion Brewing Company", "type": "restaurant", "image": "https://dynamic-media-cdn.tripadvisor.com/media/photo-o/2b/cb/6c/a6/white-lion-brewing-company.jpg?w=1000&s=1", "address": "1500 Main Street First Floor, Springfield, MA 01103", "lat": 42.102856, "lng": -72.59224, "ref_id": 23380012, "rating": -1, "num_reviews": 0, "website": "http://www.whitelionbrewing.com", "contact_phone": "+1 413-326-1829", "contact_email": "rberry@whitelionbrewing.com", "status": 1, "source_type": 1, "numberReviews": 0}, {"name": "Burger King", "type": "restaurant", "image": null, "address": "727 Boston Rd, Springfield, MA 01119-1341", "lat": 42.13608, "lng": -72.5204, "ref_id": 15250026, "rating": -1, "num_reviews": 0, "website": "https://burgerking.com/store-locator/store/restaurant_64,163", "contact_phone": "+14134553792", "contact_email": "bk23187@outlook.com", "status": 1, "source_type": 1, "numberReviews": 0}, {"name": "Tropical African Market", "type": "restaurant", "image": null, "address": "810 Main St, Springfield, MA 01105-2316", "lat": 42.096897, "lng": -72.58253, "ref_id": 26899684, "rating": -1, "num_reviews": 0, "website": null, "contact_phone": "+14132146390", "contact_email": null, "status": 1, "source_type": 1, "numberReviews": 0}, {"name": "Big Y at Fresh Acres", "type": "restaurant", "image": null, "address": "1941 Wilbraham Rd, Springfield, MA 01129-1822", "lat": 42.113834, "lng": -72.497185, "ref_id": 26902087, "rating": -1, "num_reviews": 0, "website": "https://www.bigy.com/rs/store-locator/1941-wilbraham-road-sixteen-acres/16", "contact_phone": "+14137839141", "contact_email": null, "status": 1, "source_type": 1, "numberReviews": 0}, {"name": "Little Caesars Pizza", "type": "restaurant", "image": null, "address": "1090 Saint James Avenue, Springfield, MA 1104", "lat": 42.137012, "lng": -72.57052, "ref_id": 25485395, "rating": -1, "num_reviews": 0, "website": "https://littlecaesars.com/en-us/store/9325", "contact_phone": "+14137888880", "contact_email": null, "status": 1, "source_type": 1, "numberReviews": 0}, {"name": "Parker Pizza", "type": "restaurant", "image": null, "address": "1192 Parker St, Springfield, MA 1129", "lat": 42.11663, "lng": -72.49917, "ref_id": 25441546, "rating": -1, "num_reviews": 0, "website": "http://parkerpizzeria.com", "contact_phone": "+1 413-796-1111", "contact_email": null, "status": 1, "source_type": 1, "numberReviews": 0}, {"name": "Golden Dragon", "type": "restaurant", "image": null, "address": "309 Berkshire Avenue, Springfield, MA 1109", "lat": 42.13098, "lng": -72.53401, "ref_id": 25516926, "rating": -1, "num_reviews": 0, "website": null, "contact_phone": null, "contact_email": null, "status": 1, "source_type": 1, "numberReviews": 0}, {"name": "Esmine's Cuisine", "type": "restaurant", "image": null, "address": "341 Wilbraham Road, Springfield, MA 1109", "lat": 42.112804, "lng": -72.5515, "ref_id": 25513065, "rating": -1, "num_reviews": 0, "website": null, "contact_phone": null, "contact_email": null, "status": 1, "source_type": 1, "numberReviews": 0}, {"name": "Crispy's wings n fish", "type": "restaurant", "image": null, "address": "17 Rutland St, Springfield, MA 01109-3113", "lat": 42.11232, "lng": -72.56076, "ref_id": 26885687, "rating": -1, "num_reviews": 0, "website": "https://www.facebook.com/2126563604250213", "contact_phone": "+14134552312", "contact_email": null, "status": 1, "source_type": 1, "numberReviews": 0}, {"name": "Just Wing It", "type": "restaurant", "image": null, "address": "278 North Brewster Road, Brewster, NY 10509", "lat": 41.432747, "lng": -73.60815, "ref_id": 25524998, "rating": -1, "num_reviews": 0, "website": null, "contact_phone": null, "contact_email": null, "status": 1, "source_type": 1, "numberReviews": 0}, {"name": "Tavern on 52", "type": "restaurant", "image": null, "address": "474 Route 52, Carmel, NY 10512-6056", "lat": 41.45301, "lng": -73.67118, "ref_id": 26944612, "rating": -1, "num_reviews": 0, "website": "https://www.facebook.com/106100135602317", "contact_phone": "+18452252168", "contact_email": null, "status": 1, "source_type": 1, "numberReviews": 0}, {"name": "HONEY CAKES", "type": "restaurant", "image": null, "address": "531 Route 52 Flr 1, Carmel, NY 10512-6064", "lat": 41.457085, "lng": -73.67046, "ref_id": 24956266, "rating": -1, "num_reviews": 0, "website": "https://www.facebook.com/115036444526209", "contact_phone": "+1 845-580-3672", "contact_email": null, "status": 1, "source_type": 1, "numberReviews": 0}, {"name": "Il Castello", "type": "restaurant", "image": "https://dynamic-media-cdn.tripadvisor.com/media/photo-o/02/ab/9c/dc/the-best-restaurant.jpg?w=1000&s=1", "address": "576 Mamaroneck Ave, Mamaroneck, NY 10543-1946", "lat": 40.95374, "lng": -73.738556, "ref_id": 1874987, "rating": 4.5, "num_reviews": 0, "website": "http://www.ilcastello.us", "contact_phone": "+1 914-777-2200", "contact_email": "", "status": 1, "source_type": 1, "numberReviews": 66}, {"name": "VEGA Mexican Cuisine", "type": "restaurant", "image": "https://dynamic-media-cdn.tripadvisor.com/media/photo-o/19/ed/8b/08/vega.jpg?w=1000&s=1", "address": "189 E Hartsdale Ave M, Hartsdale, NY 10530-3502", "lat": 41.012238, "lng": -73.79613, "ref_id": 1998998, "rating": 4, "num_reviews": 0, "website": "http://www.vegamexican.com", "contact_phone": "+1 914-723-0010", "contact_email": "info@vegamexican.com", "status": 1, "source_type": 1, "numberReviews": 84}, {"name": "Sergio's Restaurant and Bar", "type": "restaurant", "image": "https://dynamic-media-cdn.tripadvisor.com/media/photo-o/04/56/b9/c4/sergio-s-restaurant-and.jpg?w=1000&s=1", "address": "301 Columbus Ave, Valhalla, NY 10595-1330", "lat": 41.09047, "lng": -73.77814, "ref_id": 1992373, "rating": 4.5, "num_reviews": 0, "website": "http://sergiosrestaurantandbar.com/", "contact_phone": "+1 914-946-3580", "contact_email": "sergiosrestaurantandbar@gmail.com", "status": 1, "source_type": 1, "numberReviews": 61}, {"name": "Guido's", "type": "restaurant", "image": "https://dynamic-media-cdn.tripadvisor.com/media/photo-o/2b/ce/07/d4/tempura-brussels-sprouts.jpg?w=1000&s=1", "address": "367 Main Street, Sturbridge, MA 01566", "lat": 42.11161, "lng": -72.08991, "ref_id": 26776627, "rating": -1, "num_reviews": 0, "website": "https://www.gidosbrickoven.com/", "contact_phone": null, "contact_email": null, "status": 1, "source_type": 1, "numberReviews": 0}, {"name": "Rapscallion Pub", "type": "restaurant", "image": "https://dynamic-media-cdn.tripadvisor.com/media/photo-o/2b/d7/b3/48/arugula-fennel-salad.jpg?w=1000&s=1", "address": "3 Arnold Rd, Sturbridge, MA 01518", "lat": 42.11499, "lng": -72.106705, "ref_id": 27537727, "rating": 4.5, "num_reviews": 0, "website": "https://visitrapscallion.com/sturbridge/", "contact_phone": "+1 508-347-7500", "contact_email": "hello@visitrapscallion.com", "status": 1, "source_type": 1, "numberReviews": 39}, {"name": "Eatjoy", "type": "restaurant", "image": null, "address": "1 Royce Cir, Storrs, Mansfield, CT 06268-2258", "lat": null, "lng": null, "ref_id": 25553311, "rating": -1, "num_reviews": 0, "website": "http://www.eatjoystorrs.com", "contact_phone": "+18604770528", "contact_email": null, "status": 1, "source_type": 1, "numberReviews": 0}, {"name": "Serio's Pizza & Restaurant", "type": "restaurant", "image": "https://dynamic-media-cdn.tripadvisor.com/media/photo-o/10/6b/3f/75/photo0jpg.jpg?w=1000&s=1", "address": "405 Church St, Pascoag, Burrillville, RI 02859-2635", "lat": 41.96469, "lng": -71.71208, "ref_id": 894891, "rating": 4, "num_reviews": 0, "website": "https://www.facebook.com/Serios-Pizza-Restaurant-159924627415387/", "contact_phone": "+1 401-568-7187", "contact_email": "seriospizza@yahoo.com", "status": 1, "source_type": 1, "numberReviews": 26}, {"name": "The Lodge Restaurant", "type": "restaurant", "image": "https://dynamic-media-cdn.tripadvisor.com/media/photo-o/1d/18/44/30/brick-oven-pizza.jpg?w=1000&s=1", "address": "148 Gore Rd, Webster, MA 01570-6814", "lat": 42.056747, "lng": -71.8429, "ref_id": 386538, "rating": 3.5, "num_reviews": 0, "website": "https://www.facebook.com/1574118949520694", "contact_phone": "+1 508-949-0000", "contact_email": "info@restaurantlodge.com", "status": 1, "source_type": 1, "numberReviews": 75}, {"name": "A & A Italian Deli", "type": "restaurant", "image": "https://dynamic-media-cdn.tripadvisor.com/media/photo-o/0b/da/95/b4/aisle.jpg?w=1000&s=1", "address": "2859 Route 55, Poughquag, NY 12570-5619", "lat": 41.60755, "lng": -73.67267, "ref_id": 4684902, "rating": 4, "num_reviews": 0, "website": "https://www.aandaitaliandeli.com/", "contact_phone": "+1 845-724-3400", "contact_email": null, "status": 1, "source_type": 1, "numberReviews": 9}, {"name": "Farmhouse Kitchen + Bar", "type": "restaurant", "image": null, "address": "10 Wagner Rd, Westerly, RI 02891", "lat": 41.349102, "lng": -71.73538, "ref_id": 23386083, "rating": 3.5, "num_reviews": 0, "website": "http://www.farmhousekitchenri.com/", "contact_phone": "4013228883", "contact_email": "dine@farmhousekitchenri.com", "status": 1, "source_type": 1, "numberReviews": 4}, {"name": "Niko's Pizza House", "type": "restaurant", "image": "https://dynamic-media-cdn.tripadvisor.com/media/photo-o/17/c5/23/93/photo0jpg.jpg?w=1000&s=1", "address": "216 Harrisville Main St, Harrisville, Burrillville, RI 02830-1414", "lat": 41.963757, "lng": -71.67522, "ref_id": 871800, "rating": 4, "num_reviews": 0, "website": "http://www.facebook.com/pages/Nikos-Pizza/325601074164133", "contact_phone": "+1 401-568-8666", "contact_email": "", "status": 1, "source_type": 1, "numberReviews": 18}, {"name": "Saloon No. 6", "type": "restaurant", "image": null, "address": "141 Worcester Rd, Webster, MA 01570-2104", "lat": 42.079445, "lng": -71.86994, "ref_id": 25301573, "rating": 4, "num_reviews": 0, "website": "https://www.saloon6.com", "contact_phone": "+15084617216", "contact_email": null, "status": 1, "source_type": 1, "numberReviews": 4}, {"name": "La Botte Ristorante", "type": "restaurant", "image": "https://dynamic-media-cdn.tripadvisor.com/media/photo-o/1b/8a/ee/69/koi-pond-view-room.jpg?w=1000&s=1", "address": "14 Martine Ave, White Plains, NY 10606", "lat": 41.03016, "lng": -73.77272, "ref_id": 20130760, "rating": 4.5, "num_reviews": 0, "website": "http://www.labotteristorante.com/", "contact_phone": "+1 914-461-2950", "contact_email": "info@labotteristorante.com", "status": 1, "source_type": 1, "numberReviews": 14}, {"name": "Modern On The Rails", "type": "restaurant", "image": "https://dynamic-media-cdn.tripadvisor.com/media/photo-o/15/7d/c5/93/photo3jpg.jpg?w=1000&s=1", "address": "1 Station Plz, Mamaroneck, NY 10543-2245", "lat": 40.953953, "lng": -73.73688, "ref_id": 9457575, "rating": 4, "num_reviews": 0, "website": "http://www.modernontherails.com", "contact_phone": "+1 914-777-9300", "contact_email": "contact@modernontherails.com", "status": 1, "source_type": 1, "numberReviews": 69}, {"name": "Little Georges Restaurant", "type": "restaurant", "image": "https://dynamic-media-cdn.tripadvisor.com/media/photo-o/11/88/92/59/counter-serve.jpg?w=1000&s=1", "address": "2648 Westfield St, West Springfield, MA 01089-2069", "lat": 42.107628, "lng": -72.68836, "ref_id": 1927777, "rating": 4.5, "num_reviews": 0, "website": "http://littlegeorgesrestuarant.com/", "contact_phone": "+1 413-788-2120", "contact_email": "", "status": 1, "source_type": 1, "numberReviews": 65}, {"name": "LongHorn Steakhouse", "type": "restaurant", "image": "https://dynamic-media-cdn.tripadvisor.com/media/photo-o/06/07/9c/6f/longhorn-steakhouse.jpg?w=1000&s=1", "address": "1105 Riverdale St, West Springfield, MA 01089", "lat": 42.133984, "lng": -72.62378, "ref_id": 586490, "rating": 4, "num_reviews": 0, "website": "https://www.longhornsteakhouse.com/locations/ma/west-springfield/west-springfield/5196", "contact_phone": "+1 413-747-8500", "contact_email": "", "status": 1, "source_type": 1, "numberReviews": 192}, {"name": "Taste of Lebanon", "type": "restaurant", "image": "https://dynamic-media-cdn.tripadvisor.com/media/photo-o/14/94/5d/3b/photo0jpg.jpg?w=1000&s=1", "address": "553 Main St, West Springfield, MA 01089-3923", "lat": 42.10209, "lng": -72.60877, "ref_id": 8335093, "rating": 4.5, "num_reviews": 0, "website": "http://www.tasteoflebanonma.com", "contact_phone": "+1 413-363-0414", "contact_email": null, "status": 1, "source_type": 1, "numberReviews": 51}, {"name": "UNO Pizzeria & Grill", "type": "restaurant", "image": "https://dynamic-media-cdn.tripadvisor.com/media/photo-o/09/b1/7e/54/pizzaria-uno-chicago.jpg?w=1000&s=1", "address": "820 Hall of Fame Ave, Springfield, MA 01105-2524", "lat": 42.09226, "lng": -72.58336, "ref_id": 669744, "rating": 4, "num_reviews": 0, "website": "http://www.unos.com/", "contact_phone": "+1 413-733-1300", "contact_email": "", "status": 1, "source_type": 1, "numberReviews": 192}, {"name": "Storrowton Tavern & Carriage House", "type": "restaurant", "image": "https://dynamic-media-cdn.tripadvisor.com/media/photo-o/0f/d3/d1/70/full-bar.jpg?w=1000&s=1", "address": "1305 Memorial Ave Gate 1, West Springfield, MA 01089-3525", "lat": 42.09138, "lng": -72.61678, "ref_id": 2139194, "rating": 4, "num_reviews": 0, "website": "https://www.storrowton.com/", "contact_phone": "+1 413-732-4188", "contact_email": "vin.calvanese@gmail.com", "status": 1, "source_type": 1, "numberReviews": 196}, {"name": "99 Restaurants", "type": "restaurant", "image": "https://dynamic-media-cdn.tripadvisor.com/media/photo-o/0f/b9/34/5e/smothered-sirloin-tips.jpg?w=1000&s=1", "address": "1053 Riverdale St Unit A, West Springfield, MA 01089-4614", "lat": 42.13258, "lng": -72.6253, "ref_id": 585489, "rating": 4, "num_reviews": 0, "website": "https://www.facebook.com/141083065927199", "contact_phone": "+1 413-858-1995", "contact_email": "", "status": 1, "source_type": 1, "numberReviews": 95}, {"name": "Dunkin'", "type": "restaurant", "image": null, "address": "3115 Route 22, # 12 # 12, Patterson, NY 12563", "lat": 41.515987, "lng": -73.591576, "ref_id": 17832595, "rating": 4.5, "num_reviews": 0, "website": "https://locations.dunkindonuts.com/en/ny/patterson/3115-route-22/336563?utm_source=bing&utm_medium=local&utm_campaign=localmaps&utm_content=336563&y_source=1_mtixmti4ntqtndgzlwxvy2f0aw9ulndlynnpdgu%3d", "contact_phone": "8458787655", "contact_email": null, "status": 1, "source_type": 1, "numberReviews": 2}, {"name": "Front Street Pizza & Deli LLC", "type": "restaurant", "image": null, "address": "1 Front Street, Patterson, NY 12563", "lat": 41.513393, "lng": -73.604515, "ref_id": 19340908, "rating": 5, "num_reviews": 0, "website": "https://www.frontstreetpizzadeli.com/", "contact_phone": "+1 845-878-6600", "contact_email": "frontstpizza@optonline.net", "status": 1, "source_type": 1, "numberReviews": 1}, {"name": "Kanopi", "type": "restaurant", "image": "https://dynamic-media-cdn.tripadvisor.com/media/photo-o/1d/59/c2/11/the-linguine-with-mushroom.jpg?w=1000&s=1", "address": "One Renaissance Square, White Plains, NY 10601-3000", "lat": 41.033165, "lng": -73.76765, "ref_id": 13559761, "rating": 4, "num_reviews": 0, "website": "http://kanopievents.com", "contact_phone": "+1 914-761-4242", "contact_email": "kanopi@kanopievents.com", "status": 1, "source_type": 1, "numberReviews": 10}, {"name": "Mario's Pizza & Restaurant", "type": "restaurant", "image": "https://dynamic-media-cdn.tripadvisor.com/media/photo-o/12/64/ad/0e/average-slice.jpg?w=1000&s=1", "address": "118 Mamaroneck Ave, White Plains, NY 10601-5201", "lat": 41.029705, "lng": -73.76582, "ref_id": 2019815, "rating": 4, "num_reviews": 0, "website": "http://mariospizzawp.com", "contact_phone": "+1 914-761-7829", "contact_email": "contact@bestpizzapasta.com", "status": 1, "source_type": 1, "numberReviews": 24}, {"name": "Twisted Italian Cafe", "type": "restaurant", "image": "https://dynamic-media-cdn.tripadvisor.com/media/photo-o/1c/84/29/5a/dinner-tonight.jpg?w=1000&s=1", "address": "1400 Park St, Hartford, CT 06106-2247", "lat": null, "lng": null, "ref_id": 21315793, "rating": 5, "num_reviews": 0, "website": "https://www.twisteditaliancafe.com/", "contact_phone": "+1 860-470-6988", "contact_email": "michelle@twisteditaliancafe.com", "status": 1, "source_type": 1, "numberReviews": 2}, {"name": "Gianfranco", "type": "restaurant", "image": "https://dynamic-media-cdn.tripadvisor.com/media/photo-o/1c/9e/f8/41/gianfranco.jpg?w=1000&s=1", "address": "88 Virginia Rd, White Plains, NY 10603-1432", "lat": 41.06449, "lng": -73.7779, "ref_id": 545555, "rating": 4, "num_reviews": 0, "website": "https://www.facebook.com/pages/Gianfranco-Pizzeria-and-Resta-Urant-Inc/114851528534126", "contact_phone": "+1 914-682-5655", "contact_email": "", "status": 1, "source_type": 1, "numberReviews": 14}, {"name": "McDonald's", "type": "restaurant", "image": "https://dynamic-media-cdn.tripadvisor.com/media/photo-o/2b/cc/6f/bc/caption.jpg?w=1000&s=1", "address": "352 Riverdale Rd, West Springfield, MA 01089-4606", "lat": 42.115784, "lng": -72.62402, "ref_id": 4160015, "rating": 3, "num_reviews": 0, "website": "https://www.mcdonalds.com/us/en-us/location/ma/west-springfield/352-riverdale-rd/356.html?cid=rf%3ayxt%3aron%3a%3aclicks%3fcid%3drf%3ayxt%3afb%3a%3aclicks", "contact_phone": "+1 413-737-5153", "contact_email": null, "status": 1, "source_type": 1, "numberReviews": 8}, {"name": "The Place 2 Be", "type": "restaurant", "image": "https://dynamic-media-cdn.tripadvisor.com/media/photo-o/28/6b/80/6b/caption.jpg?w=1000&s=1", "address": "1000 Hall Of Fame Ave #5, Springfield, MA 01105-2518", "lat": 42.09357, "lng": -72.58526, "ref_id": 25361725, "rating": 2.5, "num_reviews": 0, "website": "http://www.place2bect.com", "contact_phone": "+1 413-342-4255", "contact_email": null, "status": 1, "source_type": 1, "numberReviews": 15}, {"name": "Panda House", "type": "restaurant", "image": "https://dynamic-media-cdn.tripadvisor.com/media/photo-o/1b/5c/eb/2f/menu.jpg?w=1000&s=1", "address": "589 E Main St, Westfield, MA 01085-3324", "lat": 42.11227, "lng": -72.71839, "ref_id": 852640, "rating": 3, "num_reviews": 0, "website": "https://www.facebook.com/144295025664869", "contact_phone": "+1 413-572-9816", "contact_email": "", "status": 1, "source_type": 1, "numberReviews": 14}, {"name": "Friendly's", "type": "restaurant", "image": "https://dynamic-media-cdn.tripadvisor.com/media/photo-o/1a/14/a2/25/friendly-s.jpg?w=1000&s=1", "address": "562 N Main St, East Longmeadow, MA 01028-1809", "lat": 42.07961, "lng": -72.53377, "ref_id": 4159737, "rating": 2.5, "num_reviews": 0, "website": "http://www.friendlysrestaurants.com/restaurants/friendlys-east-longmeadow-01028/?id=25", "contact_phone": "+1 413-781-0839", "contact_email": null, "status": 1, "source_type": 1, "numberReviews": 9}, {"name": "Little Panda Chinese Restaurant", "type": "restaurant", "image": "https://dynamic-media-cdn.tripadvisor.com/media/photo-o/28/27/c4/b1/menu.jpg?w=1000&s=1", "address": "166 White St, Springfield, MA 01108-1319", "lat": 42.09328, "lng": -72.55729, "ref_id": 4236376, "rating": 3, "num_reviews": 0, "website": "https://www.facebook.com/pages/Little-Panda-Chinese-Restaurant/115585418471443", "contact_phone": "+1 413-439-0878", "contact_email": null, "status": 1, "source_type": 1, "numberReviews": 4}, {"name": "Towne Tap Room", "type": "restaurant", "image": null, "address": "378 Walnut Street Ext, Agawam, MA 01001-1530", "lat": 42.08677, "lng": -72.62952, "ref_id": 19680397, "rating": 1, "num_reviews": 0, "website": "http://www.townetaproom.com/", "contact_phone": null, "contact_email": null, "status": 1, "source_type": 1, "numberReviews": 1}, {"name": "MJ's Pizza & Grinders", "type": "restaurant", "image": null, "address": "955 Worthington Street, Springfield, MA 01105", "lat": 42.112694, "lng": -72.57897, "ref_id": 4157710, "rating": 2, "num_reviews": 0, "website": "https://www.mjspizza.net/", "contact_phone": "+1 413-788-9211", "contact_email": "info@mjspizza.net", "status": 1, "source_type": 1, "numberReviews": 4}, {"name": "Mi Antojito Bakery", "type": "restaurant", "image": null, "address": "126 Walnut St, Springfield, MA 01105-1543", "lat": 42.10524, "lng": -72.57354, "ref_id": 26887456, "rating": -1, "num_reviews": 0, "website": "https://www.facebook.com/134933306571626", "contact_phone": "+14137812201", "contact_email": null, "status": 1, "source_type": 1, "numberReviews": 0}, {"name": "Christopher's Package Store", "type": "restaurant", "image": null, "address": "2803 Main St, Springfield, MA 01107-1569", "lat": 42.11659, "lng": -72.60667, "ref_id": 26915650, "rating": -1, "num_reviews": 0, "website": "https://www.facebook.com/100523346676133", "contact_phone": "+1 413-733-1671", "contact_email": null, "status": 1, "source_type": 1, "numberReviews": 0}, {"name": "Pacifica Asian Cuisine", "type": "restaurant", "image": null, "address": "68 Bridge Street, Suffield, CT 06078", "lat": null, "lng": null, "ref_id": 25387090, "rating": -1, "num_reviews": 0, "website": "http://www.68pacifica.com/", "contact_phone": "+1 860-668-1291", "contact_email": null, "status": 1, "source_type": 1, "numberReviews": 0}, {"name": "1636 North", "type": "restaurant", "image": "https://dynamic-media-cdn.tripadvisor.com/media/photo-o/27/4d/92/5c/1636-north.jpg?w=1000&s=1", "address": "220 Worthington St, Springfield, MA 01103-2302", "lat": 42.10305, "lng": -72.58785, "ref_id": 24990583, "rating": -1, "num_reviews": 0, "website": "https://www.facebook.com/102680704894894", "contact_phone": "+1 413-726-4932", "contact_email": "1636north@gmail.com", "status": 1, "source_type": 1, "numberReviews": 0}, {"name": "Domino's Pizza", "type": "restaurant", "image": null, "address": "136 Walnut St, Springfield, MA 01105", "lat": 42.104824, "lng": -72.57309, "ref_id": 15655849, "rating": -1, "num_reviews": 0, "website": "https://www.dominos.com/en/?redirect=homepage&utm_source=locallistings&utm_medium=loclist&utm_campaign=localmaps", "contact_phone": "+1 413-827-0075", "contact_email": null, "status": 1, "source_type": 1, "numberReviews": 0}, {"name": "Stappa Gap Jamaican Restaurant", "type": "restaurant", "image": null, "address": "535 Union Street, Springfield, MA 1109", "lat": 42.107536, "lng": -72.57241, "ref_id": 25503403, "rating": -1, "num_reviews": 0, "website": null, "contact_phone": null, "contact_email": null, "status": 1, "source_type": 1, "numberReviews": 0}, {"name": "Global Supermarket LLC", "type": "restaurant", "image": null, "address": "907 Main St, West Springfield, MA 01089-3941", "lat": 42.099075, "lng": -72.6036, "ref_id": 26953390, "rating": -1, "num_reviews": 0, "website": "https://www.facebook.com/1879765358974529", "contact_phone": "+1 413-301-8346", "contact_email": null, "status": 1, "source_type": 1, "numberReviews": 0}, {"name": "Michael's Pasta Ristorante", "type": "restaurant", "image": null, "address": "291 Springfield St, Agawam, MA 01001-1555", "lat": 42.08786, "lng": -72.639336, "ref_id": 25172025, "rating": -1, "num_reviews": 0, "website": "www.michaelshouseofpasta.com", "contact_phone": "+1 413-273-1002", "contact_email": null, "status": 1, "source_type": 1, "numberReviews": 0}, {"name": "Taco Bell", "type": "restaurant", "image": null, "address": "2433 Main Street, Springfield, MA 01104", "lat": 42.11215, "lng": -72.60366, "ref_id": 15653280, "rating": -1, "num_reviews": 0, "website": "https://locations.tacobell.com/ma/springfield/2433-main-street.html?utm_source=yext&utm_campaign=yextpowerlistings&utm_medium=referral&utm_term=033637&utm_content=website&y_source=1_ODc2OTUxMi03NjktbG9jYXRpb24ud2Vic2l0ZQ%3D%3D", "contact_phone": "+1 413-858-7171", "contact_email": null, "status": 1, "source_type": 1, "numberReviews": 0}, {"name": "Subway", "type": "restaurant", "image": null, "address": "77 West St Subway Pride C-Store, Springfield, MA 01104", "lat": 42.110466, "lng": -72.61058, "ref_id": 5555372, "rating": -1, "num_reviews": 0, "website": "https://restaurants.subway.com/united-states/ma/springfield/77-west-st?utm_source=yext-other&utm_medium=local&utm_term=acq&utm_content=43040&utm_campaign=evergreen-2020&y_source=1_MTQ5MTA1OTktNzY5LWxvY2F0aW9uLndlYnNpdGU%3D", "contact_phone": "+1 413-731-0622", "contact_email": null, "status": 1, "source_type": 1, "numberReviews": 0}, {"name": "Tapia Market And Deli", "type": "restaurant", "image": null, "address": "935 Worthington St, Springfield, MA 01105-1012", "lat": 42.11264, "lng": -72.57933, "ref_id": 26943967, "rating": -1, "num_reviews": 0, "website": "https://www.facebook.com/212114332956466", "contact_phone": "+14133177898", "contact_email": null, "status": 1, "source_type": 1, "numberReviews": 0}, {"name": "Silvio's Restaurant & Pizzeria", "type": "restaurant", "image": "https://dynamic-media-cdn.tripadvisor.com/media/photo-o/02/a2/c3/9c/meatball-wedge.jpg?w=1000&s=1", "address": "628 Columbus Ave Rose Hill Shopping Center, Thornwood, NY 10594-1909", "lat": 41.11415, "lng": -73.77131, "ref_id": 2631737, "rating": 3.5, "num_reviews": 0, "website": "http://www.silviosrestaurant.com", "contact_phone": "+1 914-769-6077", "contact_email": "silviosrestaurant@gmail.com", "status": 1, "source_type": 1, "numberReviews": 33}, {"name": "Haiku", "type": "restaurant", "image": "https://dynamic-media-cdn.tripadvisor.com/media/photo-o/0b/76/5d/e0/ta-img-20160531-193046.jpg?w=1000&s=1", "address": "717 White Plains Road, Scarsdale, NY 10583-5009", "lat": 40.97116, "lng": -73.80649, "ref_id": 2208023, "rating": 3.5, "num_reviews": 0, "website": "http://www.haikuscarsdale.com/", "contact_phone": "+1 914-722-4200", "contact_email": "", "status": 1, "source_type": 1, "numberReviews": 39}, {"name": "Tequila Sunrise", "type": "restaurant", "image": "https://dynamic-media-cdn.tripadvisor.com/media/photo-o/08/8d/19/b0/tequila-sunrise.jpg?w=1000&s=1", "address": "145 Larchmont Ave, Larchmont, NY 10538-2804", "lat": 40.92846, "lng": -73.7523, "ref_id": 970184, "rating": 3.5, "num_reviews": 0, "website": "http://www.tequilasunriseny.com/", "contact_phone": "+1 914-834-6378", "contact_email": "", "status": 1, "source_type": 1, "numberReviews": 49}, {"name": "Augie's Italian", "type": "restaurant", "image": "https://dynamic-media-cdn.tripadvisor.com/media/photo-o/15/41/69/20/photo1jpg.jpg?w=1000&s=1", "address": "94 Chatsworth Ave, Larchmont, NY 10538-2900", "lat": 40.93947, "lng": -73.76447, "ref_id": 14916738, "rating": 4, "num_reviews": 0, "website": "http://www.augiesitalian.com/", "contact_phone": "+1 914-834-3800", "contact_email": "Augiesrestaurant@gmail.com", "status": 1, "source_type": 1, "numberReviews": 8}, {"name": "Wood & Fire", "type": "restaurant", "image": "https://dynamic-media-cdn.tripadvisor.com/media/photo-o/1c/56/4b/00/steak-avocado-salad.jpg?w=1000&s=1", "address": "118 Brook St, Scarsdale, NY 10583-5400", "lat": 40.97765, "lng": -73.80668, "ref_id": 17594627, "rating": 4, "num_reviews": 0, "website": "http://scarsdale.woodandfirepizza.com", "contact_phone": "+1 914-722-4854", "contact_email": "info@w-f-scarsdale.com", "status": 1, "source_type": 1, "numberReviews": 8}, {"name": "Amore Pizza & Italian Restaurant", "type": "restaurant", "image": "https://dynamic-media-cdn.tripadvisor.com/media/photo-o/17/c1/e9/57/photo1jpg.jpg?w=1000&s=1", "address": "1479 Weaver St, Scarsdale, NY 10583-7018", "lat": 40.9808, "lng": -73.77649, "ref_id": 3609116, "rating": 3.5, "num_reviews": 0, "website": "http://www.amorepizzany.com", "contact_phone": "+1 914-725-9000", "contact_email": "amore@worldsbestpizza.net", "status": 1, "source_type": 1, "numberReviews": 19}, {"name": "The Restaurant at Weekapaug Inn", "type": "restaurant", "image": "https://dynamic-media-cdn.tripadvisor.com/media/photo-o/15/2c/c1/e8/the-restaurant-at-weekepaug.jpg?w=1000&s=1", "address": "25 Spray Rock Rd, Westerly, RI 02891-4606", "lat": 41.330566, "lng": -71.750336, "ref_id": 527329, "rating": 4, "num_reviews": 0, "website": "http://weekapauginn.com", "contact_phone": "+1 401-637-7600", "contact_email": "communications@weekapauginn.com", "status": 1, "source_type": 1, "numberReviews": 119}, {"name": "The Back Room", "type": "restaurant", "image": "https://dynamic-media-cdn.tripadvisor.com/media/photo-o/0d/ee/00/10/menu-for-the-back-room.jpg?w=1000&s=1", "address": "827 Springfield St, Feeding Hills, MA 01030-2126", "lat": 42.07475, "lng": -72.65642, "ref_id": 11926300, "rating": 4.5, "num_reviews": 0, "website": "http://www.thebackroomagawam.com", "contact_phone": "+1 413-342-4266", "contact_email": null, "status": 1, "source_type": 1, "numberReviews": 36}, {"name": "Granny's Baking Table", "type": "restaurant", "image": "https://dynamic-media-cdn.tripadvisor.com/media/photo-o/1c/d2/d4/2f/photo0jpg.jpg?w=1000&s=1", "address": "309 Bridge St, Springfield, MA 01103-1411", "lat": 42.10406, "lng": -72.5907, "ref_id": 19802518, "rating": 5, "num_reviews": 0, "website": "http://www.grannysbakingtable.com/", "contact_phone": "+1 413-333-4828", "contact_email": "gbakingtable@gmail.com", "status": 1, "source_type": 1, "numberReviews": 12}, {"name": "Eat", "type": "restaurant", "image": "https://dynamic-media-cdn.tripadvisor.com/media/photo-o/19/9b/04/a4/photo0jpg.jpg?w=1000&s=1", "address": "609 Page Blvd, Springfield, MA 01104-3030", "lat": 42.140545, "lng": -72.5585, "ref_id": 8525301, "rating": 4.5, "num_reviews": 0, "website": "https://www.facebook.com/pg/eatbistro/about/", "contact_phone": "+1 413-276-0040", "contact_email": null, "status": 1, "source_type": 1, "numberReviews": 30}, {"name": "Olive Garden Italian Restaurant", "type": "restaurant", "image": "https://dynamic-media-cdn.tripadvisor.com/media/photo-o/19/a2/74/02/olive-garden.jpg?w=1000&s=1", "address": "919 Riverdale Street, West Springfield, MA 01089", "lat": 42.128887, "lng": -72.62475, "ref_id": 2661875, "rating": 4, "num_reviews": 0, "website": "https://www.olivegarden.com/locations/ma/west-springfield/west-springfield-ma-riverdale-shops/1804", "contact_phone": "+1 413-750-5390", "contact_email": "", "status": 1, "source_type": 1, "numberReviews": 86}, {"name": "Casa Di Lisa", "type": "restaurant", "image": "https://dynamic-media-cdn.tripadvisor.com/media/photo-o/11/c4/22/8d/photo1jpg.jpg?w=1000&s=1", "address": "801 Springfield St, Feeding Hills, MA 01030-2155", "lat": 42.07515, "lng": -72.65557, "ref_id": 1991607, "rating": 4, "num_reviews": 0, "website": "http://casadilisa.com", "contact_phone": "+1 413-786-1900", "contact_email": "info@casadilisa.com", "status": 1, "source_type": 1, "numberReviews": 64}, {"name": "Main Street Grille", "type": "restaurant", "image": "https://dynamic-media-cdn.tripadvisor.com/media/photo-o/11/b2/5c/ec/dining-area.jpg?w=1000&s=1", "address": "369 Main St Xtreme Paintball, Airsoft, & Birthday Parties- FIELD, Agawam, MA 01001-1849", "lat": 42.08074, "lng": -72.61456, "ref_id": 4159563, "rating": 4.5, "num_reviews": 0, "website": "https://www.mainstgrillagawam.com/index.html?y_source=1_mjm4mte0mdmtntu5lwxvy2f0aw9ulndlynnpdgu%3d", "contact_phone": "+1 413-789-2020", "contact_email": "l.theroux@mainstgrillagawam.com", "status": 1, "source_type": 1, "numberReviews": 25}, {"name": "Liquori's Pizza", "type": "restaurant", "image": "https://dynamic-media-cdn.tripadvisor.com/media/photo-o/0b/e3/13/b5/photo1jpg.jpg?w=1000&s=1", "address": "659 Westfield St, West Springfield, MA 01089-3865", "lat": 42.10368, "lng": -72.63435, "ref_id": 385748, "rating": 4.5, "num_reviews": 0, "website": "https://www.facebook.com/Liquoris-Pizza-117126014972636/", "contact_phone": "+1 413-737-9690", "contact_email": "", "status": 1, "source_type": 1, "numberReviews": 44}, {"name": "Charlie's Diner", "type": "restaurant", "image": "https://dynamic-media-cdn.tripadvisor.com/media/photo-o/0a/dd/87/e3/pretty-good-diner-food.jpg?w=1000&s=1", "address": "218 Union St, West Springfield, MA 01089-4103", "lat": 42.10272, "lng": -72.61754, "ref_id": 882943, "rating": 4, "num_reviews": 0, "website": "http://charliesdiner.com", "contact_phone": "+1 413-733-8551", "contact_email": "", "status": 1, "source_type": 1, "numberReviews": 33}, {"name": "Sunny Side Up Restaurant", "type": "restaurant", "image": "https://dynamic-media-cdn.tripadvisor.com/media/photo-o/1d/48/ce/3e/outside.jpg?w=1000&s=1", "address": "46 Morgan Rd, West Springfield, MA 01089-1410", "lat": 42.13015, "lng": -72.6283, "ref_id": 23500325, "rating": 5, "num_reviews": 0, "website": "http://sunnysideuprestaurant.net", "contact_phone": "+1 413-732-2500", "contact_email": "info@sunnysideuprestaurant.net", "status": 1, "source_type": 1, "numberReviews": 8}, {"name": "The Crest Room", "type": "restaurant", "image": "https://dynamic-media-cdn.tripadvisor.com/media/photo-o/21/8a/e8/a5/12-oz-brisket-steak.jpg?w=1000&s=1", "address": "706 Westfield St, West Springfield, MA 01089-3866", "lat": 42.104767, "lng": -72.63438, "ref_id": 863337, "rating": 4.5, "num_reviews": 0, "website": "http://www.thecrestroom.com/", "contact_phone": "+1 413-739-7700", "contact_email": "TheCrestRoom@gmail.com", "status": 1, "source_type": 1, "numberReviews": 23}, {"name": "Morea Restaurant", "type": "restaurant", "image": "https://dynamic-media-cdn.tripadvisor.com/media/photo-o/2a/c3/48/3e/cocktails.jpg?w=1000&s=1", "address": "340 Oxford Road, Oxford, CT 06478", "lat": 44.093708, "lng": -70.52696, "ref_id": 26818831, "rating": 5, "num_reviews": 0, "website": "www.moreaoxford.com", "contact_phone": "+1 203-463-8227", "contact_email": "moreaoxford@gmail.com", "status": 1, "source_type": 1, "numberReviews": 6}, {"name": "Bello Pizza", "type": "restaurant", "image": "https://dynamic-media-cdn.tripadvisor.com/media/photo-o/1c/98/00/62/bello-pizza.jpg?w=1000&s=1", "address": "118 N County Shopping Ctr, Goldens Bridge, NY 10526-1008", "lat": 41.29393, "lng": -73.6763, "ref_id": 23127169, "rating": 4, "num_reviews": 0, "website": null, "contact_phone": "+1 914-232-4363", "contact_email": null, "status": 1, "source_type": 1, "numberReviews": 1}, {"name": "Baskin-Robbins", "type": "restaurant", "image": null, "address": "5 Goldens Bridge Shopping Ctr, Goldens Bridge, NY 10526", "lat": 41.295578, "lng": -73.67552, "ref_id": 17832275, "rating": 4, "num_reviews": 0, "website": "https://locations.baskinrobbins.com/ny/goldens-bridge/5-goldens-bridge-shopping-ctr?utm_source=Yext&utm_medium=organic&utm_campaign=Yext", "contact_phone": "+1 914-232-1860", "contact_email": null, "status": 1, "source_type": 1, "numberReviews": 1}, {"name": "Gordon's DeliCafe", "type": "restaurant", "image": null, "address": "10 Front St, Croton Falls, NY 10519-7008", "lat": 41.347942, "lng": -73.66256, "ref_id": 7249885, "rating": 3.5, "num_reviews": 0, "website": "https://gordonsdeli.net/", "contact_phone": "+1 914-277-3900", "contact_email": "gordonsdelicafe@yahoo.com", "status": 1, "source_type": 1, "numberReviews": 4}, {"name": "Limni- Mediterranean Kitchen", "type": "restaurant", "image": "https://dynamic-media-cdn.tripadvisor.com/media/photo-o/1a/d3/0a/b2/baked-red-snapper-on.jpg?w=1000&s=1", "address": "47 New York 311, Carmel, NY 10512-5206", "lat": 41.467793, "lng": -73.66204, "ref_id": 18844638, "rating": 4, "num_reviews": 0, "website": "http://www.limniny.com/", "contact_phone": "+1 845-200-7152", "contact_email": null, "status": 1, "source_type": 1, "numberReviews": 21}, {"name": "Tiger's Pride Restaurant", "type": "restaurant", "image": null, "address": "33 Smith Ave 100, Westfield, MA 01085-2710", "lat": 42.12479, "lng": -72.76152, "ref_id": 23707233, "rating": 5, "num_reviews": 0, "website": null, "contact_phone": "+1 413-564-3123", "contact_email": "tigerspride@schoolsofwestfield.org", "status": 1, "source_type": 1, "numberReviews": 1}, {"name": "Gigi's Pizza", "type": "restaurant", "image": null, "address": "358 Southwick Rd, Westfield, MA 01085-4750", "lat": 42.0984, "lng": -72.76299, "ref_id": 585257, "rating": 3, "num_reviews": 0, "website": "https://gigispizzas.com/", "contact_phone": "+1 413-562-0887", "contact_email": "info@gigispizzeriawestfield.com", "status": 1, "source_type": 1, "numberReviews": 11}, {"name": "Taco Bell", "type": "restaurant", "image": null, "address": "577 Western Ave, Westfield, MA 01085-2580", "lat": 42.12984, "lng": -72.79547, "ref_id": 1230795, "rating": 4.5, "num_reviews": 0, "website": null, "contact_phone": "", "contact_email": "", "status": 1, "source_type": 1, "numberReviews": 3}, {"name": "Boston Bay Pizza 2", "type": "restaurant", "image": null, "address": "73 Elm St, Westfield, MA 1085", "lat": 42.122154, "lng": -72.74838, "ref_id": 25440610, "rating": 4, "num_reviews": 0, "website": null, "contact_phone": "+1 413-572-0099", "contact_email": null, "status": 1, "source_type": 1, "numberReviews": 1}, {"name": "Burger King", "type": "restaurant", "image": null, "address": "72 Main St, Westfield, MA 01085", "lat": 42.120766, "lng": -72.74546, "ref_id": 4134516, "rating": 3, "num_reviews": 0, "website": "https://burgerking.com/store-locator/store/restaurant_1,731", "contact_phone": "+1 413-562-0380", "contact_email": null, "status": 1, "source_type": 1, "numberReviews": 8}, {"name": "Bella Roma", "type": "restaurant", "image": "https://dynamic-media-cdn.tripadvisor.com/media/photo-o/0c/6b/ae/60/photo0jpg.jpg?w=1000&s=1", "address": "57 Southwick Rd, Westfield, MA 01085-4729", "lat": 42.10885, "lng": -72.76522, "ref_id": 3625812, "rating": 3, "num_reviews": 0, "website": "http://bellaromewestfield.com", "contact_phone": "+1 413-642-5656", "contact_email": null, "status": 1, "source_type": 1, "numberReviews": 18}, {"name": "Subway", "type": "restaurant", "image": null, "address": "24 Main Street, Westfield, MA 01085", "lat": 42.121037, "lng": -72.74791, "ref_id": 4160549, "rating": 2.5, "num_reviews": 0, "website": "https://restaurants.subway.com/united-states/ma/westfield/24-main-street?utm_source=yxt-bing&utm_medium=local&utm_term=acq&utm_content=5302&utm_campaign=evergreen-2020&y_source=1_mtq4otu3ntytndgzlwxvy2f0aw9ulndlynnpdgu%3d", "contact_phone": "+1 413-568-6130", "contact_email": null, "status": 1, "source_type": 1, "numberReviews": 2}, {"name": "Domino's Pizza", "type": "restaurant", "image": null, "address": "26 Main Street, Westfield, MA 01085", "lat": 42.121162, "lng": -72.74781, "ref_id": 4157632, "rating": 2.5, "num_reviews": 0, "website": "https://www.dominos.com/en/?redirect=homepage&utm_source=locallistings&utm_medium=loclist&utm_campaign=localmaps", "contact_phone": "+1 413-562-4411", "contact_email": null, "status": 1, "source_type": 1, "numberReviews": 5}, {"name": "Valley Pizza", "type": "restaurant", "image": null, "address": "31B Franklin St, Westfield, MA 01085-2201", "lat": 42.12474, "lng": -72.7491, "ref_id": 17373660, "rating": 3.5, "num_reviews": 0, "website": "http://WWW.valleypizzama.com", "contact_phone": "+1 413-485-0066", "contact_email": null, "status": 1, "source_type": 1, "numberReviews": 4}, {"name": "Subway", "type": "restaurant", "image": null, "address": "21 Southwick Rd, Westfield, MA 01085", "lat": 42.109943, "lng": -72.76539, "ref_id": 26941082, "rating": -1, "num_reviews": 0, "website": "https://restaurants.subway.com/united-states/ma/westfield/21-southwick-rd?utm_source=yxt-bing&utm_medium=local&utm_term=acq&utm_content=43086&utm_campaign=evergreen-2020&y_source=1_mtq5mdmyntqtndgzlwxvy2f0aw9ulndlynnpdgu%3d", "contact_phone": "+1 413-562-1750", "contact_email": null, "status": 1, "source_type": 1, "numberReviews": 0}, {"name": "Sophia's Pizza & Sports Bar", "type": "restaurant", "image": "https://dynamic-media-cdn.tripadvisor.com/media/photo-o/14/69/6e/d8/sophia-s-pizza.jpg?w=1000&s=1", "address": "465 Breckwood Blvd, Springfield, MA 01109-1348", "lat": 42.11695, "lng": -72.52386, "ref_id": 585531, "rating": 2.5, "num_reviews": 0, "website": "https://www.menuwithprice.com/menu/sophias-pizza/massachusetts/springfield/626622", "contact_phone": "+1 413-782-5274", "contact_email": "", "status": 1, "source_type": 1, "numberReviews": 20}, {"name": "Domino's Pizza", "type": "restaurant", "image": null, "address": "670 Broadway St, Chicopee, MA 01020-2415", "lat": 42.140404, "lng": -72.58209, "ref_id": 17538472, "rating": 1, "num_reviews": 0, "website": "https://www.dominos.com/en/?redirect=homepage&utm_source=locallistings&utm_medium=loclist&utm_campaign=localmaps", "contact_phone": "+1 413-593-9100", "contact_email": null, "status": 1, "source_type": 1, "numberReviews": 1}, {"name": "Antonio's Grinders", "type": "restaurant", "image": null, "address": "1030 State St, Springfield, MA 01109-3132", "lat": 42.11497, "lng": -72.55725, "ref_id": 19662001, "rating": 1, "num_reviews": 0, "website": null, "contact_phone": null, "contact_email": null, "status": 1, "source_type": 1, "numberReviews": 1}, {"name": "Wood-N-Tap", "type": "restaurant", "image": "https://dynamic-media-cdn.tripadvisor.com/media/photo-o/28/c1/ca/9f/caption.jpg?w=1000&s=1", "address": "955 Riverdale St., West Springfield, MA 01089", "lat": 42.12987, "lng": -72.62557, "ref_id": 25389100, "rating": 2.5, "num_reviews": 0, "website": "https://www.woodntap.com/locations/west-springfield", "contact_phone": "+1 860-206-6284", "contact_email": "loyalty@wntus.com", "status": 1, "source_type": 1, "numberReviews": 15}, {"name": "Popeyes Louisiana Kitchen", "type": "restaurant", "image": null, "address": "665 Boston Rd, Springfield, MA 01119-1303", "lat": 42.134686, "lng": -72.52338, "ref_id": 5050584, "rating": 2.5, "num_reviews": 0, "website": "https://www.popeyes.com/store-locator/store/restaurant_84504?utm_source=yext&utm_medium=referral&utm_campaign=organic-local-listings", "contact_phone": "+1 413-782-1000", "contact_email": "popeyes11195@gmail.com", "status": 1, "source_type": 1, "numberReviews": 6}, {"name": "Burger King", "type": "restaurant", "image": "https://dynamic-media-cdn.tripadvisor.com/media/photo-o/07/da/9c/d3/burger-king.jpg?w=1000&s=1", "address": "983 Riverdale St, West Springfield, MA 01089", "lat": 42.130665, "lng": -72.6253, "ref_id": 4161265, "rating": 2, "num_reviews": 0, "website": "https://burgerking.com/store-locator/store/restaurant_1,639", "contact_phone": "+1 413-737-1343", "contact_email": null, "status": 1, "source_type": 1, "numberReviews": 10}, {"name": "McDonald's", "type": "restaurant", "image": null, "address": "782 State St, Springfield, MA 01109-4113", "lat": 42.111435, "lng": -72.565506, "ref_id": 15256012, "rating": 1, "num_reviews": 0, "website": "https://www.mcdonalds.com/us/en-us/location/ma/springfield/782-state-st/15470.html?cid=rf%3ayxt%3aron%3a%3aclicks%3fcid%3drf%3ayxt%3afb%3a%3aclicks", "contact_phone": "+14137881444", "contact_email": null, "status": 1, "source_type": 1, "numberReviews": 3}, {"name": "Marlees Bar Grill", "type": "restaurant", "image": null, "address": "750 Boston Rd, Springfield, MA 01119-1311", "lat": 42.1368, "lng": -72.520035, "ref_id": 26963118, "rating": -1, "num_reviews": 0, "website": "https://www.facebook.com/109217898343565", "contact_phone": "+14133639070", "contact_email": null, "status": 1, "source_type": 1, "numberReviews": 0}, {"name": "Tropical Food Market & Deli", "type": "restaurant", "image": null, "address": "343 Wilbraham Rd, Springfield, MA 01109-2727", "lat": 42.112774, "lng": -72.55151, "ref_id": 26885488, "rating": -1, "num_reviews": 0, "website": "https://www.facebook.com/109326885773637", "contact_phone": "+14134524174", "contact_email": null, "status": 1, "source_type": 1, "numberReviews": 0}, {"name": "Eileen Cak's Supplies & More", "type": "restaurant", "image": null, "address": "12 Hamburg St, Springfield, MA 01107-1327", "lat": 42.13184, "lng": -72.59975, "ref_id": 26942626, "rating": -1, "num_reviews": 0, "website": "https://www.facebook.com/463325333834160", "contact_phone": "+1 413-331-2594", "contact_email": null, "status": 1, "source_type": 1, "numberReviews": 0}, {"name": "Estrella Latina Restaurant", "type": "restaurant", "image": null, "address": "1003 Saint James Ave, Springfield, MA 01104", "lat": 42.136063, "lng": -72.56867, "ref_id": 26934558, "rating": -1, "num_reviews": 0, "website": "http://orderestrellalatinarestaurant.com/", "contact_phone": "4133630364", "contact_email": null, "status": 1, "source_type": 1, "numberReviews": 0}, {"name": "Crumbl - West Springfield", "type": "restaurant", "image": null, "address": "935 Riverdale St Ste A-106, West Springfield, MA 01089", "lat": 42.13071, "lng": -72.62378, "ref_id": 27753006, "rating": -1, "num_reviews": 0, "website": "https://crumblcookies.com/mawestspringfield", "contact_phone": "+1 413-707-5021", "contact_email": null, "status": 1, "source_type": 1, "numberReviews": 0}, {"name": "Wingstreet", "type": "restaurant", "image": null, "address": "1048 Riverdale Street, West Springfield, MA 1089", "lat": 42.13239, "lng": -72.62637, "ref_id": 25480946, "rating": -1, "num_reviews": 0, "website": null, "contact_phone": null, "contact_email": null, "status": 1, "source_type": 1, "numberReviews": 0}, {"name": "Domino's Pizza", "type": "restaurant", "image": null, "address": "790 Liberty Street, Springfield, MA 01104", "lat": 42.124496, "lng": -72.58467, "ref_id": 4158829, "rating": -1, "num_reviews": 0, "website": "https://www.dominos.com/en/?redirect=homepage&utm_source=locallistings&utm_medium=loclist&utm_campaign=localmaps", "contact_phone": "+1 413-827-8400", "contact_email": null, "status": 1, "source_type": 1, "numberReviews": 0}, {"name": "Subway", "type": "restaurant", "image": null, "address": "625 Boston Rd, Springfield, MA 01119-1303", "lat": 42.135303, "lng": -72.523186, "ref_id": 4187288, "rating": -1, "num_reviews": 0, "website": "https://www.facebook.com/264615673711078", "contact_phone": "+1 413-783-2929", "contact_email": null, "status": 1, "source_type": 1, "numberReviews": 0}, {"name": "Subway", "type": "restaurant", "image": null, "address": "405 Armory St, Springfield, MA 01104-2324", "lat": 42.120686, "lng": -72.5854, "ref_id": 26996438, "rating": -1, "num_reviews": 0, "website": "http://www.subway.com/en-us", "contact_phone": "+14137340200", "contact_email": null, "status": 1, "source_type": 1, "numberReviews": 0}, {"name": "Joy Bowl", "type": "restaurant", "image": null, "address": "935 Riverdale Street, West Springfield, MA 1089", "lat": 42.130318, "lng": -72.62167, "ref_id": 25524420, "rating": -1, "num_reviews": 0, "website": null, "contact_phone": null, "contact_email": null, "status": 1, "source_type": 1, "numberReviews": 0}, {"name": "Atlantis Fresh Market", "type": "restaurant", "image": null, "address": "11 Tapley Street, Springfield, MA 1104", "lat": 42.12481, "lng": -72.56762, "ref_id": 25542237, "rating": -1, "num_reviews": 0, "website": null, "contact_phone": null, "contact_email": null, "status": 1, "source_type": 1, "numberReviews": 0}, {"name": "Gappy's Pizza", "type": "restaurant", "image": null, "address": "323 New York 52 Ludingtoneville Rd, Carmel, NY 10512", "lat": 41.44444, "lng": -73.67693, "ref_id": 17741365, "rating": 5, "num_reviews": 0, "website": "http://www.gappyspizza.com", "contact_phone": "+1 845-878-0800", "contact_email": null, "status": 1, "source_type": 1, "numberReviews": 1}, {"name": "Odeens Bbq Carmel", "type": "restaurant", "image": null, "address": "Spins Bowl Center 23 Old Rte 6, Carmel, NY 10512", "lat": 41.4181, "lng": -73.66921, "ref_id": 25298293, "rating": 4, "num_reviews": 0, "website": "https://www.odeens.com/restaurantspinsbowlcarmel", "contact_phone": "+1 203-826-0145", "contact_email": null, "status": 1, "source_type": 1, "numberReviews": 1}, {"name": "Giannoni's Deli", "type": "restaurant", "image": null, "address": "22 1/2 Garth Rd, Scarsdale, NY 10583-3704", "lat": 40.98836, "lng": -73.80973, "ref_id": 4617453, "rating": 4, "num_reviews": 0, "website": "http://giannonis-deli.edan.io/", "contact_phone": "+1 914-472-4792", "contact_email": null, "status": 1, "source_type": 1, "numberReviews": 11}, {"name": "Bistro de Ville", "type": "restaurant", "image": "https://dynamic-media-cdn.tripadvisor.com/media/photo-o/2b/1f/fc/3e/caption.jpg?w=1000&s=1", "address": "185 Summerfield St, Scarsdale, NY 10583", "lat": 40.977192, "lng": -73.8032, "ref_id": 26312297, "rating": 5, "num_reviews": 0, "website": "bistrodeville.com", "contact_phone": null, "contact_email": null, "status": 1, "source_type": 1, "numberReviews": 2}, {"name": "Apiary", "type": "restaurant", "image": "https://dynamic-media-cdn.tripadvisor.com/media/photo-o/07/00/7b/aa/apiary.jpg?w=1000&s=1", "address": "157 Larchmont Ave, Larchmont, NY 10538-2804", "lat": 40.928757, "lng": -73.75272, "ref_id": 7281655, "rating": 4.5, "num_reviews": 0, "website": "http://www.facebook.com/apiarylarchmont", "contact_phone": "+1 914-834-3572", "contact_email": "apiarylarchmont@gmail.com", "status": 1, "source_type": 1, "numberReviews": 7}, {"name": "Barnes & Noble", "type": "restaurant", "image": null, "address": "680 Post Rd Vernon Hills Shopping Center, Scarsdale, NY 10583-5042", "lat": 40.971706, "lng": -73.80496, "ref_id": 19649480, "rating": 5, "num_reviews": 0, "website": "http://stores.barnesandnoble.com/store/3304", "contact_phone": "+1 914-723-3416", "contact_email": null, "status": 1, "source_type": 1, "numberReviews": 3}, {"name": "Tsuki Omakase", "type": "restaurant", "image": null, "address": "18 West Putnam Avenue, Greenwich, CT 06830", "lat": null, "lng": null, "ref_id": 25421213, "rating": 5, "num_reviews": 0, "website": "tsukict.com", "contact_phone": "+1 203-340-2588", "contact_email": null, "status": 1, "source_type": 1, "numberReviews": 2}, {"name": "E-Shot Cafe", "type": "restaurant", "image": "https://dynamic-media-cdn.tripadvisor.com/media/photo-o/0a/30/33/42/e-shot-cafe.jpg?w=1000&s=1", "address": "130 Chatsworth Ave, Larchmont, NY 10538-2902", "lat": 40.93296, "lng": -73.75946, "ref_id": 9735293, "rating": 5, "num_reviews": 0, "website": "https://www.facebook.com/eshotcafe/", "contact_phone": "+1 914-670-8188", "contact_email": null, "status": 1, "source_type": 1, "numberReviews": 5}, {"name": "Rita's Italian Ice Elmsford", "type": "restaurant", "image": "https://dynamic-media-cdn.tripadvisor.com/media/photo-o/0c/d7/6d/56/20160904-194200-largejpg.jpg?w=1000&s=1", "address": "330 Saw Mill River Rd, Elmsford, NY 10523-1507", "lat": 41.06648, "lng": -73.81414, "ref_id": 4730441, "rating": 4.5, "num_reviews": 0, "website": "http://www.facebook.com/ritasofelmsford/", "contact_phone": "+1 914-347-7482", "contact_email": "ritasofelmsford@gmail.com", "status": 1, "source_type": 1, "numberReviews": 7}, {"name": "Cheesecake Heaven", "type": "restaurant", "image": null, "address": "12 Gardner Hollow Rd, Poughquag, NY 12570-5132", "lat": 41.61703, "lng": -73.6752, "ref_id": 26943649, "rating": -1, "num_reviews": 0, "website": "http://www.cheesecakeheavenny.com", "contact_phone": "+18454538973", "contact_email": null, "status": 1, "source_type": 1, "numberReviews": 0}, {"name": "Dunkin'", "type": "restaurant", "image": null, "address": "1 Ely Rd, Westfield, MA 01085", "lat": 42.10014, "lng": -72.765076, "ref_id": 19340465, "rating": -1, "num_reviews": 0, "website": "https://locations.dunkindonuts.com/en/ma/westfield/1-ely-rd/350811?y_source=1_MTIxMTI5MDgtNzY5LWxvY2F0aW9uLndlYnNpdGU%3D", "contact_phone": "+1 413-579-3703", "contact_email": null, "status": 1, "source_type": 1, "numberReviews": 0}, {"name": "Shelter Harbor Inn", "type": "restaurant", "image": "https://dynamic-media-cdn.tripadvisor.com/media/photo-o/1a/ce/b5/b9/shelter-harbor-inn-restaurant.jpg?w=1000&s=1", "address": "10 Wagner Rd, Westerly, RI 02891-4701", "lat": 41.34945, "lng": -71.73532, "ref_id": 448819, "rating": 3.5, "num_reviews": 0, "website": "http://www.shelterharborinn.com/", "contact_phone": "+1 401-322-8883", "contact_email": "restaurant@shelterharborinn.com", "status": 1, "source_type": 1, "numberReviews": 128}, {"name": "Spritzers", "type": "restaurant", "image": null, "address": "63 Grove St, Pascoag, Burrillville, RI 02859-3145", "lat": 41.96375, "lng": -71.70376, "ref_id": 894337, "rating": 4, "num_reviews": 0, "website": null, "contact_phone": "+1 401-568-0530", "contact_email": "", "status": 1, "source_type": 1, "numberReviews": 4}, {"name": "Harry's Famous Pizza", "type": "restaurant", "image": null, "address": "324 NW Main St, Douglas, MA 01516-2259", "lat": 42.07106, "lng": -71.75743, "ref_id": 825619, "rating": 3, "num_reviews": 0, "website": "http://www.facebook.com/pages/Harry's%20Famous%20Pizza/120310284651548/", "contact_phone": "+1 508-476-4444", "contact_email": "", "status": 1, "source_type": 1, "numberReviews": 10}, {"name": "News Star", "type": "restaurant", "image": "https://dynamic-media-cdn.tripadvisor.com/media/photo-o/0d/e2/8c/82/menu-cover.jpg?w=1000&s=1", "address": "170 Pascoag Main St, Pascoag, Burrillville, RI 02859-3101", "lat": 41.95225, "lng": -71.69962, "ref_id": 4157459, "rating": 2, "num_reviews": 0, "website": "https://www.newsstarri.com", "contact_phone": "+1 401-567-7077", "contact_email": null, "status": 1, "source_type": 1, "numberReviews": 7}, {"name": "The Farmhouse", "type": "restaurant", "image": "https://dynamic-media-cdn.tripadvisor.com/media/photo-o/14/70/ae/2e/photo1jpg.jpg?w=1000&s=1", "address": "954 Old Post Rd Bedford Post, Bedford, NY 10506-1216", "lat": 41.22017, "lng": -73.62708, "ref_id": 1370359, "rating": 3.5, "num_reviews": 0, "website": "http://www.bedfordpostinn.com/", "contact_phone": "+1 914-234-7800", "contact_email": "", "status": 1, "source_type": 1, "numberReviews": 109}, {"name": "Bedford Gourmet", "type": "restaurant", "image": "https://dynamic-media-cdn.tripadvisor.com/media/photo-o/1d/66/32/dd/yummmm.jpg?w=1000&s=1", "address": "460 Old Post Rd, Bedford, NY 10506-1070", "lat": 41.19702, "lng": -73.65421, "ref_id": 10049314, "rating": 4.5, "num_reviews": 0, "website": "https://www.facebook.com/bedfordgourmet/", "contact_phone": "+1 914-234-9409", "contact_email": "bedfordgourmet@gmail.com", "status": 1, "source_type": 1, "numberReviews": 7}, {"name": "Kishuya", "type": "restaurant", "image": "https://dynamic-media-cdn.tripadvisor.com/media/photo-o/0a/ee/f3/a9/kishuya.jpg?w=1000&s=1", "address": "163 S Central Ave, Hartsdale, NY 10530-2314", "lat": 41.01512, "lng": -73.80311, "ref_id": 8653104, "rating": 4, "num_reviews": 0, "website": "http://www.kishuya.com/", "contact_phone": "+1 914-949-0600", "contact_email": null, "status": 1, "source_type": 1, "numberReviews": 28}, {"name": "The Irish Bank", "type": "restaurant", "image": "https://dynamic-media-cdn.tripadvisor.com/media/photo-o/10/ee/56/e6/hartsdale.jpg?w=1000&s=1", "address": "230 E Hartsdale Ave, Hartsdale, NY 10530-3505", "lat": 41.01128, "lng": -73.79632, "ref_id": 12969489, "rating": 4, "num_reviews": 0, "website": "http://theirishbankbar.com", "contact_phone": "+1 914-713-8840", "contact_email": null, "status": 1, "source_type": 1, "numberReviews": 12}, {"name": "DOM & Vinnie's", "type": "restaurant", "image": "https://dynamic-media-cdn.tripadvisor.com/media/photo-o/14/43/6d/1a/slice-of-pizza.jpg?w=1000&s=1", "address": "1165 Knollwood Rd, White Plains, NY 10603-1032", "lat": 41.07204, "lng": -73.799644, "ref_id": 458337, "rating": 4, "num_reviews": 0, "website": "http://www.domvinniespizzeria.com/", "contact_phone": "+1 914-592-7643", "contact_email": "", "status": 1, "source_type": 1, "numberReviews": 15}, {"name": "Banzai Hibachi", "type": "restaurant", "image": "https://dynamic-media-cdn.tripadvisor.com/media/photo-o/1a/6b/fe/66/nice-portions-and-great.jpg?w=1000&s=1", "address": "95 S Central Ave, Hartsdale, NY 10530-2315", "lat": 41.01687, "lng": -73.80165, "ref_id": 3599988, "rating": 3.5, "num_reviews": 0, "website": "http://banzaihibachi.com/", "contact_phone": "+1 914-997-7888", "contact_email": null, "status": 1, "source_type": 1, "numberReviews": 47}, {"name": "Masala Kraft Cafe", "type": "restaurant", "image": "https://dynamic-media-cdn.tripadvisor.com/media/photo-o/0c/3f/9f/44/photo0jpg.jpg?w=1000&s=1", "address": "206 E Hartsdale Ave, Hartsdale, NY 10530-3505", "lat": 41.01212, "lng": -73.79613, "ref_id": 3645478, "rating": 4, "num_reviews": 0, "website": "http://www.masalakraftcafe.com", "contact_phone": "+1 914-722-4300", "contact_email": "masalakraftcafe@gmail.com", "status": 1, "source_type": 1, "numberReviews": 32}, {"name": "Durian", "type": "restaurant", "image": "https://dynamic-media-cdn.tripadvisor.com/media/photo-o/03/c8/fb/00/bar-at-durian.jpg?w=1000&s=1", "address": "147 Chatsworth Ave, Larchmont, NY 10538-2939", "lat": 40.93333, "lng": -73.75939, "ref_id": 3632743, "rating": 3.5, "num_reviews": 0, "website": "https://durianthaifood.com/", "contact_phone": "+1 914-833-1900", "contact_email": null, "status": 1, "source_type": 1, "numberReviews": 36}, {"name": "Augustine's Salumeria E Pasta Joint", "type": "restaurant", "image": "https://dynamic-media-cdn.tripadvisor.com/media/photo-o/25/0c/28/e6/caption.jpg?w=1000&s=1", "address": "213 Halstead Ave, Mamaroneck, NY 10543-2621", "lat": 40.9503, "lng": -73.757645, "ref_id": 24822338, "rating": 4, "num_reviews": 0, "website": "https://bestof.westchestermagazine.com/", "contact_phone": "+1 914-315-6541", "contact_email": "info@augustinesny.com", "status": 1, "source_type": 1, "numberReviews": 11}, {"name": "Ribs On the Run", "type": "restaurant", "image": "https://dynamic-media-cdn.tripadvisor.com/media/photo-o/0c/a1/4a/b7/white-plains-location.jpg?w=1000&s=1", "address": "396 Central Ave, White Plains, NY 10606-1211", "lat": 41.03258, "lng": -73.78699, "ref_id": 4643639, "rating": 4.5, "num_reviews": 0, "website": "http://ribsontherun-ny.com", "contact_phone": "+1 914-428-7427", "contact_email": "ribsontherun10606@yahoo.com", "status": 1, "source_type": 1, "numberReviews": 39}, {"name": "Take Charge Nutrition", "type": "restaurant", "image": null, "address": "285 Elm St, Westfield, MA 01085-2908", "lat": 42.126663, "lng": -72.747025, "ref_id": 26973062, "rating": -1, "num_reviews": 0, "website": "https://www.facebook.com/103109735133823", "contact_phone": "+1 413-579-5624", "contact_email": null, "status": 1, "source_type": 1, "numberReviews": 0}, {"name": "Pleasant Street Market", "type": "restaurant", "image": null, "address": "54 Pleasant St, Westfield, MA 01085-3738", "lat": 42.115047, "lng": -72.75249, "ref_id": 26973149, "rating": -1, "num_reviews": 0, "website": "https://www.facebook.com/147400831987766", "contact_phone": "+1 413-568-7533", "contact_email": null, "status": 1, "source_type": 1, "numberReviews": 0}, {"name": "Maple Leaf Pub", "type": "restaurant", "image": null, "address": "Arnold Street, Westfield, MA 01085", "lat": 42.12022, "lng": -72.75415, "ref_id": 26148987, "rating": -1, "num_reviews": 0, "website": null, "contact_phone": null, "contact_email": null, "status": 1, "source_type": 1, "numberReviews": 0}, {"name": "Crave Caf\u00e9", "type": "restaurant", "image": "https://dynamic-media-cdn.tripadvisor.com/media/photo-o/2a/bf/b8/f5/sweet-crepes.jpg?w=1000&s=1", "address": "24 Elm St, Westfield, MA 01085", "lat": 42.121365, "lng": -72.74938, "ref_id": 26813434, "rating": -1, "num_reviews": 0, "website": null, "contact_phone": "+1 413-205-8559", "contact_email": null, "status": 1, "source_type": 1, "numberReviews": 0}, {"name": "Rally's Sports Bar", "type": "restaurant", "image": null, "address": "119 Meadow St, Westfield, MA 01085-3227", "lat": 42.12322, "lng": -72.74106, "ref_id": 26915497, "rating": -1, "num_reviews": 0, "website": "https://www.facebook.com/809499882445928", "contact_phone": "+1 413-579-5716", "contact_email": null, "status": 1, "source_type": 1, "numberReviews": 0}, {"name": "Amelia's Cafe At Amelia Park Arena", "type": "restaurant", "image": null, "address": "21 S Broad St, Westfield, MA 01085-4409", "lat": 42.112583, "lng": -72.74874, "ref_id": 27752916, "rating": -1, "num_reviews": 0, "website": "http://www.ameliaparkarena.org/amelias-cafe", "contact_phone": null, "contact_email": null, "status": 1, "source_type": 1, "numberReviews": 0}, {"name": "Dunkin'", "type": "restaurant", "image": null, "address": "20 Southwick Rd, Westfield, MA 01085-4728", "lat": 42.109962, "lng": -72.76539, "ref_id": 17831338, "rating": -1, "num_reviews": 0, "website": "https://locations.dunkindonuts.com/en/ma/westfield/20-southwick-rd/340584?utm_source=facebook&utm_medium=local&utm_campaign=localmaps&utm_content=340584&y_source=1_mtixmdk4mzytntu5lwxvy2f0aw9ulndlynnpdgu%3d", "contact_phone": "+1 413-562-6284", "contact_email": null, "status": 1, "source_type": 1, "numberReviews": 0}, {"name": "Fortune Chinese Restaurant", "type": "restaurant", "image": null, "address": "97 Prospect Avenue, Hartford, CT 06106", "lat": null, "lng": null, "ref_id": 25349249, "rating": -1, "num_reviews": 0, "website": "http://www.fortunerestaurantct.com", "contact_phone": "+1 860-232-7777", "contact_email": null, "status": 1, "source_type": 1, "numberReviews": 0}, {"name": "McDonald's", "type": "restaurant", "image": null, "address": "1931 US Rte 6, Carmel, NY 10512-2318", "lat": 41.411915, "lng": -73.6664, "ref_id": 4439505, "rating": 4, "num_reviews": 0, "website": "https://www.mcdonalds.com/us/en-us/location/ny/carmel/us-route-6/2121.html?cid=rf%3ayxt%3aron%3a%3aclicks%3fcid%3drf%3ayxt%3afb%3a%3aclicks", "contact_phone": "+1 845-225-2845", "contact_email": null, "status": 1, "source_type": 1, "numberReviews": 8}, {"name": "Carmel Brick Oven Pizza & Cafe", "type": "restaurant", "image": null, "address": "520 Route 52, Carmel, NY 10512-6059", "lat": 41.45601, "lng": -73.67027, "ref_id": 10760307, "rating": 4.5, "num_reviews": 0, "website": "https://www.facebook.com/carmelbrickoven/", "contact_phone": "+1 845-200-7669", "contact_email": null, "status": 1, "source_type": 1, "numberReviews": 5}, {"name": "Fiddlers Green", "type": "restaurant", "image": null, "address": "1870 Us-6, Carmel, NY 10512-2355", "lat": 41.41458, "lng": -73.66777, "ref_id": 5065425, "rating": 4.5, "num_reviews": 0, "website": "https://www.facebook.com/Fiddlers-Green-Pub-103241019722450/", "contact_phone": "+1 845-225-9825", "contact_email": null, "status": 1, "source_type": 1, "numberReviews": 7}, {"name": "The Grille", "type": "restaurant", "image": null, "address": "859 Stony Hill Road, Wilbraham, MA 1095", "lat": 42.1149, "lng": -72.457726, "ref_id": 25473892, "rating": -1, "num_reviews": 0, "website": "https://www.facebook.com/101218292333611", "contact_phone": "+14135968887", "contact_email": null, "status": 1, "source_type": 1, "numberReviews": 0}, {"name": "Planet Pizza", "type": "restaurant", "image": null, "address": "290 Tarrytown Rd, White Plains, NY 10607-1458", "lat": 41.04164, "lng": -73.79348, "ref_id": 4543802, "rating": 4, "num_reviews": 0, "website": "http://www.planetpizza.com", "contact_phone": "+1 914-686-3150", "contact_email": null, "status": 1, "source_type": 1, "numberReviews": 8}, {"name": "Canoe", "type": "restaurant", "image": null, "address": "280 Railroad Ave, Greenwich, CT 06830-6308", "lat": null, "lng": null, "ref_id": 24083032, "rating": 3.5, "num_reviews": 0, "website": "http://canoegreenwich.com", "contact_phone": "+1 203-900-1211", "contact_email": null, "status": 1, "source_type": 1, "numberReviews": 3}, {"name": "Mister Chen Express", "type": "restaurant", "image": "https://dynamic-media-cdn.tripadvisor.com/media/photo-o/1d/50/54/3e/beef-noodle-soup.jpg?w=1000&s=1", "address": "102 Garth Rd, Scarsdale, NY 10583-3750", "lat": 40.985924, "lng": -73.81022, "ref_id": 23518710, "rating": 4, "num_reviews": 0, "website": "http://www.misterchenexp.com", "contact_phone": "+1 914-874-5581", "contact_email": null, "status": 1, "source_type": 1, "numberReviews": 1},