[{"name": "Restaurant Deux Rivieres", "type": "restaurant", "image": "https://dynamic-media-cdn.tripadvisor.com/media/photo-o/26/d3/40/d0/salle-de-restaurant.jpg?w=1000&s=1", "address": "67 Route De Dijon Domaine de, 21910 Saulon la Rue France", "lat": 47.223534, "lng": 5.064324, "ref_id": 6698058, "rating": 4, "num_reviews": 0, "website": "http://www.chateau-saulon.com/restaurant-deux-rivieres-2/", "contact_phone": "+33 3 80 79 25 25", "contact_email": "info@chateau-saulon.com", "status": 1, "source_type": 1, "numberReviews": 157}, {"name": "Gril'Laure", "type": "restaurant", "image": "https://dynamic-media-cdn.tripadvisor.com/media/photo-o/17/d9/85/8e/20190526-135225-largejpg.jpg?w=1000&s=1", "address": "8 Place Saint Benigne, 21000, Dijon France", "lat": 47.321198, "lng": 5.033842, "ref_id": 1327571, "rating": 4, "num_reviews": 0, "website": "http://www.grillaure.com/", "contact_phone": "+33 3 80 41 86 76", "contact_email": "grillaure@gmail.com", "status": 1, "source_type": 1, "numberReviews": 1322}, {"name": "La Grapillotte", "type": "restaurant", "image": "https://dynamic-media-cdn.tripadvisor.com/media/photo-o/0e/fd/e0/43/le-restaurant.jpg?w=1000&s=1", "address": "5 Rue Des Grandes Varennes, 21121 Ahuy France", "lat": 47.356182, "lng": 5.036148, "ref_id": 12332338, "rating": 4.5, "num_reviews": 0, "website": "https://www.facebook.com/311022079267855", "contact_phone": "+33 3 80 55 69 60", "contact_email": null, "status": 1, "source_type": 1, "numberReviews": 152}, {"name": "Mama Restaurant Dijon", "type": "restaurant", "image": "https://dynamic-media-cdn.tripadvisor.com/media/photo-o/2a/10/fa/b0/restaurant-bar.jpg?w=1000&s=1", "address": "8 Rue Dr Maret, 21000, Dijon France", "lat": 47.322178, "lng": 5.034016, "ref_id": 26369311, "rating": 4, "num_reviews": 0, "website": "https://fr.mamashelter.com/dijon/restaurants/", "contact_phone": "+33 3 80 60 96 10", "contact_email": "food.dijon@mamashelter.com", "status": 1, "source_type": 1, "numberReviews": 192}, {"name": "Fado A Mesa", "type": "restaurant", "image": "https://dynamic-media-cdn.tripadvisor.com/media/photo-o/12/cc/a4/01/celine-victor-les-fondateurs.jpg?w=1000&s=1", "address": "83 rue Jean Jacques Rousseau, 21000, Dijon France", "lat": 47.323765, "lng": 5.044511, "ref_id": 7993275, "rating": 4.5, "num_reviews": 0, "website": "http://www.facebook.com/FadoAMesa", "contact_phone": "+33 3 80 63 10 73", "contact_email": "comptoir.portugais@gmail.com", "status": 1, "source_type": 1, "numberReviews": 123}, {"name": "Alfred Burgers et Vins", "type": "restaurant", "image": "https://dynamic-media-cdn.tripadvisor.com/media/photo-o/10/22/2d/3e/photo0jpg.jpg?w=1000&s=1", "address": "36-38 Rue Monge, 21000, Dijon France", "lat": 47.31934, "lng": 5.03509, "ref_id": 12357498, "rating": 4, "num_reviews": 0, "website": "http://www.alfredburgers.fr/", "contact_phone": "+33 3 45 18 51 16", "contact_email": "dtroussiere@gmail.com", "status": 1, "source_type": 1, "numberReviews": 166}, {"name": "I Fratelli", "type": "restaurant", "image": "https://dynamic-media-cdn.tripadvisor.com/media/photo-o/18/64/38/94/pizza.jpg?w=1000&s=1", "address": "10 avenue de Dallas Face \u00e0 IKEA accol\u00e9e \u00e0 Bureau Vall\u00e9e, 21000, Dijon France", "lat": 47.33834, "lng": 5.063334, "ref_id": 15244627, "rating": 4.5, "num_reviews": 0, "website": "https://www.facebook.com/profile.php?id=367302543922898&paipv=0&eav=AfYNiNlTrVrdum1nw3oAEPRdph0mlxwFsda7UcQRgn3ch4ugdJgZEgKoB19saipdBYQ&_rdr", "contact_phone": "+33 3 80 47 90 61", "contact_email": "ifratellidijon@gmail.com", "status": 1, "source_type": 1, "numberReviews": 197}, {"name": "Le Ch\u00e2teau Bourgogne", "type": "restaurant", "image": "https://dynamic-media-cdn.tripadvisor.com/media/photo-o/11/8d/96/53/restaurant-le-chateau.jpg?w=1000&s=1", "address": "22 boulevard de la Marne Hotel Mercure Centre Clemenceau, 21000, Dijon France", "lat": 47.3281, "lng": 5.05131, "ref_id": 3686371, "rating": 4, "num_reviews": 0, "website": "http://hotel-mercure-dijon.fr/chateau-bourgogne", "contact_phone": "+33 3 80 72 31 13", "contact_email": "h1227@accor.com", "status": 1, "source_type": 1, "numberReviews": 341}, {"name": "Pizza Coco", "type": "restaurant", "image": "https://dynamic-media-cdn.tripadvisor.com/media/photo-o/0d/ef/c0/f1/la-salle-est-petite-reserver.jpg?w=1000&s=1", "address": "11 Place des Deportes, 21220 Fixin France", "lat": 47.245148, "lng": 4.97191, "ref_id": 11671608, "rating": 4.5, "num_reviews": 0, "website": "http://pizzacoco.wixsite.com/pizzacoco", "contact_phone": "+33 3 80 35 62 51", "contact_email": "pizzacoco@orange.fr", "status": 1, "source_type": 1, "numberReviews": 73}, {"name": "Chez Septime", "type": "restaurant", "image": "https://dynamic-media-cdn.tripadvisor.com/media/photo-o/16/1e/97/11/une-partie-de-la-salle.jpg?w=1000&s=1", "address": "11 avenue Junot, 21000, Dijon France", "lat": 47.32261, "lng": 5.054711, "ref_id": 866842, "rating": 4, "num_reviews": 0, "website": "http://www.chezseptime.fr/", "contact_phone": "+33 3 80 66 72 98", "contact_email": "", "status": 1, "source_type": 1, "numberReviews": 321}, {"name": "BHV", "type": "restaurant", "image": "https://dynamic-media-cdn.tripadvisor.com/media/photo-o/13/85/53/1f/lieu-privilegie.jpg?w=1000&s=1", "address": "22 Place de la Liberation, 21000, Dijon France", "lat": 47.321064, "lng": 5.041289, "ref_id": 3176649, "rating": 4, "num_reviews": 0, "website": "https://www.facebook.com/Le-BHV-1935603360034565/?ref=br_rs", "contact_phone": "+33 3 80 41 81 50", "contact_email": "lebhv.21@gmail.com", "status": 1, "source_type": 1, "numberReviews": 231}, {"name": "Maison Milliere (Restaurant)", "type": "restaurant", "image": "https://dynamic-media-cdn.tripadvisor.com/media/photo-o/12/67/c5/f6/notre-salle-de-restaurant.jpg?w=1000&s=1", "address": "10 rue de la Chouette, 21000, Dijon France", "lat": 47.322746, "lng": 5.041808, "ref_id": 4262709, "rating": 4, "num_reviews": 0, "website": "http://www.maison-milliere.fr", "contact_phone": "+33 3 80 30 99 99", "contact_email": "maison-milliere@wanadoo.fr", "status": 1, "source_type": 1, "numberReviews": 266}, {"name": "Le P'tit Bouchon Dijonnais", "type": "restaurant", "image": "https://dynamic-media-cdn.tripadvisor.com/media/photo-o/05/db/cb/b3/cuisine-bistrot.jpg?w=1000&s=1", "address": "19 rue de Mulhouse, 21000, Dijon France", "lat": 47.325783, "lng": 5.048439, "ref_id": 6437534, "rating": 4, "num_reviews": 0, "website": "http://le-ptit-bouchon-dijonnais.lafourchette.rest/", "contact_phone": "+33 3 80 72 26 79", "contact_email": "leptitbouchondijonnais@gmail.com", "status": 1, "source_type": 1, "numberReviews": 300}, {"name": "Le Carr\u00e9 Rouge", "type": "restaurant", "image": "https://dynamic-media-cdn.tripadvisor.com/media/photo-o/0c/ee/5f/c9/salle-de-restaurant.jpg?w=1000&s=1", "address": "2 avenue Raymond Poincare Espace Poincar\u00e9... Tram Ligne 1...arret Poincar\u00e9, 21000, Dijon France", "lat": 47.328655, "lng": 5.05728, "ref_id": 5957628, "rating": 4.5, "num_reviews": 0, "website": "http://www.restaurant-carrerouge.fr/", "contact_phone": "+33 3 80 73 68 41", "contact_email": "restcarrerouge@gmail.com", "status": 1, "source_type": 1, "numberReviews": 114}, {"name": "Les Gourmands Disent", "type": "restaurant", "image": "https://dynamic-media-cdn.tripadvisor.com/media/photo-o/27/a0/9d/4d/galette-de-sarrasin-au.jpg?w=1000&s=1", "address": "36 rue de Fontaine les Dijon, 21000, Dijon France", "lat": 47.33256, "lng": 5.02701, "ref_id": 4171016, "rating": 4.5, "num_reviews": 0, "website": "http://lesgourmandsdisentdijon.fr/", "contact_phone": "+33 3 80 59 05 88", "contact_email": null, "status": 1, "source_type": 1, "numberReviews": 102}, {"name": "Le Cordina by Tom", "type": "restaurant", "image": "https://dynamic-media-cdn.tripadvisor.com/media/photo-o/0e/4d/b0/93/mousse-au-chocolat-meringue.jpg?w=1000&s=1", "address": "3 C rue Jeanne Barret, 21000, Dijon France", "lat": 47.366016, "lng": 5.050415, "ref_id": 4288382, "rating": 4.5, "num_reviews": 0, "website": "http://lecordinabytom.com", "contact_phone": "+33 9 87 72 47 98", "contact_email": "lecordina.dijon@gmail.com", "status": 1, "source_type": 1, "numberReviews": 113}, {"name": "La Closerie", "type": "restaurant", "image": "https://dynamic-media-cdn.tripadvisor.com/media/photo-o/15/03/da/39/salle-principale-du-restaurant.jpg?w=1000&s=1", "address": "18 rue Sainte Anne 19 Rue Berbisey, 21000, Dijon France", "lat": 47.31875, "lng": 5.037583, "ref_id": 9582456, "rating": 4, "num_reviews": 0, "website": "http://www.maisonphilippelebon.com/fr/hotel-dijon", "contact_phone": "+33 3 80 30 73 52", "contact_email": "contact@maisonphilippelebon.com", "status": 1, "source_type": 1, "numberReviews": 353}, {"name": "Restaurant Pizz\u00e9ria Le Sommatino", "type": "restaurant", "image": "https://dynamic-media-cdn.tripadvisor.com/media/photo-o/0e/50/83/1d/petite-salade-de-chevre.jpg?w=1000&s=1", "address": "7 rue d Auxonne, 21000, Dijon France", "lat": 47.315987, "lng": 5.045111, "ref_id": 1328092, "rating": 4, "num_reviews": 0, "website": "http://www.facebook.com/Restaurant-Le-Sommatino-1041858009204327/", "contact_phone": "+33 3 80 67 69 14", "contact_email": "", "status": 1, "source_type": 1, "numberReviews": 217}, {"name": "911 Delicious Company", "type": "restaurant", "image": "https://dynamic-media-cdn.tripadvisor.com/media/photo-o/29/15/a2/cf/fresh-pizza-smash-burger.jpg?w=1000&s=1", "address": "2 avenue General Canzio, 21240 Talant, Dijon France", "lat": 47.342896, "lng": 4.998868, "ref_id": 5825538, "rating": 4, "num_reviews": 0, "website": "http://911dc.com", "contact_phone": "+33 3 80 73 39 11", "contact_email": "talant@911dc.com", "status": 1, "source_type": 1, "numberReviews": 113}, {"name": "La Licorne", "type": "restaurant", "image": "https://dynamic-media-cdn.tripadvisor.com/media/photo-o/17/fe/e3/bd/salle-de-restaurant.jpg?w=1000&s=1", "address": "Rue Musette 1 Bis, 21000, Dijon France", "lat": 47.32277, "lng": 5.040703, "ref_id": 6561761, "rating": 4.5, "num_reviews": 0, "website": "http://www.facebook.com/pages/Cr%C3%AAperie-La-Licorne/104854182966?fref=ts", "contact_phone": "+33 3 80 30 03 21", "contact_email": "lalicornecreperie@gmail.com", "status": 1, "source_type": 1, "numberReviews": 120}, {"name": "Epicerie Coreenne", "type": "restaurant", "image": "https://dynamic-media-cdn.tripadvisor.com/media/photo-o/12/7b/3e/9d/photo1jpg.jpg?w=1000&s=1", "address": "18 Rue Berbisey, 21000, Dijon France", "lat": 47.31942, "lng": 5.038082, "ref_id": 10499845, "rating": 4.5, "num_reviews": 0, "website": "https://www.facebook.com/1612689142355297", "contact_phone": "+33 3 73 13 89 56", "contact_email": null, "status": 1, "source_type": 1, "numberReviews": 55}, {"name": "La Brasserie Du Marais", "type": "restaurant", "image": "https://dynamic-media-cdn.tripadvisor.com/media/photo-o/23/19/59/44/presse-d-agneau-confit.jpg?w=1000&s=1", "address": "20 rue Jacques Cellerier, 21000, Dijon France", "lat": 47.326668, "lng": 5.033056, "ref_id": 8046844, "rating": 4.5, "num_reviews": 0, "website": "https://www.facebook.com/332653556903013", "contact_phone": "+33 9 51 05 08 02", "contact_email": "labrasseriedumarais@free.fr", "status": 1, "source_type": 1, "numberReviews": 115}, {"name": "La Chica Loca", "type": "restaurant", "image": "https://dynamic-media-cdn.tripadvisor.com/media/photo-o/17/6e/c2/84/la-chica-loca-ardoise.jpg?w=1000&s=1", "address": "70 rue Vannerie, 21000, Dijon France", "lat": 47.32235, "lng": 5.04531, "ref_id": 14967658, "rating": 5, "num_reviews": 0, "website": "http://www.facebook.com/lachicalocadijon/", "contact_phone": "+33 6 31 96 96 39", "contact_email": "lachicalocadijon@gmail.com", "status": 1, "source_type": 1, "numberReviews": 57}, {"name": "Holly's Diner Qu\u00e9tigny", "type": "restaurant", "image": "https://dynamic-media-cdn.tripadvisor.com/media/photo-o/11/8a/3a/5e/comp.jpg?w=1000&s=1", "address": "1 Rue Du Cap Vert, 21800 Quetigny France", "lat": 47.31289, "lng": 5.090474, "ref_id": 9795266, "rating": 3.5, "num_reviews": 0, "website": "http://dijon.hollysdiner.fr", "contact_phone": "+33 3 80 54 05 40", "contact_email": "hollysdijon@hollysdiner.fr", "status": 1, "source_type": 1, "numberReviews": 588}, {"name": "Les Moulins Bleus", "type": "restaurant", "image": "https://dynamic-media-cdn.tripadvisor.com/media/photo-o/14/b3/b2/dc/ensalada.jpg?w=1000&s=1", "address": "4 rue Musette, 21000, Dijon France", "lat": 47.322826, "lng": 5.040558, "ref_id": 3387706, "rating": 4.5, "num_reviews": 0, "website": "https://www.facebook.com/LesMoulinsBleusDIJON/", "contact_phone": "+33 3 80 30 81 02", "contact_email": null, "status": 1, "source_type": 1, "numberReviews": 124}, {"name": "Coffee and Muffin", "type": "restaurant", "image": "https://dynamic-media-cdn.tripadvisor.com/media/photo-o/06/b8/13/ea/coffee-and-muffin.jpg?w=1000&s=1", "address": "39 rue des Godrans, 21000, Dijon France", "lat": 47.323822, "lng": 5.038626, "ref_id": 4721247, "rating": 4.5, "num_reviews": 0, "website": "http://www.coffee-muffin.com/", "contact_phone": "+33 3 80 33 68 04", "contact_email": "contact@coffee-muffin.com", "status": 1, "source_type": 1, "numberReviews": 100}, {"name": "Le Jardin de Faustine", "type": "restaurant", "image": "https://dynamic-media-cdn.tripadvisor.com/media/photo-o/1d/7d/de/64/caption.jpg?w=1000&s=1", "address": "Route de Chevigny Super U et Drive, 21800 Sennecey-les-Dijon France", "lat": 47.291695, "lng": 5.09903, "ref_id": 7257223, "rating": 4.5, "num_reviews": 0, "website": "https://www.facebook.com/lejardindefaustine", "contact_phone": "+33 9 83 29 18 50", "contact_email": "lejardindefaustine21@gmail.com", "status": 1, "source_type": 1, "numberReviews": 67}, {"name": "Azerole", "type": "restaurant", "image": "https://dynamic-media-cdn.tripadvisor.com/media/photo-o/1d/99/17/65/azerole.jpg?w=1000&s=1", "address": "86 rue Berbisey, 21000, Dijon France", "lat": 47.318233, "lng": 5.035606, "ref_id": 23578343, "rating": 5, "num_reviews": 0, "website": "https://www.facebook.com/azeroledijon/", "contact_phone": "+33 3 80 60 03 94", "contact_email": null, "status": 1, "source_type": 1, "numberReviews": 37}, {"name": "L\u00e9on", "type": "restaurant", "image": "https://dynamic-media-cdn.tripadvisor.com/media/photo-o/1c/de/13/63/photo-profil.jpg?w=1000&s=1", "address": "Rue de Longvic, 21300 Chenove France", "lat": 47.28091, "lng": 5.0224, "ref_id": 4215651, "rating": 4, "num_reviews": 0, "website": "https://brasserie.restaurantleon.fr/fr/dijon-chenove?y_source=1_NDAyMzE5MzktNzY5LWxvY2F0aW9uLndlYnNpdGU%3D", "contact_phone": "+33 3 80 34 00 37", "contact_email": "chenove@leon-de-bruxelles.fr", "status": 1, "source_type": 1, "numberReviews": 919}, {"name": "La Table Des Climats", "type": "restaurant", "image": "https://dynamic-media-cdn.tripadvisor.com/media/photo-o/29/f7/85/34/caption.jpg?w=1000&s=1", "address": "Rue du Faubourg Raines Cit\u00e9 Internationale de la Gastronomie et du Vin, 21000, Dijon France", "lat": 47.317173, "lng": 5.029447, "ref_id": 24057570, "rating": 4.5, "num_reviews": 0, "website": "http://www.latabledesclimats.fr", "contact_phone": "+33 3 80 41 74 98", "contact_email": "contact@latabledesclimats.fr", "status": 1, "source_type": 1, "numberReviews": 39}, {"name": "Le Bistingo", "type": "restaurant", "image": "https://dynamic-media-cdn.tripadvisor.com/media/photo-o/19/1f/98/55/photo1jpg.jpg?w=1000&s=1", "address": "13 Passage Darcy, 21000, Dijon France", "lat": 47.323795, "lng": 5.035842, "ref_id": 806922, "rating": 4.5, "num_reviews": 0, "website": "http://le-bistingo.fr", "contact_phone": "+33 3 80 30 61 38", "contact_email": "", "status": 1, "source_type": 1, "numberReviews": 160}, {"name": "Pepe Joseph Restaurant", "type": "restaurant", "image": "https://dynamic-media-cdn.tripadvisor.com/media/photo-o/06/7f/6e/54/pepe-joseph.jpg?w=1000&s=1", "address": "8 B rue Marceau, 21000, Dijon France", "lat": 47.32966, "lng": 5.04622, "ref_id": 5798460, "rating": 4.5, "num_reviews": 0, "website": "http://www.facebook.com/P%C3%A9p%C3%A9-Joseph-143886979129752/", "contact_phone": "+33 3 45 83 69 62", "contact_email": "ppj.restaurant@gmail.com", "status": 1, "source_type": 1, "numberReviews": 190}, {"name": "Comptoir du Green", "type": "restaurant", "image": "https://dynamic-media-cdn.tripadvisor.com/media/photo-o/2c/8b/67/19/caption.jpg?w=1000&s=1", "address": "1 Rue du Golf, 21800 Quetigny France", "lat": 47.3109, "lng": 5.090532, "ref_id": 26774955, "rating": 5, "num_reviews": 0, "website": "https://comptoirdugreen.com/", "contact_phone": "+33 3 45 83 61 63", "contact_email": "comptoirdugreen.quetigny@gmail.com", "status": 1, "source_type": 1, "numberReviews": 1}, {"name": "D\u00f6ner Kebab", "type": "restaurant", "image": null, "address": "106 Route De Dijon, 21600 Longvic, Dijon France", "lat": 47.30255, "lng": 5.050514, "ref_id": 27315922, "rating": 5, "num_reviews": 0, "website": "https://www.facebook.com/104805158523784", "contact_phone": "+33 3 79 36 65 68", "contact_email": null, "status": 1, "source_type": 1, "numberReviews": 1}, {"name": "Franquette Bar \u00c0 Vivre", "type": "restaurant", "image": null, "address": "1 Rue Georges Clemenceau, 21160 Couchey France", "lat": 47.260426, "lng": 4.979482, "ref_id": 27738067, "rating": 5, "num_reviews": 0, "website": null, "contact_phone": null, "contact_email": null, "status": 1, "source_type": 1, "numberReviews": 1}, {"name": "Les Olives", "type": "restaurant", "image": null, "address": "39 Rue Auguste Comte, 21000 Fontaine-les-Dijon France", "lat": 47.323997, "lng": 5.04441, "ref_id": 27413837, "rating": 5, "num_reviews": 0, "website": null, "contact_phone": null, "contact_email": null, "status": 1, "source_type": 1, "numberReviews": 1}, {"name": "100d\u00f4", "type": "restaurant", "image": null, "address": "28 Rue Buffon, 21000 Fontaine-les-Dijon France", "lat": 47.318954, "lng": 5.044037, "ref_id": 27738086, "rating": 5, "num_reviews": 0, "website": "https://restaurant100do.com/", "contact_phone": "+33 3 80 33 84 51", "contact_email": null, "status": 1, "source_type": 1, "numberReviews": 1}, {"name": "Le Pic", "type": "restaurant", "image": null, "address": "8 Rue Gay-lussac, 21300 Chenove France", "lat": 47.291107, "lng": 5.017735, "ref_id": 27315903, "rating": 5, "num_reviews": 0, "website": "http://www.le-pic.net/", "contact_phone": "+33 3 80 48 29 76", "contact_email": null, "status": 1, "source_type": 1, "numberReviews": 1}, {"name": "Au Vieux Mill\u00e9sime", "type": "restaurant", "image": null, "address": "82 Rue Monge, 21000 Fontaine-les-Dijon France", "lat": 47.3187, "lng": 5.033495, "ref_id": 27701017, "rating": 5, "num_reviews": 0, "website": null, "contact_phone": null, "contact_email": null, "status": 1, "source_type": 1, "numberReviews": 1}, {"name": "Le 3310 Dijon", "type": "restaurant", "image": null, "address": "77 Rue Berbisey, 21000 Fontaine-les-Dijon France", "lat": 47.31756, "lng": 5.034614, "ref_id": 27317035, "rating": -1, "num_reviews": 0, "website": "https://www.facebook.com/101796415174368", "contact_phone": "+33 7 51 69 77 99", "contact_email": null, "status": 1, "source_type": 1, "numberReviews": 0}, {"name": "My Wok", "type": "restaurant", "image": "https://dynamic-media-cdn.tripadvisor.com/media/photo-o/2b/ad/eb/5b/caption.jpg?w=1000&s=1", "address": "Centre Commercial Toison d'Or, Rte de Langres, 21000, Dijon France", "lat": 47.35725, "lng": 5.051631, "ref_id": 27128038, "rating": 5, "num_reviews": 0, "website": "https://www.my-wok.com", "contact_phone": "+33 9 67 41 46 58", "contact_email": null, "status": 1, "source_type": 1, "numberReviews": 1}, {"name": "My Wok", "type": "restaurant", "image": null, "address": "34 Rue de la Soie, 69100 Villeurbanne, 69100 Villeurbanne France", "lat": 47.32346, "lng": 5.043647, "ref_id": 27128021, "rating": 5, "num_reviews": 0, "website": "https://www.my-wok.com", "contact_phone": "+33 4 72 81 90 35", "contact_email": null, "status": 1, "source_type": 1, "numberReviews": 1}, {"name": "My Wok", "type": "restaurant", "image": "https://dynamic-media-cdn.tripadvisor.com/media/photo-o/2b/9e/45/31/le-wok-traditionnel-chinois.jpg?w=1000&s=1", "address": "9 Rue Dr Stein, Dijon France", "lat": 47.341213, "lng": 5.062372, "ref_id": 27128041, "rating": 5, "num_reviews": 0, "website": "https://www.my-wok.com", "contact_phone": "+33 3 73 27 09 69", "contact_email": null, "status": 1, "source_type": 1, "numberReviews": 1}, {"name": "Pizzaiolo cuisson a lancienne", "type": "restaurant", "image": null, "address": "20 Rue des Louvieres, Saint-Julien-du-Sault France", "lat": 47.40027, "lng": 5.134904, "ref_id": 4699445, "rating": 5, "num_reviews": 0, "website": "www.eliepizza.com", "contact_phone": "+33 3 80 23 21 07", "contact_email": null, "status": 1, "source_type": 1, "numberReviews": 4}, {"name": "Campanile Dijon Est Restaurant", "type": "restaurant", "image": "https://dynamic-media-cdn.tripadvisor.com/media/photo-o/10/72/64/52/buffet-d-entrees.jpg?w=1000&s=1", "address": "1 Rue de la Fleuriee Route De Gray, 21850 Saint-Apollinaire France", "lat": 47.33098, "lng": 5.07748, "ref_id": 6702387, "rating": 3, "num_reviews": 0, "website": "http://www.campanile.com", "contact_phone": "+33 3 80 72 45 38", "contact_email": null, "status": 1, "source_type": 1, "numberReviews": 33}, {"name": "Le Savignien", "type": "restaurant", "image": "https://dynamic-media-cdn.tripadvisor.com/media/photo-o/2a/e3/de/6b/le-savignien-a-savigny.jpg?w=1000&s=1", "address": "2 Route De Messigny, 21380 Savigny-le-Sec France", "lat": 47.429726, "lng": 5.051645, "ref_id": 26858193, "rating": 5, "num_reviews": 0, "website": "https://www.facebook.com/203250733165038", "contact_phone": "+33 3 80 42 12 09", "contact_email": null, "status": 1, "source_type": 1, "numberReviews": 1}, {"name": "Staff Pizza", "type": "restaurant", "image": "https://dynamic-media-cdn.tripadvisor.com/media/photo-o/2b/47/7c/48/caption.jpg?w=1000&s=1", "address": "2 rue le Notre, 21000, Dijon France", "lat": 47.31304, "lng": 5.04057, "ref_id": 7812454, "rating": 3.5, "num_reviews": 0, "website": "http://www.staffpizza.fr/", "contact_phone": "+33 3 80 36 36 36", "contact_email": null, "status": 1, "source_type": 1, "numberReviews": 31}, {"name": "Mister Kebap", "type": "restaurant", "image": "https://dynamic-media-cdn.tripadvisor.com/media/photo-o/1b/ca/b4/eb/assiette-et-doner.jpg?w=1000&s=1", "address": "98 Boulevard Mansart, 21000, Dijon France", "lat": 47.3121, "lng": 5.06203, "ref_id": 21211980, "rating": 3.5, "num_reviews": 0, "website": "https://www.facebook.com/1094534714029173", "contact_phone": "+33 3 80 71 69 96", "contact_email": null, "status": 1, "source_type": 1, "numberReviews": 8}, {"name": "Kinomai - Vietnamese Street Food", "type": "restaurant", "image": null, "address": "102 rue Monge, 21000, Dijon France", "lat": 47.318436, "lng": 5.032958, "ref_id": 25909137, "rating": 5, "num_reviews": 0, "website": "https://www.kinomai.com", "contact_phone": "+33 6 69 48 60 51", "contact_email": null, "status": 1, "source_type": 1, "numberReviews": 1}, {"name": "Cook'n Crout's", "type": "restaurant", "image": "https://dynamic-media-cdn.tripadvisor.com/media/photo-o/24/f6/9f/c5/entrees-100-maison.jpg?w=1000&s=1", "address": "104 rue Monge, 21000, Dijon France", "lat": 47.3184, "lng": 5.03282, "ref_id": 24528461, "rating": 5, "num_reviews": 0, "website": "http://www.cookncrouts.fr", "contact_phone": "+33 7 63 76 51 22", "contact_email": "contact@cookncrouts.fr", "status": 1, "source_type": 1, "numberReviews": 1}, {"name": "Awam dimsum", "type": "restaurant", "image": null, "address": "7 Rue Fran\u00e7ois Jouffroy, 21000, Dijon France", "lat": 47.32346, "lng": 5.043647, "ref_id": 25697474, "rating": 5, "num_reviews": 0, "website": null, "contact_phone": null, "contact_email": null, "status": 1, "source_type": 1, "numberReviews": 1}, {"name": "La Casa del Burger", "type": "restaurant", "image": "https://dynamic-media-cdn.tripadvisor.com/media/photo-o/1b/f8/e2/08/photo0jpg.jpg?w=1000&s=1", "address": "19 rue Angelique Ducoudray, 21000, Dijon France", "lat": 47.32353, "lng": 5.07108, "ref_id": 15679537, "rating": 3.5, "num_reviews": 0, "website": "https://www.facebook.com/casadelburger21/", "contact_phone": "+33 3 80 72 00 00", "contact_email": "quetigny@911pizza.fr", "status": 1, "source_type": 1, "numberReviews": 17}, {"name": "My Couscous", "type": "restaurant", "image": null, "address": "7 rue Victor Dumay, 21000, Dijon France", "lat": 47.318756, "lng": 5.039598, "ref_id": 23935253, "rating": 5, "num_reviews": 0, "website": null, "contact_phone": "+33 9 50 23 44 91", "contact_email": "sarlfamilyfood@gmail.com", "status": 1, "source_type": 1, "numberReviews": 1}, {"name": "Tokadiane", "type": "restaurant", "image": "https://dynamic-media-cdn.tripadvisor.com/media/photo-o/28/38/71/af/tokadiane.jpg?w=1000&s=1", "address": "50 rue du Transvaal, 21000, Dijon France", "lat": null, "lng": null, "ref_id": 25278904, "rating": 5, "num_reviews": 0, "website": null, "contact_phone": "+33 3 80 41 39 27", "contact_email": null, "status": 1, "source_type": 1, "numberReviews": 1}, {"name": "Le Comptoir De Soso", "type": "restaurant", "image": "https://dynamic-media-cdn.tripadvisor.com/media/photo-o/27/57/a2/46/plateau-de-fruits-de.jpg?w=1000&s=1", "address": "2 B rue Claude Ramey, 21000, Dijon France", "lat": 47.323082, "lng": 5.039892, "ref_id": 25195409, "rating": 5, "num_reviews": 0, "website": "www.lecomptoirdesoso.com", "contact_phone": "+33 7 69 31 37 06", "contact_email": "sonia.michel@lecomptoirdesoso.com", "status": 1, "source_type": 1, "numberReviews": 1}, {"name": "Ninkasi Dijon", "type": "restaurant", "image": "https://dynamic-media-cdn.tripadvisor.com/media/photo-o/26/e5/f0/c7/exterieur.jpg?w=1000&s=1", "address": "64 B rue Sully, 21000, Dijon France", "lat": 47.31492, "lng": 5.07883, "ref_id": 21354939, "rating": 3, "num_reviews": 0, "website": "http://www.ninkasi.fr/lieux/ninkasi-dijon/", "contact_phone": "+33 9 75 95 42 26", "contact_email": null, "status": 1, "source_type": 1, "numberReviews": 77}, {"name": "Mairig Kebab Gare", "type": "restaurant", "image": null, "address": "Avenue Foch, 21000, Dijon France", "lat": 47.3236, "lng": 5.03135, "ref_id": 6674921, "rating": 4, "num_reviews": 0, "website": null, "contact_phone": "+33 3 80 41 27 93", "contact_email": null, "status": 1, "source_type": 1, "numberReviews": 5}, {"name": "Friends Kebab", "type": "restaurant", "image": "https://dynamic-media-cdn.tripadvisor.com/media/photo-o/22/c2/d7/fb/friends-kebab-talant.jpg?w=1000&s=1", "address": "Rue Des Arandes, 21240 Talant, Dijon France", "lat": 47.336933, "lng": 5.016202, "ref_id": 23964723, "rating": 4, "num_reviews": 0, "website": null, "contact_phone": "+33 9 51 75 72 08", "contact_email": null, "status": 1, "source_type": 1, "numberReviews": 4}, {"name": "Pho Bobun", "type": "restaurant", "image": "https://dynamic-media-cdn.tripadvisor.com/media/photo-o/24/ea/27/14/fabulous-pho-vietnamese.jpg?w=1000&s=1", "address": "77 rue Berbisey, 21000, Dijon France", "lat": 47.31752, "lng": 5.034652, "ref_id": 24469156, "rating": 5, "num_reviews": 0, "website": null, "contact_phone": "+33 3 45 43 44 44", "contact_email": null, "status": 1, "source_type": 1, "numberReviews": 1}, {"name": "Pizzavenir", "type": "restaurant", "image": null, "address": "140 avenue Roland Carraz Parking L Atelier du Boulanger, 21300 Chenove France", "lat": 47.28299, "lng": 5.00924, "ref_id": 12802404, "rating": 4.5, "num_reviews": 0, "website": "http://www.pizzeria-dijon-pizzavenir.fr", "contact_phone": "+33 3 80 52 87 88", "contact_email": "kiosque21@orange.fr", "status": 1, "source_type": 1, "numberReviews": 2}, {"name": "Le Crucifix", "type": "restaurant", "image": null, "address": "8 route Nationale 5, 21800 Crimolois France", "lat": 47.27522, "lng": 5.12025, "ref_id": 4435967, "rating": 4.5, "num_reviews": 0, "website": null, "contact_phone": "+33 3 80 47 02 05", "contact_email": null, "status": 1, "source_type": 1, "numberReviews": 2}, {"name": "So Wok", "type": "restaurant", "image": "https://dynamic-media-cdn.tripadvisor.com/media/photo-o/16/68/06/4e/venez-deguster-un-bon.jpg?w=1000&s=1", "address": "6 rue des Perrieres, 21000, Dijon France", "lat": 47.32429, "lng": 5.03047, "ref_id": 9872628, "rating": 3.5, "num_reviews": 0, "website": "https://www.facebook.com/so.wok.35?fref=search", "contact_phone": "+33 3 80 28 70 53", "contact_email": null, "status": 1, "source_type": 1, "numberReviews": 7}, {"name": "Brasserie l'Alhambra", "type": "restaurant", "image": "https://dynamic-media-cdn.tripadvisor.com/media/photo-o/0f/6b/c7/db/fb-img-1496053488524.jpg?w=1000&s=1", "address": "3 rue Marceau, 21000, Dijon France", "lat": 47.32753, "lng": 5.04473, "ref_id": 5778462, "rating": 4, "num_reviews": 0, "website": "http://www.facebook.com/BrasserieLAlhambra", "contact_phone": "+33 3 80 56 51 14", "contact_email": null, "status": 1, "source_type": 1, "numberReviews": 40}, {"name": "The King's Tavern", "type": "restaurant", "image": "https://dynamic-media-cdn.tripadvisor.com/media/photo-o/13/c3/13/c2/photo1jpg.jpg?w=1000&s=1", "address": "22-24 Place \u00c9mile Zola, 21000, Dijon France", "lat": 47.318844, "lng": 5.035474, "ref_id": 12663558, "rating": 3.5, "num_reviews": 0, "website": "https://www.facebook.com/thekingstavern/", "contact_phone": "+33 3 80 42 84 88", "contact_email": null, "status": 1, "source_type": 1, "numberReviews": 61}, {"name": "O Cocoon Restaurant", "type": "restaurant", "image": "https://dynamic-media-cdn.tripadvisor.com/media/photo-o/18/bf/65/1a/too-hot-go-for-a-swim.jpg?w=1000&s=1", "address": "1945 rue du 8 Mai, 21160 Couchey France", "lat": 47.25388, "lng": 4.9923, "ref_id": 2705749, "rating": 3.5, "num_reviews": 0, "website": "http://www.facebook.com/pages/Lissabon/371819943405312/", "contact_phone": "+33 3 80 52 35 36", "contact_email": "", "status": 1, "source_type": 1, "numberReviews": 62}, {"name": "Planet'Pizz", "type": "restaurant", "image": "https://dynamic-media-cdn.tripadvisor.com/media/photo-o/04/35/15/c8/planet-pizz-dijon.jpg?w=1000&s=1", "address": "28 rue d York, 21000, Dijon France", "lat": 47.33486, "lng": 5.06038, "ref_id": 1328096, "rating": 5, "num_reviews": 0, "website": null, "contact_phone": "+33 3 80 78 25 21", "contact_email": "", "status": 1, "source_type": 1, "numberReviews": 13}, {"name": "France Drive", "type": "restaurant", "image": "https://dynamic-media-cdn.tripadvisor.com/media/photo-o/0f/b5/3e/e7/burger-france-drive.jpg?w=1000&s=1", "address": "100 Avenue Roland Carraz, 21300 Chenove France", "lat": 47.2899, "lng": 5.01385, "ref_id": 10808689, "rating": 4, "num_reviews": 0, "website": "http://www.francedrive.fr", "contact_phone": "+33 3 80 23 34 65", "contact_email": "contact@francedrive.fr", "status": 1, "source_type": 1, "numberReviews": 39}, {"name": "Okapi Restaurant", "type": "restaurant", "image": "https://dynamic-media-cdn.tripadvisor.com/media/photo-o/26/e9/c6/bd/salle.jpg?w=1000&s=1", "address": "100 rue Berbisey, 21000, Dijon France", "lat": 47.318024, "lng": 5.035107, "ref_id": 25149469, "rating": 5, "num_reviews": 0, "website": null, "contact_phone": "+33 9 82 64 47 18", "contact_email": "okapi21000@gmail.com", "status": 1, "source_type": 1, "numberReviews": 6}, {"name": "Columbus Cafe & Co", "type": "restaurant", "image": "https://dynamic-media-cdn.tripadvisor.com/media/photo-o/1b/2d/79/0e/photo-de-profil.jpg?w=1000&s=1", "address": "21 rue des Godrans, 21000, Dijon France", "lat": 47.32423, "lng": 5.039062, "ref_id": 13143842, "rating": 4, "num_reviews": 0, "website": "http://www.columbuscafe.com/boutique/dijon-rue-des-godrans/", "contact_phone": "+33 3 80 33 04 35", "contact_email": null, "status": 1, "source_type": 1, "numberReviews": 22}, {"name": "Meurette & Persill\u00e9", "type": "restaurant", "image": "https://dynamic-media-cdn.tripadvisor.com/media/photo-o/2b/aa/3c/48/caption.jpg?w=1000&s=1", "address": "12 Parvis De L'unesco, 21000, Dijon France", "lat": 47.32205, "lng": 5.04148, "ref_id": 27184339, "rating": 4, "num_reviews": 0, "website": "https://villagegastronomique.fr/collections/meurette-et-persille-restaurant-bourguignon", "contact_phone": "+33 3 73 27 54 25", "contact_email": "contact@villagegastronomique.fr", "status": 1, "source_type": 1, "numberReviews": 16}, {"name": "Center Kebab", "type": "restaurant", "image": "https://dynamic-media-cdn.tripadvisor.com/media/daodao/photo-o/15/12/7a/79/photo0jpg.jpg?w=1000&s=1", "address": "7 avenue Marechal Foch, 21000, Dijon France", "lat": 47.3234, "lng": 5.03029, "ref_id": 4686564, "rating": 4, "num_reviews": 0, "website": null, "contact_phone": "+33 3 80 41 75 25", "contact_email": null, "status": 1, "source_type": 1, "numberReviews": 18}, {"name": "Tomah'grill", "type": "restaurant", "image": "https://dynamic-media-cdn.tripadvisor.com/media/photo-o/1c/17/02/08/notre-carte-hivernale.jpg?w=1000&s=1", "address": "7 Boulevard Du Champ Aux M\u00e9tiers, 21800 Quetigny France", "lat": 47.30809, "lng": 5.10589, "ref_id": 21212004, "rating": 4, "num_reviews": 0, "website": "http://tomahgrill.fr", "contact_phone": "+33 3 45 49 45 45", "contact_email": "tomahgrill@gmail.com", "status": 1, "source_type": 1, "numberReviews": 33}, {"name": "Poulaillon", "type": "restaurant", "image": "https://dynamic-media-cdn.tripadvisor.com/media/photo-o/13/d8/d1/1e/photo1jpg.jpg?w=1000&s=1", "address": "61 rue de la Liberte, 21000, Dijon France", "lat": 47.3221, "lng": 5.03834, "ref_id": 14117470, "rating": 4, "num_reviews": 0, "website": "https://www.poulaillon.fr/", "contact_phone": "+33 3 45 62 62 71", "contact_email": null, "status": 1, "source_type": 1, "numberReviews": 24}, {"name": "Le 23 Couverts", "type": "restaurant", "image": "https://dynamic-media-cdn.tripadvisor.com/media/photo-o/1c/0f/e0/ee/le-23-couverts.jpg?w=1000&s=1", "address": "6 rue Alfred Changenet, 21300 Chenove France", "lat": 47.29391, "lng": 5.00285, "ref_id": 21296996, "rating": 4.5, "num_reviews": 0, "website": "http://www.acodege.fr/", "contact_phone": "+33 7 55 61 84 26", "contact_email": null, "status": 1, "source_type": 1, "numberReviews": 8}, {"name": "Courtepaille", "type": "restaurant", "image": "https://dynamic-media-cdn.tripadvisor.com/media/photo-o/1c/a1/3c/7d/photo-de-profil.jpg?w=1000&s=1", "address": "2 Rue De La Glaci\u00e8re, 21850 Saint-Apollinaire France", "lat": 47.325943, "lng": 5.075308, "ref_id": 3982749, "rating": 3.5, "num_reviews": 0, "website": "http://restaurants.courtepaille.com/restaurant-courtepaille-dijon-saint-apollinaire-id304", "contact_phone": "+33 3 80 30 34 72", "contact_email": null, "status": 1, "source_type": 1, "numberReviews": 200}, {"name": "Festins De Bourgogne", "type": "restaurant", "image": null, "address": "23 route de Beaune, 21160 Marsannay-la-Cote France", "lat": 47.279003, "lng": 5.007416, "ref_id": 11443907, "rating": 4, "num_reviews": 0, "website": "http://www.festins.fr/dijon", "contact_phone": "+33 3 80 54 39 39", "contact_email": null, "status": 1, "source_type": 1, "numberReviews": 26}, {"name": "Kebab 1er Mai", "type": "restaurant", "image": "https://dynamic-media-cdn.tripadvisor.com/media/photo-o/1b/88/4c/47/kebab-1er-mai.jpg?w=1000&s=1", "address": "13 avenue Jean Jaures, 21000, Dijon France", "lat": 47.31435, "lng": 5.02872, "ref_id": 19503433, "rating": 4.5, "num_reviews": 0, "website": null, "contact_phone": "+33 6 11 49 88 17", "contact_email": null, "status": 1, "source_type": 1, "numberReviews": 9}, {"name": "Sushi Park", "type": "restaurant", "image": "https://dynamic-media-cdn.tripadvisor.com/media/photo-o/19/88/6e/e1/logo.jpg?w=1000&s=1", "address": "20 rue des Perrieres, 21000, Dijon France", "lat": 47.324417, "lng": 5.028975, "ref_id": 19088494, "rating": 4.5, "num_reviews": 0, "website": "http://www.sushiparkdijon.fr", "contact_phone": "+33 3 80 57 01 35", "contact_email": "sparkdijon@gmail.com", "status": 1, "source_type": 1, "numberReviews": 15}, {"name": "Le Kassoumay", "type": "restaurant", "image": "https://dynamic-media-cdn.tripadvisor.com/media/photo-o/19/76/f4/b3/thiebou-dieune-au-merou.jpg?w=1000&s=1", "address": "44 Rue Berbisey, 21000, Dijon France", "lat": 47.31881, "lng": 5.03707, "ref_id": 17216441, "rating": 4, "num_reviews": 0, "website": "http://www.facebook.com/Le-Kassoumay-Restaurant-657480941374063/?__tn__=%2Cd%2CP-R&eid=ARAspXH-Sy4qf22Avfef9MUFMJZJBZqod7hoCbY2dFZCme4mKAFnq94MsjQAi8Y8U35eHziY060tm-Hr", "contact_phone": "+33 3 79 36 32 80", "contact_email": null, "status": 1, "source_type": 1, "numberReviews": 16}, {"name": "Kebab de L'Universit\u00e9", "type": "restaurant", "image": "https://dynamic-media-cdn.tripadvisor.com/media/photo-o/0e/7b/c5/f4/galette-kebab.jpg?w=1000&s=1", "address": "28 Boulevard De L'universit\u00e9, 21000, Dijon France", "lat": 47.31322, "lng": 5.05712, "ref_id": 12116809, "rating": 5, "num_reviews": 0, "website": "https://www.facebook.com/1745706339026839", "contact_phone": "+33 3 80 28 58 98", "contact_email": null, "status": 1, "source_type": 1, "numberReviews": 11}, {"name": "Slice Pizza", "type": "restaurant", "image": "https://dynamic-media-cdn.tripadvisor.com/media/photo-o/29/f7/f8/be/l-equipe-slice-pizza.jpg?w=1000&s=1", "address": "72 rue Monge, 21000, Dijon France", "lat": 47.32346, "lng": 5.043647, "ref_id": 25228938, "rating": 5, "num_reviews": 0, "website": null, "contact_phone": "+33 3 79 36 44 37", "contact_email": null, "status": 1, "source_type": 1, "numberReviews": 5}, {"name": "Chanhchhay restaurant thai", "type": "restaurant", "image": "https://dynamic-media-cdn.tripadvisor.com/media/photo-o/2c/11/51/66/caption.jpg?w=1000&s=1", "address": "65 rue Jeannin, Dijon France", "lat": 47.321712, "lng": 5.047288, "ref_id": 26818829, "rating": 5, "num_reviews": 0, "website": null, "contact_phone": "+33 9 84 10 02 83", "contact_email": null, "status": 1, "source_type": 1, "numberReviews": 5}, {"name": "Th\u00e9 Vin \u8336\u9152", "type": "restaurant", "image": "https://dynamic-media-cdn.tripadvisor.com/media/photo-o/29/a7/43/04/caption.jpg?w=1000&s=1", "address": "72 Rue Monge, 21000, Dijon France", "lat": 47.318935, "lng": 5.033798, "ref_id": 26243861, "rating": 5, "num_reviews": 0, "website": "https://www.facebook.com/people/Th%C3%A9-Vin-%E8%8C%B6%E9%85%92/100083619548014/", "contact_phone": "+33 3 80 60 89 73", "contact_email": "", "status": 1, "source_type": 1, "numberReviews": 5}, {"name": "Patisserie Pierre Hubert Toison D'or", "type": "restaurant", "image": "https://dynamic-media-cdn.tripadvisor.com/media/photo-o/0d/56/3d/d9/photo0jpg.jpg?w=1000&s=1", "address": "Route de Langres Centre Commercial Toison d'Or, 21000, Dijon France", "lat": 47.37344, "lng": 5.04942, "ref_id": 8431265, "rating": 4.5, "num_reviews": 0, "website": "http://www.latoisondor.com/W/do/centre/fiche-boutique-patisserie_pierre_hubert", "contact_phone": null, "contact_email": null, "status": 1, "source_type": 1, "numberReviews": 20}, {"name": "Buffalo Grill", "type": "restaurant", "image": "https://dynamic-media-cdn.tripadvisor.com/media/photo-o/1a/f1/34/f8/photo-de-profil.jpg?w=1000&s=1", "address": "Rue Gustave Eiffe Zone Actisud, 21160 Marsannay-la-Cote France", "lat": 47.281456, "lng": 5.011648, "ref_id": 4235091, "rating": 3.5, "num_reviews": 0, "website": "http://restaurant.buffalo-grill.fr/261504-buffalo-grill-dijon-marsannay", "contact_phone": "+33 3 80 52 99 98", "contact_email": "serviceclients-directionnord@buffalo-grill.fr", "status": 1, "source_type": 1, "numberReviews": 131}, {"name": "Bagelstein", "type": "restaurant", "image": "https://dynamic-media-cdn.tripadvisor.com/media/photo-o/17/9b/1f/5b/bagelstein.jpg?w=1000&s=1", "address": "60 rue des Godrans, 21000, Dijon France", "lat": 47.32364, "lng": 5.03853, "ref_id": 17465774, "rating": 4, "num_reviews": 0, "website": "http://www.bagelstein.com/magasin/122", "contact_phone": "+33 3 80 49 93 64", "contact_email": "godrans-dijon@bagelstein.com", "status": 1, "source_type": 1, "numberReviews": 22}, {"name": "Restaurant Le Cap Nord", "type": "restaurant", "image": "https://dynamic-media-cdn.tripadvisor.com/media/photo-o/07/4c/eb/96/restaurant-le-cap-nord.jpg?w=1000&s=1", "address": "1 rue du Bailly, 21000, Dijon France", "lat": 47.3493, "lng": 5.07376, "ref_id": 7606945, "rating": 3.5, "num_reviews": 0, "website": "http://www.facebook.com/Lecapnord", "contact_phone": "+33 3 80 78 12 86", "contact_email": null, "status": 1, "source_type": 1, "numberReviews": 33}, {"name": "Le Carillon", "type": "restaurant", "image": "https://dynamic-media-cdn.tripadvisor.com/media/photo-o/0e/90/95/f3/le-carillon.jpg?w=1000&s=1", "address": "2 rue Mariotte, 21000, Dijon France", "lat": 47.32179, "lng": 5.03334, "ref_id": 1328728, "rating": 3.5, "num_reviews": 0, "website": null, "contact_phone": "+33 3 80 30 63 71", "contact_email": "", "status": 1, "source_type": 1, "numberReviews": 55}, {"name": "La p\u2019tite trattoria", "type": "restaurant", "image": null, "address": "5 rue paul Cabet, 21000, Dijon France", "lat": 47.321877, "lng": 5.049753, "ref_id": 26247605, "rating": 5, "num_reviews": 0, "website": "https://instagram.com/la_ptite_trattoria?igshid=ogq5zdc2odk2za==", "contact_phone": "+33 9 67 46 11 37", "contact_email": null, "status": 1, "source_type": 1, "numberReviews": 5}, {"name": "Brasserie L'Escale", "type": "restaurant", "image": "https://dynamic-media-cdn.tripadvisor.com/media/photo-o/14/ff/f1/67/20181006-133123-largejpg.jpg?w=1000&s=1", "address": "Avenue de Bourgogne Centre Commercial Carrefour Grand, 21800 Quetigny France", "lat": 47.30996, "lng": 5.103174, "ref_id": 11938462, "rating": 4, "num_reviews": 0, "website": null, "contact_phone": "+33 3 80 46 16 75", "contact_email": null, "status": 1, "source_type": 1, "numberReviews": 16}, {"name": "Start In", "type": "restaurant", "image": "https://dynamic-media-cdn.tripadvisor.com/media/photo-o/2b/b8/3f/82/caption.jpg?w=1000&s=1", "address": "5 Place du Theatre, 21000, Dijon France", "lat": 47.32079, "lng": 5.0433, "ref_id": 18206898, "rating": 4, "num_reviews": 0, "website": "http://www.startindijon.com/", "contact_phone": "+33 7 86 35 70 15", "contact_email": "startin.theatredijon@gmail.com", "status": 1, "source_type": 1, "numberReviews": 21}, {"name": "La Rotisserie", "type": "restaurant", "image": "https://dynamic-media-cdn.tripadvisor.com/media/photo-o/11/27/b5/9c/la-rotisserie.jpg?w=1000&s=1", "address": "15 rue Nourissat, 21000, Dijon France", "lat": 47.34269, "lng": 5.067482, "ref_id": 6280212, "rating": 3.5, "num_reviews": 0, "website": "http://www.restaurant-larotisserie-dijon.fr", "contact_phone": "+33 3 80 46 70 45", "contact_email": null, "status": 1, "source_type": 1, "numberReviews": 50}, {"name": "Laiterie Gilbert", "type": "restaurant", "image": null, "address": "21 Rue D'auxonne, 21000 Fontaine-les-Dijon France", "lat": 47.31557, "lng": 5.04567, "ref_id": 27234481, "rating": -1, "num_reviews": 0, "website": "http://www.lafromageriedolivier.fr/", "contact_phone": "+33 9 81 82 48 70", "contact_email": null, "status": 1, "source_type": 1, "numberReviews": 0}, {"name": "La Petrisane", "type": "restaurant", "image": null, "address": "2 Rue Sacha Distel, 21800 Chevigny-Saint-Sauveur France", "lat": 47.29383, "lng": 5.126699, "ref_id": 27206329, "rating": -1, "num_reviews": 0, "website": "https://www.facebook.com/269558689747068", "contact_phone": "+33 3 80 56 10 25", "contact_email": null, "status": 1, "source_type": 1, "numberReviews": 0}, {"name": "Le Crazy", "type": "restaurant", "image": null, "address": "17 Rue De Gray, 21000 Fontaine-les-Dijon France", "lat": 47.32307, "lng": 5.05261, "ref_id": 27242856, "rating": -1, "num_reviews": 0, "website": "https://www.facebook.com/1266798366749056", "contact_phone": "+33 9 67 09 82 39", "contact_email": null, "status": 1, "source_type": 1, "numberReviews": 0}, {"name": "Sup\u00e9rette Berbisey", "type": "restaurant", "image": null, "address": "94 Rue Berbisey, 21000 Fontaine-les-Dijon France", "lat": 47.318077, "lng": 5.035294, "ref_id": 27206049, "rating": -1, "num_reviews": 0, "website": null, "contact_phone": "+33 3 80 30 73 20", "contact_email": null, "status": 1, "source_type": 1, "numberReviews": 0}, {"name": "Th\u00e9s & Traditions", "type": "restaurant", "image": null, "address": "2 Rue De L'aqueduc D'arcy, 21121 Ahuy France", "lat": 47.35607, "lng": 5.0355, "ref_id": 27316245, "rating": -1, "num_reviews": 0, "website": "https://www.thes-traditions.com/", "contact_phone": "+33 9 73 89 22 91", "contact_email": null, "status": 1, "source_type": 1, "numberReviews": 0}, {"name": "La Rhumerie Jamaique", "type": "restaurant", "image": null, "address": "14 Place De La R\u00e9publique, 21000 Fontaine-les-Dijon France", "lat": 47.326183, "lng": 5.045042, "ref_id": 27317945, "rating": -1, "num_reviews": 0, "website": "https://www.facebook.com/504495692913717", "contact_phone": "+33 6 03 48 23 09", "contact_email": null, "status": 1, "source_type": 1, "numberReviews": 0}, {"name": "Liberty Bar", "type": "restaurant", "image": null, "address": "42 Avenue De La R\u00e9publique, 21800 Chevigny-Saint-Sauveur France", "lat": 47.299232, "lng": 5.13464, "ref_id": 27243457, "rating": -1, "num_reviews": 0, "website": "https://www.facebook.com/104948864487190", "contact_phone": "+33 3 80 46 26 51", "contact_email": null, "status": 1, "source_type": 1, "numberReviews": 0}, {"name": "Boulangerie Patisserie De La Sabli\u00e8re", "type": "restaurant", "image": null, "address": "20 Rue De La Sabli\u00e8re, 21000 Fontaine-les-Dijon France", "lat": 47.33049, "lng": 5.041774, "ref_id": 27206255, "rating": -1, "num_reviews": 0, "website": "https://www.facebook.com/130114307037619", "contact_phone": "+33 3 71 19 82 31", "contact_email": null, "status": 1, "source_type": 1, "numberReviews": 0}, {"name": "Yesushi", "type": "restaurant", "image": null, "address": "47 Avenue Raymond Poincar\u00e9, 21000 Fontaine-les-Dijon France", "lat": 47.329067, "lng": 5.06609, "ref_id": 27843727, "rating": -1, "num_reviews": 0, "website": "http://www.yesushi.fr", "contact_phone": "+33 6 47 48 98 88", "contact_email": null, "status": 1, "source_type": 1, "numberReviews": 0}, {"name": "Au Gas Normand", "type": "restaurant", "image": null, "address": "Rue Odebert, 21000 Fontaine-les-Dijon France", "lat": 47.323635, "lng": 5.039251, "ref_id": 27205796, "rating": -1, "num_reviews": 0, "website": "http://www.fromagerie-au-gas-normand.com/", "contact_phone": "+33 3 80 30 33 90", "contact_email": null, "status": 1, "source_type": 1, "numberReviews": 0}, {"name": "La Gobeleterie", "type": "restaurant", "image": null, "address": "1 Rue Bannelier, 21000 Fontaine-les-Dijon France", "lat": 47.32409, "lng": 5.040489, "ref_id": 27317878, "rating": -1, "num_reviews": 0, "website": "https://reservation.laddition.com/booking/tlvt-irmh", "contact_phone": "", "contact_email": null, "status": 1, "source_type": 1, "numberReviews": 0}, {"name": "Dammann Fr\u00e8res Dijon", "type": "restaurant", "image": null, "address": "23 Rue Piron, 21000 Fontaine-les-Dijon France", "lat": 47.32039, "lng": 5.03856, "ref_id": 27315948, "rating": -1, "num_reviews": 0, "website": "https://www.dammann.fr", "contact_phone": "+33 3 80 33 03 83", "contact_email": null, "status": 1, "source_type": 1, "numberReviews": 0}, {"name": "La Mie De Pain", "type": "restaurant", "image": null, "address": "17 Boulevard Du Champ Aux M\u00e9tiers, 21800 Quetigny France", "lat": 47.307568, "lng": 5.102021, "ref_id": 27243478, "rating": -1, "num_reviews": 0, "website": "http://www.lamiedepain-boulangerie.fr", "contact_phone": "+33 9 67 89 93 96", "contact_email": null, "status": 1, "source_type": 1, "numberReviews": 0}, {"name": "La Tarterie", "type": "restaurant", "image": null, "address": "3 rue Piron, 21000, Dijon France", "lat": 47.32085, "lng": 5.03736, "ref_id": 20309772, "rating": -1, "num_reviews": 0, "website": null, "contact_phone": null, "contact_email": null, "status": 1, "source_type": 1, "numberReviews": 0}, {"name": "Boulangerie Du Centre", "type": "restaurant", "image": null, "address": "20bis Route De Dijon, 21600 Longvic, Dijon France", "lat": 47.285545, "lng": 5.063382, "ref_id": 27243237, "rating": -1, "num_reviews": 0, "website": "https://www.facebook.com/352953181516870", "contact_phone": "+33 3 80 67 52 09", "contact_email": null, "status": 1, "source_type": 1, "numberReviews": 0}, {"name": "Mywok", "type": "restaurant", "image": null, "address": "9 Rue Docteur Stein, 21000 Fontaine-les-Dijon France", "lat": 47.34102, "lng": 5.062202, "ref_id": 27316286, "rating": -1, "num_reviews": 0, "website": "https://www.facebook.com/1485015011602395", "contact_phone": "+33 3 80 63 03 81", "contact_email": null, "status": 1, "source_type": 1, "numberReviews": 0}, {"name": "Au Vieux Mill\u00e9sime", "type": "restaurant", "image": null, "address": "82 Rue Monge, 21000, Dijon France", "lat": 48.84203, "lng": 2.351892, "ref_id": 27702127, "rating": -1, "num_reviews": 0, "website": null, "contact_phone": null, "contact_email": null, "status": 1, "source_type": 1, "numberReviews": 0}, {"name": "Boulangerie-p\u00e2tisserie Eiffel", "type": "restaurant", "image": null, "address": "19 Avenue Gustave Eiffel, 21000 Fontaine-les-Dijon France", "lat": 47.31493, "lng": 5.02349, "ref_id": 27206132, "rating": -1, "num_reviews": 0, "website": "https://www.facebook.com/154617344560061", "contact_phone": "+33 3 80 45 25 31", "contact_email": null, "status": 1, "source_type": 1, "numberReviews": 0}, {"name": "L'annexe Dijon", "type": "restaurant", "image": null, "address": "47 Rue Devosge, 21000 Fontaine-les-Dijon France", "lat": 47.326805, "lng": 5.039396, "ref_id": 27242824, "rating": -1, "num_reviews": 0, "website": "https://www.facebook.com/177508078953655", "contact_phone": "+33 3 80 72 38 71", "contact_email": null, "status": 1, "source_type": 1, "numberReviews": 0}, {"name": "Langlet Arnaud", "type": "restaurant", "image": null, "address": "11bis Grande Rue, 21910 Saulon-la-Chapelle France", "lat": 47.21444, "lng": 5.089393, "ref_id": 27306060, "rating": -1, "num_reviews": 0, "website": "http://www.facebook.com/boulangerie-langlet-2068549783411427/", "contact_phone": "+33 3 80 39 80 16", "contact_email": null, "status": 1, "source_type": 1, "numberReviews": 0}, {"name": "La R\u00e9serve Bio - Dijon", "type": "restaurant", "image": null, "address": "83 Avenue Jean Jaur\u00e8s, 21000 Fontaine-les-Dijon France", "lat": 47.307835, "lng": 5.025161, "ref_id": 27315796, "rating": -1, "num_reviews": 0, "website": "http://www.reservebio.fr", "contact_phone": "+33 3 80 49 60 25", "contact_email": null, "status": 1, "source_type": 1, "numberReviews": 0}, {"name": "Au Framboisier", "type": "restaurant", "image": null, "address": "64 Rue D'auxonne, 21000 Fontaine-les-Dijon France", "lat": 47.313843, "lng": 5.048852, "ref_id": 27317869, "rating": -1, "num_reviews": 0, "website": "https://www.facebook.com/107521589285060", "contact_phone": "+33 9 86 17 40 85", "contact_email": null, "status": 1, "source_type": 1, "numberReviews": 0}, {"name": "Le Grand Caf\u00e9 Dijon Officiel", "type": "restaurant", "image": null, "address": "5 Rue Du Ch\u00e2teau, 21000 Fontaine-les-Dijon France", "lat": 47.32302, "lng": 5.03703, "ref_id": 27205998, "rating": -1, "num_reviews": 0, "website": "https://www.facebook.com/911808582238554", "contact_phone": "+33 3 80 30 97 26", "contact_email": null, "status": 1, "source_type": 1, "numberReviews": 0}, {"name": "Ekinkebab", "type": "restaurant", "image": null, "address": "44 Rue D'auxonne, 21000 Fontaine-les-Dijon France", "lat": 47.314598, "lng": 5.04723, "ref_id": 27843674, "rating": -1, "num_reviews": 0, "website": "https://www.facebook.com/373116406181230", "contact_phone": "+33 9 51 87 81 09", "contact_email": null, "status": 1, "source_type": 1, "numberReviews": 0}, {"name": "My Spicy Snack", "type": "restaurant", "image": null, "address": "11 Rue Auguste Fremiet, 21000 Fontaine-les-Dijon France", "lat": 47.330246, "lng": 5.044711, "ref_id": 27243350, "rating": -1, "num_reviews": 0, "website": "https://www.facebook.com/108434238458705", "contact_phone": "+33 3 80 43 98 18", "contact_email": null, "status": 1, "source_type": 1, "numberReviews": 0}, {"name": "La R\u00f4tisserie", "type": "restaurant", "image": null, "address": "36 Rue Chevreul, 21000 Fontaine-les-Dijon France", "lat": 47.30813, "lng": 5.04052, "ref_id": 27206068, "rating": -1, "num_reviews": 0, "website": "https://www.restaurant-larotisserie-dijon.fr/", "contact_phone": "+33 6 36 31 25 07", "contact_email": null, "status": 1, "source_type": 1, "numberReviews": 0}, {"name": "Le Cellier", "type": "restaurant", "image": null, "address": "1 Rue Auguste Perdrix, 21000, Dijon France", "lat": 47.325733, "lng": 5.033784, "ref_id": 26855083, "rating": -1, "num_reviews": 0, "website": "http://lecellier-dijon.fr", "contact_phone": "+33 3 45 43 53 63", "contact_email": null, "status": 1, "source_type": 1, "numberReviews": 0}, {"name": "L'H\u00e9micyle", "type": "restaurant", "image": "https://dynamic-media-cdn.tripadvisor.com/media/photo-o/2a/8f/20/7d/soleil-petit-cafe.jpg?w=1000&s=1", "address": "8, Place de la Lib\u00e9ration, 21000, Dijon France", "lat": 47.321217, "lng": 5.040678, "ref_id": 25327034, "rating": -1, "num_reviews": 0, "website": null, "contact_phone": "+33 9 61 67 92 23", "contact_email": "hemicyle-restaurant@orange.fr", "status": 1, "source_type": 1, "numberReviews": 0}, {"name": "Sam'snack", "type": "restaurant", "image": null, "address": "85 Rue Jeannin, 21000 Fontaine-les-Dijon France", "lat": 47.321564, "lng": 5.047927, "ref_id": 27315984, "rating": -1, "num_reviews": 0, "website": "https://www.facebook.com/346963042009094", "contact_phone": "+33 3 80 67 77 02", "contact_email": null, "status": 1, "source_type": 1, "numberReviews": 0}, {"name": "Buffalo Grill", "type": "restaurant", "image": null, "address": "126 Avenue Roland Carraz, 21300 Chenove France", "lat": 47.285694, "lng": 5.010818, "ref_id": 27305744, "rating": -1, "num_reviews": 0, "website": "https://www.buffalo-grill.fr/restaurant/chenove?utm_source=facebook&utm_medium=local&utm_campaign=facebook-local", "contact_phone": "+33 3 80 51 31 24", "contact_email": null, "status": 1, "source_type": 1, "numberReviews": 0}, {"name": "Chez Alin", "type": "restaurant", "image": null, "address": "9 rue Audra Porte Verte, 21000, Dijon France", "lat": 47.325493, "lng": 5.033696, "ref_id": 23094444, "rating": -1, "num_reviews": 0, "website": null, "contact_phone": "+33 7 78 89 34 56", "contact_email": "chezalin@yopmail.com", "status": 1, "source_type": 1, "numberReviews": 0}, {"name": "Saveurs Th\u00e9s Et Caf\u00e9s", "type": "restaurant", "image": null, "address": "13 Rue Jean-jacques Rousseau, 21000 Fontaine-les-Dijon France", "lat": 47.32543, "lng": 5.04527, "ref_id": 27305958, "rating": -1, "num_reviews": 0, "website": "https://www.facebook.com/112571088179778", "contact_phone": "+33 9 70 66 95 32", "contact_email": null, "status": 1, "source_type": 1, "numberReviews": 0}, {"name": "Maison Thiriet", "type": "restaurant", "image": null, "address": "4 Place Saint-exup\u00e9ry, 21000 Fontaine-les-Dijon France", "lat": 47.336185, "lng": 5.056449, "ref_id": 27843573, "rating": -1, "num_reviews": 0, "website": "https://www.thiriet.com/", "contact_phone": "+33 3 80 71 15 29", "contact_email": null, "status": 1, "source_type": 1, "numberReviews": 0}, {"name": "Ekin Grill", "type": "restaurant", "image": null, "address": "115 Boulevard Charles De Gaulle, 21160 Marsannay-la-Cote France", "lat": 47.27825, "lng": 5.01649, "ref_id": 27234348, "rating": -1, "num_reviews": 0, "website": "https://www.facebook.com/115687319886493", "contact_phone": "+33 3 80 49 12 19", "contact_email": null, "status": 1, "source_type": 1, "numberReviews": 0}, {"name": "Forme & Zen Dijon", "type": "restaurant", "image": null, "address": "90 Rue Monge, 21000 Fontaine-les-Dijon France", "lat": 47.31859, "lng": 5.03329, "ref_id": 27242786, "rating": -1, "num_reviews": 0, "website": "http://formeetzen.fr", "contact_phone": "+33 3 80 45 46 74", "contact_email": null, "status": 1, "source_type": 1, "numberReviews": 0}, {"name": "Bar Brasserie Le Tigre", "type": "restaurant", "image": null, "address": "17 Boulevard Georges Clemenceau, 21000 Fontaine-les-Dijon France", "lat": 47.32823, "lng": 5.0496, "ref_id": 27315768, "rating": -1, "num_reviews": 0, "website": "http://www.planete-tigre.org", "contact_phone": "+33 3 80 72 28 38", "contact_email": null, "status": 1, "source_type": 1, "numberReviews": 0}, {"name": "Royal Tacos", "type": "restaurant", "image": null, "address": "2 Rue Coup\u00e9e De Longvic, 21000 Fontaine-les-Dijon France", "lat": 47.31526, "lng": 5.0447, "ref_id": 27205836, "rating": -1, "num_reviews": 0, "website": "https://www.facebook.com/351539458784033", "contact_phone": "+33 6 52 15 01 23", "contact_email": null, "status": 1, "source_type": 1, "numberReviews": 0}, {"name": "Maison Claude Louot", "type": "restaurant", "image": null, "address": "1 Boulevard De S\u00e9vign\u00e9, 21000 Fontaine-les-Dijon France", "lat": 47.323223, "lng": 5.033097, "ref_id": 27205916, "rating": -1, "num_reviews": 0, "website": "https://www.facebook.com/150371845003137", "contact_phone": "+33 3 80 30 77 35", "contact_email": null, "status": 1, "source_type": 1, "numberReviews": 0}, {"name": "Restaurant Le Bon Coin", "type": "restaurant", "image": null, "address": "43 Avenue Roland Carraz, 21300 Chenove France", "lat": 47.29889, "lng": 5.01997, "ref_id": 27316051, "rating": -1, "num_reviews": 0, "website": "https://www.facebook.com/106852754335098", "contact_phone": "+33 3 80 52 58 17", "contact_email": null, "status": 1, "source_type": 1, "numberReviews": 0}, {"name": "Fast-food MILAN", "type": "restaurant", "image": null, "address": "1 rue Marcel Sembat, 21000, Dijon France", "lat": null, "lng": null, "ref_id": 20386439, "rating": -1, "num_reviews": 0, "website": "https://www.facebook.com/pages/category/Product-Service/Fast-food-MILAN-vente-%C3%A0-emporter-105709931064885/", "contact_phone": "+33 6 59 02 76 12", "contact_email": null, "status": 1, "source_type": 1, "numberReviews": 0}, {"name": "Chez Fouad", "type": "restaurant", "image": null, "address": "61 Avenue Du Lac, 21000 Fontaine-les-Dijon France", "lat": 47.32188, "lng": 5.001791, "ref_id": 27315726, "rating": -1, "num_reviews": 0, "website": "https://www.facebook.com/156846144333629", "contact_phone": "+33 3 80 45 59 07", "contact_email": null, "status": 1, "source_type": 1, "numberReviews": 0}, {"name": "Les Comptoirs De La Bio - Ahuy", "type": "restaurant", "image": null, "address": "Route De Dijon, 21121 Ahuy France", "lat": 47.35421, "lng": 5.035487, "ref_id": 27317164, "rating": -1, "num_reviews": 0, "website": "https://lescomptoirsdelabio.fr/magasins/ahuy", "contact_phone": "+33 3 80 10 36 77", "contact_email": null, "status": 1, "source_type": 1, "numberReviews": 0}, {"name": "Jouvence Kebab", "type": "restaurant", "image": null, "address": "51 Rue De Jouvence, 21000 Fontaine-les-Dijon France", "lat": 47.33302, "lng": 5.038779, "ref_id": 27243304, "rating": -1, "num_reviews": 0, "website": "https://www.facebook.com/199351466751602", "contact_phone": "+33 9 53 22 57 20", "contact_email": null, "status": 1, "source_type": 1, "numberReviews": 0}, {"name": "Fromages & Co", "type": "restaurant", "image": null, "address": "77 Rue Jean-jacques Rousseau, 21000 Fontaine-les-Dijon France", "lat": 47.32392, "lng": 5.04464, "ref_id": 27205753, "rating": -1, "num_reviews": 0, "website": "https://www.facebook.com/123024755057525", "contact_phone": "+33 3 80 46 02 03", "contact_email": null, "status": 1, "source_type": 1, "numberReviews": 0}, {"name": "Maison Thiriet", "type": "restaurant", "image": null, "address": "1 Impasse Jean Perrin, 21300 Chenove France", "lat": 47.28617, "lng": 5.019439, "ref_id": 27234468, "rating": -1, "num_reviews": 0, "website": "https://www.thiriet.com/", "contact_phone": "+33 3 80 59 80 47", "contact_email": null, "status": 1, "source_type": 1, "numberReviews": 0}, {"name": "Boulangerie Marie Blachere", "type": "restaurant", "image": null, "address": "Rue des Artisans, 21800 Quetigny France", "lat": 47.30605, "lng": 5.10209, "ref_id": 17328126, "rating": -1, "num_reviews": 0, "website": "http://www.marieblachere.com/points-de-vente/", "contact_phone": "+33 3 80 32 99 44", "contact_email": null, "status": 1, "source_type": 1, "numberReviews": 0}, {"name": "Le Bilboquet", "type": "restaurant", "image": null, "address": "54 Rue De Talant, 21000 Fontaine-les-Dijon France", "lat": 47.328827, "lng": 5.022552, "ref_id": 27243027, "rating": -1, "num_reviews": 0, "website": "https://www.facebook.com/279407339172657", "contact_phone": "+33 3 80 57 16 18", "contact_email": null, "status": 1, "source_type": 1, "numberReviews": 0}, {"name": "Les Comptoirs Th\u00e9 Caf\u00e9", "type": "restaurant", "image": null, "address": "7 Rue Des Godrans, 21000 Fontaine-les-Dijon France", "lat": 47.325016, "lng": 5.039196, "ref_id": 27205691, "rating": -1, "num_reviews": 0, "website": "http://www.comptoirs-the-cafe.com/dijon-59.html", "contact_phone": "+33 3 80 27 69 32", "contact_email": null, "status": 1, "source_type": 1, "numberReviews": 0}, {"name": "Aux Deux Cours", "type": "restaurant", "image": null, "address": "88 Rue De La Pr\u00e9fecture, 21000 Fontaine-les-Dijon France", "lat": 47.32568, "lng": 5.04326, "ref_id": 27242705, "rating": -1, "num_reviews": 0, "website": "https://www.facebook.com/120010609790098", "contact_phone": "+33 3 80 45 15 37", "contact_email": null, "status": 1, "source_type": 1, "numberReviews": 0}, {"name": "Mille Wok", "type": "restaurant", "image": null, "address": "46 Rue D'auxonne, 21000 Fontaine-les-Dijon France", "lat": 47.31456, "lng": 5.04731, "ref_id": 27317505, "rating": -1, "num_reviews": 0, "website": "https://www.facebook.com/110005727161765", "contact_phone": "+33 9 52 27 79 50", "contact_email": null, "status": 1, "source_type": 1, "numberReviews": 0}, {"name": "Bamagotchi", "type": "restaurant", "image": null, "address": "3 Rue Du Faubourg Raines, 21000, Dijon France", "lat": 47.31821, "lng": 5.02982, "ref_id": 27702142, "rating": -1, "num_reviews": 0, "website": "https://www.facebook.com/105466171844894", "contact_phone": "+33 3 45 34 39 60", "contact_email": null, "status": 1, "source_type": 1, "numberReviews": 0}, {"name": "Pok&bowl", "type": "restaurant", "image": null, "address": "94 Rue Des Godrans, 21000 Fontaine-les-Dijon France", "lat": 47.32319, "lng": 5.03849, "ref_id": 27317020, "rating": -1, "num_reviews": 0, "website": "https://www.facebook.com/105496265040706", "contact_phone": "+33 3 80 41 93 18", "contact_email": null, "status": 1, "source_type": 1, "numberReviews": 0}, {"name": "Royal Sandwiche", "type": "restaurant", "image": null, "address": "22 Rue Monge, 21000 Fontaine-les-Dijon France", "lat": 47.319717, "lng": 5.035566, "ref_id": 27234426, "rating": -1, "num_reviews": 0, "website": "http://royal-sandwich.metro.biz", "contact_phone": "+33 3 80 58 93 46", "contact_email": null, "status": 1, "source_type": 1, "numberReviews": 0}, {"name": "Au Vieux L\u00e9on", "type": "restaurant", "image": null, "address": "52 Rue Jeannin, 21000 Fontaine-les-Dijon France", "lat": 47.32142, "lng": 5.04744, "ref_id": 27317531, "rating": -1, "num_reviews": 0, "website": "http://www.virusphoto.com/64642-au-vieux-leon-a-dijon.html", "contact_phone": "+33 3 80 67 78 93", "contact_email": null, "status": 1, "source_type": 1, "numberReviews": 0}, {"name": "Afric Cook", "type": "restaurant", "image": null, "address": "28 Rue Devosge, 21000 Fontaine-les-Dijon France", "lat": 47.325443, "lng": 5.035611, "ref_id": 27842862, "rating": -1, "num_reviews": 0, "website": "https://www.facebook.com/1565002216961665", "contact_phone": "+33 9 53 98 46 70", "contact_email": null, "status": 1, "source_type": 1, "numberReviews": 0}, {"name": "Le Chamois Dijon", "type": "restaurant", "image": null, "address": "16 Avenue Garibaldi, 21000 Fontaine-les-Dijon France", "lat": 47.32792, "lng": 5.04426, "ref_id": 27206061, "rating": -1, "num_reviews": 0, "website": "http://www.restaurantlechamoisdijon.fr/", "contact_phone": "+33 3 80 74 38 51", "contact_email": null, "status": 1, "source_type": 1, "numberReviews": 0}, {"name": "Marcel&fils Bio Chen\u00f4ve", "type": "restaurant", "image": null, "address": "6 Rue Des Fr\u00e8res Montgolfier, 21300 Chenove France", "lat": 47.29285, "lng": 5.02025, "ref_id": 27315814, "rating": -1, "num_reviews": 0, "website": "https://marceletfils.com/", "contact_phone": "+33 3 80 51 16 51", "contact_email": null, "status": 1, "source_type": 1, "numberReviews": 0}, {"name": "Le Comptoir Des Bi\u00e8res 2", "type": "restaurant", "image": null, "address": "5 Rue Docteur Stein, 21000 Fontaine-les-Dijon France", "lat": 47.3402, "lng": 5.061897, "ref_id": 27243413, "rating": -1, "num_reviews": 0, "website": "https://www.facebook.com/401042670347625", "contact_phone": "+33 3 80 79 35 90", "contact_email": null, "status": 1, "source_type": 1, "numberReviews": 0}, {"name": "Le Chalet Comtois", "type": "restaurant", "image": null, "address": "28 Rue Musette, 21000 Fontaine-les-Dijon France", "lat": 47.323086, "lng": 5.038742, "ref_id": 27205879, "rating": -1, "num_reviews": 0, "website": "https://www.facebook.com/538062466290530", "contact_phone": "+33 3 80 30 48 61", "contact_email": null, "status": 1, "source_type": 1, "numberReviews": 0}, {"name": "La Roue Libre", "type": "restaurant", "image": null, "address": "13 Rue Auguste Comte, 21000 Fontaine-les-Dijon France", "lat": 47.32341, "lng": 5.043828, "ref_id": 27305805, "rating": -1, "num_reviews": 0, "website": "https://www.facebook.com/526310780783230", "contact_phone": "", "contact_email": null, "status": 1, "source_type": 1, "numberReviews": 0}, {"name": "A La Grasihade", "type": "restaurant", "image": "https://dynamic-media-cdn.tripadvisor.com/media/photo-o/19/5d/91/b7/img-20190923-130252-largejpg.jpg?w=1000&s=1", "address": "43 allee de la Cude, 21370 Velars-sur-Ouche France", "lat": 47.31793, "lng": 4.9174, "ref_id": 6857236, "rating": 4, "num_reviews": 0, "website": "https://www.facebook.com/152674608098713", "contact_phone": "+33 3 80 33 63 38", "contact_email": null, "status": 1, "source_type": 1, "numberReviews": 79}, {"name": "Le Pharaon", "type": "restaurant", "image": "https://dynamic-media-cdn.tripadvisor.com/media/photo-o/18/33/96/c7/photo0jpg.jpg?w=1000&s=1", "address": "116 rue Berbisey, 21000, Dijon France", "lat": 47.31761, "lng": 5.034431, "ref_id": 1328737, "rating": 4, "num_reviews": 0, "website": "https://www.facebook.com/lepharaon.dijon/", "contact_phone": "+33 3 80 30 11 36", "contact_email": "", "status": 1, "source_type": 1, "numberReviews": 138}, {"name": "San Tao", "type": "restaurant", "image": "https://dynamic-media-cdn.tripadvisor.com/media/photo-o/16/9b/03/f8/devanture.jpg?w=1000&s=1", "address": "17 rue Jules Mercier, 21000, Dijon France", "lat": 47.320484, "lng": 5.039318, "ref_id": 11875333, "rating": 5, "num_reviews": 0, "website": "http://www.santao.fr/", "contact_phone": "+33 7 68 68 00 62", "contact_email": "santaoshop@gmail.com", "status": 1, "source_type": 1, "numberReviews": 31}, {"name": "La cave se rebiffe", "type": "restaurant", "image": "https://dynamic-media-cdn.tripadvisor.com/media/photo-o/1c/09/59/b2/photo0jpg.jpg?w=1000&s=1", "address": "57 rue Vannerie, 21000, Dijon France", "lat": 47.322655, "lng": 5.045425, "ref_id": 4828401, "rating": 4.5, "num_reviews": 0, "website": "www.lacave-serebiffe.com", "contact_phone": "+33 9 52 73 46 28", "contact_email": "Lacaveserebiffe21@gmail.com", "status": 1, "source_type": 1, "numberReviews": 62}, {"name": "Osaka", "type": "restaurant", "image": "https://dynamic-media-cdn.tripadvisor.com/media/photo-o/18/4c/f5/f3/img-20190712-203511-largejpg.jpg?w=1000&s=1", "address": "13 rue Musette, 21000, Dijon France", "lat": 47.322784, "lng": 5.039728, "ref_id": 1328744, "rating": 4, "num_reviews": 0, "website": "http://osakadijon.fr/", "contact_phone": "+33 3 80 50 17 51", "contact_email": "", "status": 1, "source_type": 1, "numberReviews": 205}, {"name": "Le Pai-Sho", "type": "restaurant", "image": "https://dynamic-media-cdn.tripadvisor.com/media/photo-o/19/74/06/a9/petit-dejeuner-au-pai.jpg?w=1000&s=1", "address": "54 rue des Godrans, 21000, Dijon France", "lat": 47.3237, "lng": 5.03855, "ref_id": 16696614, "rating": 5, "num_reviews": 0, "website": "https://www.facebook.com/lepaisho/", "contact_phone": "+33 9 73 50 78 86", "contact_email": "lepaisho@gmail.com", "status": 1, "source_type": 1, "numberReviews": 24}, {"name": "Le Malto", "type": "restaurant", "image": "https://dynamic-media-cdn.tripadvisor.com/media/photo-o/1c/bb/14/e5/aubergines-frites-bien.jpg?w=1000&s=1", "address": "4 boulevard Georges Clemenceau, 21000, Dijon France", "lat": 47.32684, "lng": 5.04685, "ref_id": 21358598, "rating": 4.5, "num_reviews": 0, "website": "http://lemalto.fr/", "contact_phone": "+33 3 80 20 33 34", "contact_email": null, "status": 1, "source_type": 1, "numberReviews": 42}, {"name": "La Biscuiterie", "type": "restaurant", "image": "https://dynamic-media-cdn.tripadvisor.com/media/photo-o/1b/f5/53/f4/biscuits.jpg?w=1000&s=1", "address": "12 rue de la Poste, 21000, Dijon France", "lat": 47.3235, "lng": 5.03565, "ref_id": 17593230, "rating": 5, "num_reviews": 0, "website": "https://www.facebook.com/La-biscuiterie-831868693854443/", "contact_phone": "+33 9 88 09 36 26", "contact_email": "Labiscuiterie.dijon@gmail.com", "status": 1, "source_type": 1, "numberReviews": 28}, {"name": "Quetign'eat", "type": "restaurant", "image": "https://dynamic-media-cdn.tripadvisor.com/media/photo-o/1d/75/b7/22/caption.jpg?w=1000&s=1", "address": "7 Av. du Chateau, 21800 Quetigny France", "lat": 47.312428, "lng": 5.110728, "ref_id": 21338233, "rating": 4.5, "num_reviews": 0, "website": "https://www.facebook.com/quetigneat/", "contact_phone": "+33 3 80 72 80 73", "contact_email": "contact@quetigneat.com", "status": 1, "source_type": 1, "numberReviews": 26}, {"name": "Gina", "type": "restaurant", "image": "https://dynamic-media-cdn.tripadvisor.com/media/photo-o/0e/9a/58/2f/20170302-120513-largejpg.jpg?w=1000&s=1", "address": "1 Place du Marche, 21000, Dijon France", "lat": 47.32354, "lng": 5.0395, "ref_id": 6737924, "rating": 3.5, "num_reviews": 0, "website": "http://www.restaurant-gina.com", "contact_phone": "+33 6 70 89 26 94", "contact_email": null, "status": 1, "source_type": 1, "numberReviews": 579}, {"name": "Les Docks de Bourgogne", "type": "restaurant", "image": "https://dynamic-media-cdn.tripadvisor.com/media/photo-o/17/c7/d1/4d/20190603-193707-largejpg.jpg?w=1000&s=1", "address": "7 Avenue Albert 1er, 21000, Dijon France", "lat": 47.32248, "lng": 5.02539, "ref_id": 2225943, "rating": 4, "num_reviews": 0, "website": "https://www.lesdocksdebourgogne.fr/", "contact_phone": "+33 3 80 41 53 99", "contact_email": "kiway.mairet@gmail.com", "status": 1, "source_type": 1, "numberReviews": 54}, {"name": "La Cri\u00e9e", "type": "restaurant", "image": "https://dynamic-media-cdn.tripadvisor.com/media/photo-o/0f/c8/7b/b9/img-20170705-194710-largejpg.jpg?w=1000&s=1", "address": "4 Rue de la Glaci\u00e8re, 21850 Saint-Apollinaire France", "lat": 47.325993, "lng": 5.076049, "ref_id": 2623646, "rating": 3.5, "num_reviews": 0, "website": "https://restaurant.lacriee.com/44-la-criee-dijon?utm_source=gmb", "contact_phone": "+33 3 80 45 18 00", "contact_email": null, "status": 1, "source_type": 1, "numberReviews": 559}, {"name": "Le Soixante Quinze", "type": "restaurant", "image": "https://dynamic-media-cdn.tripadvisor.com/media/photo-o/17/0c/53/a7/faux-filet-de-beouf-sauce.jpg?w=1000&s=1", "address": "75 boulevard Pascal, 21000, Dijon France", "lat": 47.339363, "lng": 5.046539, "ref_id": 7732822, "rating": 4, "num_reviews": 0, "website": "http://www.le75dijon.fr", "contact_phone": "+33 3 80 73 12 12", "contact_email": "restodijon75@gmail.com", "status": 1, "source_type": 1, "numberReviews": 116}, {"name": "Trinidad brasserie", "type": "restaurant", "image": "https://dynamic-media-cdn.tripadvisor.com/media/photo-o/0a/dc/67/81/photo0jpg.jpg?w=1000&s=1", "address": "1 B Place du Theatre, 21000, Dijon France", "lat": 47.321003, "lng": 5.043575, "ref_id": 8533897, "rating": 4, "num_reviews": 0, "website": "https://fr-fr.facebook.com/pages/Trinidad-Dijon/516159698439600", "contact_phone": "+33 6 01 88 61 91", "contact_email": null, "status": 1, "source_type": 1, "numberReviews": 180}, {"name": "Restaurant Chez Grand-Mere", "type": "restaurant", "image": "https://dynamic-media-cdn.tripadvisor.com/media/photo-o/1b/f5/8b/72/restaurant-chez-grand.jpg?w=1000&s=1", "address": "3 rue de Quetigny, 21560 Couternon France", "lat": 47.33145, "lng": 5.14955, "ref_id": 8436108, "rating": 4.5, "num_reviews": 0, "website": "https://www.facebook.com/restaurantgrandmere/timeline", "contact_phone": "+33 3 80 47 50 77", "contact_email": "contact@traiteur-grandmere.fr", "status": 1, "source_type": 1, "numberReviews": 41}, {"name": "Le lion d'or", "type": "restaurant", "image": "https://dynamic-media-cdn.tripadvisor.com/media/photo-o/29/e3/f7/78/caption.jpg?w=1000&s=1", "address": "6 Grande Rue, 21380 Messigny-et-Vantoux France", "lat": 47.4057, "lng": 5.01748, "ref_id": 4259833, "rating": 4, "num_reviews": 0, "website": "www.liondor-messigny.fr", "contact_phone": "+33 3 80 58 23 94", "contact_email": "serinamager@gmail.com", "status": 1, "source_type": 1, "numberReviews": 56}, {"name": "Le Caf\u00e9 des Ducs", "type": "restaurant", "image": "https://dynamic-media-cdn.tripadvisor.com/media/photo-o/2a/ac/3b/a4/caption.jpg?w=1000&s=1", "address": "96 rue de la Libert\u00e9, 21000, Dijon France", "lat": 47.321507, "lng": 5.040663, "ref_id": 26250955, "rating": 4.5, "num_reviews": 0, "website": "https://www.facebook.com/profile.php?id=100093812254099", "contact_phone": "+33 3 80 74 17 97", "contact_email": null, "status": 1, "source_type": 1, "numberReviews": 27}, {"name": "L' Aqueduc", "type": "restaurant", "image": "https://dynamic-media-cdn.tripadvisor.com/media/photo-o/11/74/d3/5f/le-restaurant.jpg?w=1000&s=1", "address": "9 rue de l Aqueduc Darcy, 21121 Ahuy France", "lat": 47.35715, "lng": 5.035117, "ref_id": 5267260, "rating": 3.5, "num_reviews": 0, "website": "https://www.facebook.com/1431724893731561", "contact_phone": "+33 3 80 55 08 51", "contact_email": "laqueduc@outlook.com", "status": 1, "source_type": 1, "numberReviews": 139}, {"name": "Bouillon Notre Dame", "type": "restaurant", "image": "https://dynamic-media-cdn.tripadvisor.com/media/photo-o/28/79/0a/69/caption.jpg?w=1000&s=1", "address": "1bis Rue Musette, 21000, Dijon France", "lat": 47.322693, "lng": 5.040951, "ref_id": 24087745, "rating": 3.5, "num_reviews": 0, "website": "https://www.facebook.com/p/Bouillon-Notre-Dame-100084993963590/", "contact_phone": null, "contact_email": null, "status": 1, "source_type": 1, "numberReviews": 165}, {"name": "SO Fish", "type": "restaurant", "image": "https://dynamic-media-cdn.tripadvisor.com/media/photo-o/14/4a/7a/a1/poisson-et-legumes.jpg?w=1000&s=1", "address": "1 Port du Canal Peniche Cancale, 21000, Dijon France", "lat": 47.3155, "lng": 5.03034, "ref_id": 8372073, "rating": 4.5, "num_reviews": 0, "website": "http://penichecancale.com/le-midi-so-fish/", "contact_phone": "+33 6 71 42 42 79", "contact_email": null, "status": 1, "source_type": 1, "numberReviews": 31}, {"name": "M\u00e9ridio", "type": "restaurant", "image": "https://dynamic-media-cdn.tripadvisor.com/media/photo-o/2b/2e/6b/b4/caption.jpg?w=1000&s=1", "address": "38 rue Amiral Roussin, 21000, Dijon France", "lat": 47.32346, "lng": 5.043647, "ref_id": 26317543, "rating": 4.5, "num_reviews": 0, "website": "https://instagram.com/meridiodijon?igshid=mzrlodbinwflza==", "contact_phone": "+33 3 80 61 51 98", "contact_email": null, "status": 1, "source_type": 1, "numberReviews": 20}, {"name": "Auberge de l'Aiguillon", "type": "restaurant", "image": "https://dynamic-media-cdn.tripadvisor.com/media/photo-o/07/ec/bb/3b/auberge-de-l-aiguillon.jpg?w=1000&s=1", "address": "Rue De La Croix Des Moulins Route de Tellecey, 21270 Binges, Dijon France", "lat": 47.31065, "lng": 5.278866, "ref_id": 3737687, "rating": 4, "num_reviews": 0, "website": "http://www.aubergedelaiguillon.fr/", "contact_phone": "+33 3 80 31 73 73", "contact_email": null, "status": 1, "source_type": 1, "numberReviews": 154}, {"name": "Les Olives", "type": "restaurant", "image": "https://dynamic-media-cdn.tripadvisor.com/media/photo-o/2b/98/32/7f/caption.jpg?w=1000&s=1", "address": "39 Rue Auguste Comte, 21000, Dijon France", "lat": 47.323982, "lng": 5.044407, "ref_id": 27166185, "rating": 5, "num_reviews": 0, "website": "http://www.les-olives.com/", "contact_phone": "+33 3 45 42 59 50", "contact_email": "contact@les-olives.com", "status": 1, "source_type": 1, "numberReviews": 12}, {"name": "Bistrot de la Republique", "type": "restaurant", "image": "https://dynamic-media-cdn.tripadvisor.com/media/photo-o/14/22/5d/b6/photo0jpg.jpg?w=1000&s=1", "address": "10 Place de la Republique, 21000, Dijon France", "lat": 47.3261, "lng": 5.045236, "ref_id": 5037439, "rating": 3.5, "num_reviews": 0, "website": "http://zelift.com/bistrot-republique", "contact_phone": "+33 1 02 03 04 05", "contact_email": "contact@bistrot-republique.com", "status": 1, "source_type": 1, "numberReviews": 223}, {"name": "Les Fils \u00c0 Maman Dijon", "type": "restaurant", "image": "https://dynamic-media-cdn.tripadvisor.com/media/photo-o/2b/20/6d/02/caption.jpg?w=1000&s=1", "address": "16 B rue Quentin, 21000, Dijon France", "lat": 47.323772, "lng": 5.040394, "ref_id": 25182712, "rating": 3.5, "num_reviews": 0, "website": "https://www.lesfilsamaman.com/restaurants/dijon/", "contact_phone": "+33 3 80 30 58 92", "contact_email": null, "status": 1, "source_type": 1, "numberReviews": 96}, {"name": "Les 3 Bures", "type": "restaurant", "image": "https://dynamic-media-cdn.tripadvisor.com/media/photo-o/19/64/3d/a3/img-20190925-221010-largejpg.jpg?w=1000&s=1", "address": "12 rue Bannelier, 21000, Dijon France", "lat": 47.324234, "lng": 5.039557, "ref_id": 15283518, "rating": 4, "num_reviews": 0, "website": "https://www.facebook.com/LES-3-BURES-2055479544469778/?ref=py_c", "contact_phone": "+33 3 45 43 73 56", "contact_email": "les3bures@gmail.com", "status": 1, "source_type": 1, "numberReviews": 93}, {"name": "La Table De Pierre Bour\u00e9e", "type": "restaurant", "image": "https://dynamic-media-cdn.tripadvisor.com/media/photo-o/2c/67/c0/fc/de-gauche-a-droite-jean.jpg?w=1000&s=1", "address": "40 Beaune Road, 21220 Gevrey-Chambertin France", "lat": 47.22797, "lng": 4.98014, "ref_id": 10304231, "rating": 4.5, "num_reviews": 0, "website": "http://www.pierre-bouree-fils.com/fr/table-degustation-pierre-bouree._1155_.php", "contact_phone": "+33 3 80 34 13 97", "contact_email": "latable@pierre-bouree-fils.com", "status": 1, "source_type": 1, "numberReviews": 19}, {"name": "Au Bois Tordu", "type": "restaurant", "image": "https://dynamic-media-cdn.tripadvisor.com/media/photo-o/10/fa/96/fb/le-coin-bar.jpg?w=1000&s=1", "address": "190 rue d Auxonne, 21000, Dijon France", "lat": 47.30587, "lng": 5.05999, "ref_id": 2010410, "rating": 4, "num_reviews": 0, "website": "https://www.facebook.com/pages/Le-Bois-Tordu/1061487323983566", "contact_phone": "+33 3 80 66 60 77", "contact_email": "", "status": 1, "source_type": 1, "numberReviews": 51}, {"name": "Brasserie Le Mayence - Dijon", "type": "restaurant", "image": "https://dynamic-media-cdn.tripadvisor.com/media/photo-o/1b/72/45/53/20200623-124441-largejpg.jpg?w=1000&s=1", "address": "30 rue des Forges, 21000, Dijon France", "lat": 47.32224, "lng": 5.040783, "ref_id": 1574745, "rating": 4, "num_reviews": 0, "website": "https://www.facebook.com/brasserielemayencedijon", "contact_phone": "+33 9 83 07 75 25", "contact_email": "commandemayence@free.fr", "status": 1, "source_type": 1, "numberReviews": 64}, {"name": "Eden Kebab", "type": "restaurant", "image": "https://dynamic-media-cdn.tripadvisor.com/media/photo-o/0f/e2/34/45/grilled-chicken-salad.jpg?w=1000&s=1", "address": "25 rue de la Manutention, 21000, Dijon France", "lat": 47.316307, "lng": 5.034097, "ref_id": 5606361, "rating": 4.5, "num_reviews": 0, "website": "http://www.sicilia-aziende.com/web-link.html?sobi2Task=sobi2Details&catid=2762&sobi2Id=660", "contact_phone": "+33 3 80 49 91 32", "contact_email": null, "status": 1, "source_type": 1, "numberReviews": 53}, {"name": "L'Acropole", "type": "restaurant", "image": "https://dynamic-media-cdn.tripadvisor.com/media/photo-o/0c/a4/03/38/terrasse-agreable-pour.jpg?w=1000&s=1", "address": "2 boulevard Docteur Petitjean, 21000, Dijon France", "lat": 47.31251, "lng": 5.062525, "ref_id": 8659865, "rating": 3.5, "num_reviews": 0, "website": null, "contact_phone": "+33 3 80 77 03 89", "contact_email": null, "status": 1, "source_type": 1, "numberReviews": 23}, {"name": "Pizza Paolo Toison d'Or", "type": "restaurant", "image": "https://dynamic-media-cdn.tripadvisor.com/media/photo-o/05/db/c4/b7/pizza-paolo-toison-d.jpg?w=1000&s=1", "address": "Place du Piano Etage 1, 21000, Dijon France", "lat": 47.356136, "lng": 5.051528, "ref_id": 1328109, "rating": 3, "num_reviews": 0, "website": "http://www.pizzapaolodijon.fr", "contact_phone": "+33 3 80 70 10 17", "contact_email": "pizzapaolobureau@gmail.com", "status": 1, "source_type": 1, "numberReviews": 356}, {"name": "Le Klub", "type": "restaurant", "image": "https://dynamic-media-cdn.tripadvisor.com/media/photo-o/1c/5e/f2/1b/restaurant-le-klub.jpg?w=1000&s=1", "address": "15 A avenue Albert 1er ibis Dijon Gare, 21000, Dijon France", "lat": 47.32242, "lng": 5.02359, "ref_id": 12599975, "rating": 3.5, "num_reviews": 0, "website": "http://www.hotel-ibisgare-dijon.fr/le-restaurant", "contact_phone": "+33 3 80 43 01 12", "contact_email": "h1380@accor.com", "status": 1, "source_type": 1, "numberReviews": 22}, {"name": "Un Singe En Hiver", "type": "restaurant", "image": "https://dynamic-media-cdn.tripadvisor.com/media/photo-o/1b/a2/d0/aa/salle-de-bar.jpg?w=1000&s=1", "address": "3 rue Francois Robert, 21000, Dijon France", "lat": 47.31868, "lng": 5.031209, "ref_id": 21130483, "rating": 4.5, "num_reviews": 0, "website": "https://www.facebook.com/unsingeenhiver21", "contact_phone": "+33 3 45 62 89 16", "contact_email": "brasserie@unsingeenhiver.com", "status": 1, "source_type": 1, "numberReviews": 9}, {"name": "Chez Mon Vieil Ami Chinois", "type": "restaurant", "image": "https://dynamic-media-cdn.tripadvisor.com/media/photo-o/1a/04/81/f6/cuisine-authentique-chinoise.jpg?w=1000&s=1", "address": "3 avenue Marechal Foch, 21000, Dijon France", "lat": 47.32344, "lng": 5.03071, "ref_id": 12007983, "rating": 4, "num_reviews": 0, "website": "https://restaurant-gastronomique-asiatique-dijon.com/", "contact_phone": "+33 3 80 38 30 66", "contact_email": "monvieilami.dijon@gmail.com", "status": 1, "source_type": 1, "numberReviews": 29}, {"name": "Ibis Dijon Restaurant & Bar", "type": "restaurant", "image": "https://dynamic-media-cdn.tripadvisor.com/media/photo-o/18/2c/b5/dc/ibis-dijon-restaurant.jpg?w=1000&s=1", "address": "Rue Bolotte, 21160 Perrigny-les-Dijon, Dijon France", "lat": 47.272133, "lng": 5.003458, "ref_id": 10675623, "rating": 4, "num_reviews": 0, "website": "http://www.accorhotels.com/en/hotel-0698-ibis-dijon-sud/restaurant.shtml", "contact_phone": "+33 3 80 52 86 45", "contact_email": null, "status": 1, "source_type": 1, "numberReviews": 14}, {"name": "Restaurant L'instant", "type": "restaurant", "image": "https://dynamic-media-cdn.tripadvisor.com/media/photo-o/1b/b9/c0/96/entrecote-beurre-maitre.jpg?w=1000&s=1", "address": "7 rue de Cracovie, 21000, Dijon France", "lat": 47.33977, "lng": 5.06771, "ref_id": 21203225, "rating": 3.5, "num_reviews": 0, "website": null, "contact_phone": "+33 3 80 78 95 66", "contact_email": null, "status": 1, "source_type": 1, "numberReviews": 10}, {"name": "Columbus Cafe & Co", "type": "restaurant", "image": "https://dynamic-media-cdn.tripadvisor.com/media/photo-o/1b/2d/9e/89/photo-de-profil.jpg?w=1000&s=1", "address": "Parc Commercial De La Toison D'Or, 21000, Dijon France", "lat": 47.355995, "lng": 5.051513, "ref_id": 6884397, "rating": 3.5, "num_reviews": 0, "website": "http://www.columbuscafe.com/boutique/dijon-parc-commercial-de-la-toison-dor/", "contact_phone": "+33 9 83 61 21 16", "contact_email": "columbustoison@gmail.com", "status": 1, "source_type": 1, "numberReviews": 30}, {"name": "Pizza Ro-Ma", "type": "restaurant", "image": "https://dynamic-media-cdn.tripadvisor.com/media/photo-o/1b/5f/7b/48/photo0jpg.jpg?w=1000&s=1", "address": "74 rue Chevreul, 21000, Dijon France", "lat": 47.30628, "lng": 5.04553, "ref_id": 12947488, "rating": 4.5, "num_reviews": 0, "website": "http://www.casapizzaro-ma.fr/", "contact_phone": "+33 3 80 31 55 11", "contact_email": null, "status": 1, "source_type": 1, "numberReviews": 8}, {"name": "Kebab des Facultes", "type": "restaurant", "image": "https://dynamic-media-cdn.tripadvisor.com/media/photo-o/14/f4/85/d4/assiette-kebab-gouteuse.jpg?w=1000&s=1", "address": "19 rue Louis Boulanger, 21000, Dijon France", "lat": 47.3156, "lng": 5.06378, "ref_id": 12874628, "rating": 4, "num_reviews": 0, "website": "https://www.facebook.com/Kebab-Des-Facult%C3%A9s-614528715273356/", "contact_phone": "+33 9 71 20 04 71", "contact_email": null, "status": 1, "source_type": 1, "numberReviews": 22}, {"name": "L'\u00d4tre Dizy", "type": "restaurant", "image": "https://dynamic-media-cdn.tripadvisor.com/media/photo-o/05/48/71/e6/getlstd-property-photo.jpg?w=1000&s=1", "address": "17 rue de Chenove, 21000, Dijon France", "lat": 47.309486, "lng": 5.024933, "ref_id": 6355767, "rating": 4.5, "num_reviews": 0, "website": null, "contact_phone": "+33 7 61 67 37 61", "contact_email": null, "status": 1, "source_type": 1, "numberReviews": 12}, {"name": "Au Jardin des Halles", "type": "restaurant", "image": "https://dynamic-media-cdn.tripadvisor.com/media/photo-o/13/89/49/72/vue-des-halles-de-dijon.jpg?w=1000&s=1", "address": "20 rue Quentin Place des Halles, 21000, Dijon France", "lat": 47.324226, "lng": 5.040442, "ref_id": 14509434, "rating": 3, "num_reviews": 0, "website": "http://www.facebook.com/aujardindeshalles", "contact_phone": "+33 3 80 30 68 69", "contact_email": "aujardindeshalles@laposte.net", "status": 1, "source_type": 1, "numberReviews": 289}, {"name": "Pizza Chicago", "type": "restaurant", "image": null, "address": "2 avenue de l Europe, 21600 Longvic, Dijon France", "lat": 47.29675, "lng": 5.05584, "ref_id": 10110464, "rating": 4, "num_reviews": 0, "website": "http://www.pizzachicago.fr", "contact_phone": "+33 3 80 37 43 07", "contact_email": "jassim@neuf.fr", "status": 1, "source_type": 1, "numberReviews": 14}, {"name": "Les Combottes By Benoit Bruley", "type": "restaurant", "image": "https://dynamic-media-cdn.tripadvisor.com/media/photo-o/28/6e/a5/ab/bien-sympathique-ce-digestif.jpg?w=1000&s=1", "address": "16 route de Dijon, Epagny France", "lat": 47.44608, "lng": 5.056435, "ref_id": 25368853, "rating": 5, "num_reviews": 0, "website": "www.lescombottes.com", "contact_phone": "+33 3 80 41 30 21", "contact_email": "benoit.bruley-traiteur@orange.fr", "status": 1, "source_type": 1, "numberReviews": 3}, {"name": "Saison Restaurant", "type": "restaurant", "image": "https://dynamic-media-cdn.tripadvisor.com/media/photo-o/2c/8f/cf/9f/plats-du-restaurant-saison.jpg?w=1000&s=1", "address": "17 Rue Lamonnoye, 21000, Dijon France", "lat": 47.322857, "lng": 5.043851, "ref_id": 27845740, "rating": 5, "num_reviews": 0, "website": "www.saison-restaurant.fr", "contact_phone": "+33 3 65 67 15 81", "contact_email": "contact@saison-restaurant.fr", "status": 1, "source_type": 1, "numberReviews": 4}, {"name": "Chez Bruno", "type": "restaurant", "image": "https://dynamic-media-cdn.tripadvisor.com/media/photo-o/0d/b8/dd/89/caption.jpg?w=1000&s=1", "address": "80 rue Jean Jacques Rousseau, 21000, Dijon France", "lat": 47.323017, "lng": 5.044263, "ref_id": 6372581, "rating": 3.5, "num_reviews": 0, "website": "http://zelift.com/bruno", "contact_phone": "+33 3 80 66 12 33", "contact_email": null, "status": 1, "source_type": 1, "numberReviews": 68}, {"name": "Le Cosy", "type": "restaurant", "image": "https://dynamic-media-cdn.tripadvisor.com/media/photo-o/2b/e7/39/0a/caption.jpg?w=1000&s=1", "address": "3 Rue de Beauregard, 21600 Longvic, Dijon France", "lat": null, "lng": null, "ref_id": 26829526, "rating": 4.5, "num_reviews": 0, "website": null, "contact_phone": "+33 3 80 23 04 04", "contact_email": "contact@hidijon.fr", "status": 1, "source_type": 1, "numberReviews": 4}, {"name": "La Brasserie", "type": "restaurant", "image": "https://dynamic-media-cdn.tripadvisor.com/media/photo-o/26/55/ba/67/restaurant-vue-de-la.jpg?w=1000&s=1", "address": "19 avenue Champollion, 21000, Dijon France", "lat": 47.3322, "lng": 5.06953, "ref_id": 10833792, "rating": 4.5, "num_reviews": 0, "website": "https://www.facebook.com/LaBraSSerie21/about/?section=hours&tab=page_info", "contact_phone": "+33 9 83 46 39 24", "contact_email": "kdd21@outlook.fr", "status": 1, "source_type": 1, "numberReviews": 6}, {"name": "Le Vice", "type": "restaurant", "image": "https://dynamic-media-cdn.tripadvisor.com/media/photo-o/28/ed/64/84/une-fresque-fait-main.jpg?w=1000&s=1", "address": "60 rue Chabot Charny, 21000, Dijon France", "lat": 47.318203, "lng": 5.043251, "ref_id": 25416756, "rating": 4.5, "num_reviews": 0, "website": null, "contact_phone": "+33 6 52 82 51 65", "contact_email": "levicedijon@gmail.com", "status": 1, "source_type": 1, "numberReviews": 3}, {"name": "Le Club", "type": "restaurant", "image": "https://dynamic-media-cdn.tripadvisor.com/media/photo-o/2b/c0/49/50/caption.jpg?w=1000&s=1", "address": "12 Place Fran\u00e7ois Rude, 21000, Dijon France", "lat": 47.32346, "lng": 5.043647, "ref_id": 25997344, "rating": 4.5, "num_reviews": 0, "website": "https://instagram.com/leclub.bar?igshid=ngexmmi2ytkyzg==", "contact_phone": "+33 3 80 20 28 22", "contact_email": null, "status": 1, "source_type": 1, "numberReviews": 3}, {"name": "Les Mets Fleuris", "type": "restaurant", "image": "https://dynamic-media-cdn.tripadvisor.com/media/photo-o/11/16/e8/10/photo1jpg.jpg?w=1000&s=1", "address": "9 cours Martyrs de la Resistance, 21110 Genlis France", "lat": 47.24213, "lng": 5.21965, "ref_id": 7267821, "rating": 3.5, "num_reviews": 0, "website": "http://www.restaurant-lesmetsfleuris.com", "contact_phone": "+33 3 80 65 08 93", "contact_email": null, "status": 1, "source_type": 1, "numberReviews": 49}, {"name": "C\u00e9 la mia Cucina", "type": "restaurant", "image": "https://dynamic-media-cdn.tripadvisor.com/media/photo-o/2a/57/7b/2b/concept-store-dedie-a.jpg?w=1000&s=1", "address": "5 rue Ernest Chaput, 21000, Dijon France", "lat": 47.34454, "lng": 5.06445, "ref_id": 26551477, "rating": 4.5, "num_reviews": 0, "website": "www.celamiacucina.fr", "contact_phone": "+33 3 79 61 11 50", "contact_email": "c\u00e9macuisine@gmail.com", "status": 1, "source_type": 1, "numberReviews": 5}, {"name": "Le P'tit Zinc", "type": "restaurant", "image": "https://dynamic-media-cdn.tripadvisor.com/media/photo-o/2a/33/08/2c/le-p-tit-zinc.jpg?w=1000&s=1", "address": "9 Rue Musette, 21000, Dijon France", "lat": 47.322777, "lng": 5.04007, "ref_id": 26575599, "rating": 4.5, "num_reviews": 0, "website": null, "contact_phone": "+33 3 80 49 67 38", "contact_email": null, "status": 1, "source_type": 1, "numberReviews": 3}, {"name": "La Veranda", "type": "restaurant", "image": "https://dynamic-media-cdn.tripadvisor.com/media/photo-o/08/6b/09/a7/la-veranda.jpg?w=1000&s=1", "address": "120 avenue Roland Carraz, 21300 Chenove France", "lat": 47.288013, "lng": 5.012568, "ref_id": 4138051, "rating": 3.5, "num_reviews": 0, "website": "http://www.restaurantlaveranda.fr/", "contact_phone": "+33 3 80 54 04 04", "contact_email": "contact@hotel-escargotiere.fr", "status": 1, "source_type": 1, "numberReviews": 85}, {"name": "Courtepaille Dijon St Apollinaire", "type": "restaurant", "image": "https://dynamic-media-cdn.tripadvisor.com/media/photo-o/0e/82/f1/79/le-bleu-de-chauffe-et.jpg?w=1000&s=1", "address": "2 Rue de la Glaciere, 21850, Dijon France", "lat": 47.326527, "lng": 5.075189, "ref_id": 6890169, "rating": 3.5, "num_reviews": 0, "website": "http://restaurants-grill.courtepaille.com/restaurants-grillades/dijon-saint-apollinaire/304", "contact_phone": "+33 3 80 30 34 72", "contact_email": null, "status": 1, "source_type": 1, "numberReviews": 217}, {"name": "Sushi d'or", "type": "restaurant", "image": "https://dynamic-media-cdn.tripadvisor.com/media/photo-o/17/52/0b/92/brochettes-du-bateau.jpg?w=1000&s=1", "address": "2 rue Neuve Dauphine, 21000, Dijon France", "lat": 47.32099, "lng": 5.0398, "ref_id": 5798479, "rating": 4, "num_reviews": 0, "website": "http://www.sushidor-dijon.com", "contact_phone": "+33 3 80 23 84 50", "contact_email": null, "status": 1, "source_type": 1, "numberReviews": 38}, {"name": "Le Mirande", "type": "restaurant", "image": "https://dynamic-media-cdn.tripadvisor.com/media/photo-o/1a/d3/bb/f1/le-blanc-que-vous-voyez.jpg?w=1000&s=1", "address": "77 rue de Mirande, 21000, Dijon France", "lat": 47.31721, "lng": 5.06307, "ref_id": 2477039, "rating": 3.5, "num_reviews": 0, "website": "http://fr-fr.facebook.com/pages/Le-Mirande/133263730060374", "contact_phone": "+33 3 80 65 44 73", "contact_email": "", "status": 1, "source_type": 1, "numberReviews": 36}, {"name": "La Fabrique Gourmande", "type": "restaurant", "image": "https://dynamic-media-cdn.tripadvisor.com/media/photo-o/1b/ea/5b/6b/le-logo.jpg?w=1000&s=1", "address": "6 rue des Tilleuls, 21910 Noiron-sous-Gevrey France", "lat": 47.19523, "lng": 5.08412, "ref_id": 17699892, "rating": 4, "num_reviews": 0, "website": "https://www.facebook.com/LaFabriqueGourmande21/", "contact_phone": "+33 3 80 28 01 01", "contact_email": "lafabriquegourmande21@gmail.com", "status": 1, "source_type": 1, "numberReviews": 10}, {"name": "La Montagne", "type": "restaurant", "image": "https://dynamic-media-cdn.tripadvisor.com/media/photo-o/14/fb/55/86/decor-interieur-magnifique.jpg?w=1000&s=1", "address": "28 route de Troyes, 21121 Darois France", "lat": 47.38958, "lng": 4.93703, "ref_id": 2476018, "rating": 3.5, "num_reviews": 0, "website": "https://www.facebook.com/lamontagne.darois/", "contact_phone": "+33 3 80 35 64 24", "contact_email": "patrickberthelot1313@gmail.com", "status": 1, "source_type": 1, "numberReviews": 29}, {"name": "Fournil Saint Nicolas", "type": "restaurant", "image": "https://dynamic-media-cdn.tripadvisor.com/media/photo-o/0d/de/57/bf/muffins-maison.jpg?w=1000&s=1", "address": "7 rue des Godrans, 21000, Dijon France", "lat": 47.32495, "lng": 5.03907, "ref_id": 10319540, "rating": 4, "num_reviews": 0, "website": "http://dyn.lefournilstnicolas.fr/prestashop/", "contact_phone": "+33 3 45 42 87 46", "contact_email": null, "status": 1, "source_type": 1, "numberReviews": 11}, {"name": "Cafe Chez Nous", "type": "restaurant", "image": "https://dynamic-media-cdn.tripadvisor.com/media/photo-o/0d/95/ea/18/photo2jpg.jpg?w=1000&s=1", "address": "8 rue Quentin, 21000, Dijon France", "lat": 47.32325, "lng": 5.04024, "ref_id": 8046727, "rating": 4, "num_reviews": 0, "website": "http://www.facebook.com/profile.php?id=61550360212213", "contact_phone": "+33 9 54 71 29 53", "contact_email": null, "status": 1, "source_type": 1, "numberReviews": 20}, {"name": "Hot Dogger", "type": "restaurant", "image": "https://dynamic-media-cdn.tripadvisor.com/media/photo-o/1b/e3/5d/77/hot-dogger.jpg?w=1000&s=1", "address": "4 Place Roger Salengro, 21000, Dijon France", "lat": 47.30786, "lng": 5.0563, "ref_id": 17391144, "rating": 4.5, "num_reviews": 0, "website": null, "contact_phone": "+33 7 66 25 28 40", "contact_email": "hotdogger.dijon@gmail.com", "status": 1, "source_type": 1, "numberReviews": 9}, {"name": "Al Tarboush", "type": "restaurant", "image": "https://dynamic-media-cdn.tripadvisor.com/media/photo-o/26/2a/e5/9e/al-tarboush.jpg?w=1000&s=1", "address": "68 rue Berbisey, 21000, Dijon France", "lat": 47.31845, "lng": 5.03649, "ref_id": 23563669, "rating": 5, "num_reviews": 0, "website": "https://www.facebook.com/altarboush2", "contact_phone": "+33 6 45 20 40 16", "contact_email": null, "status": 1, "source_type": 1, "numberReviews": 5}, {"name": "Au Xvi", "type": "restaurant", "image": "https://dynamic-media-cdn.tripadvisor.com/media/photo-o/2c/90/c3/2a/caption.jpg?w=1000&s=1", "address": "61 Route De Beaune, 21220 Gevrey-Chambertin France", "lat": 47.226097, "lng": 4.978868, "ref_id": 27718004, "rating": 5, "num_reviews": 0, "website": null, "contact_phone": null, "contact_email": "restaurant.au.xvi@gmail.com", "status": 1, "source_type": 1, "numberReviews": 5}, {"name": "La table des ducs", "type": "restaurant", "image": "https://dynamic-media-cdn.tripadvisor.com/media/photo-o/13/e7/67/8d/la-table-des-ducs.jpg?w=1000&s=1", "address": "Rue Caporal Broissant, 21000, Dijon France", "lat": 47.311806, "lng": 5.02885, "ref_id": 8114234, "rating": 4, "num_reviews": 0, "website": "http://m.facebook.com/latabledesducs/", "contact_phone": "+33 7 49 74 77 35", "contact_email": "bapt.bordier@free.fr", "status": 1, "source_type": 1, "numberReviews": 20}, {"name": "Go\u00fb'd Time", "type": "restaurant", "image": "https://dynamic-media-cdn.tripadvisor.com/media/photo-o/27/81/d2/26/restaurant-le-gou-d-time.jpg?w=1000&s=1", "address": "18 Bd De Verdun -  DIJON, 21000, Dijon France", "lat": 47.328197, "lng": 5.05351, "ref_id": 25077546, "rating": 5, "num_reviews": 0, "website": "https://www.facebook.com/profile.php?id=100086752123177", "contact_phone": "+33 3 79 36 20 68", "contact_email": "goudtime21@gmail.com", "status": 1, "source_type": 1, "numberReviews": 5}, {"name": "Maison Fremont", "type": "restaurant", "image": "https://dynamic-media-cdn.tripadvisor.com/media/photo-o/1a/d6/9e/f3/chocolate-croissant.jpg?w=1000&s=1", "address": "23 rue Verrerie, 21000, Dijon France", "lat": 47.32306, "lng": 5.04297, "ref_id": 15780792, "rating": 4.5, "num_reviews": 0, "website": "https://www.facebook.com/Boulangerie-p%C3%A2tisserie-Maison-Fremont--1247784135258669/", "contact_phone": "+33 3 80 50 19 80", "contact_email": null, "status": 1, "source_type": 1, "numberReviews": 7}, {"name": "La Bonne Tambouille", "type": "restaurant", "image": "https://dynamic-media-cdn.tripadvisor.com/media/photo-o/1a/9d/ca/e2/la-bonne-tambouille.jpg?w=1000&s=1", "address": "5 Rue Nationale, 21110 Longeault, Dijon France", "lat": 47.223267, "lng": 5.245009, "ref_id": 16727440, "rating": 4, "num_reviews": 0, "website": "http://www.restaurant-labonnetambouille.com", "contact_phone": "+33 3 45 18 30 85", "contact_email": "n.evangelista929@laposte.net", "status": 1, "source_type": 1, "numberReviews": 19}, {"name": "Le kent", "type": "restaurant", "image": "https://dynamic-media-cdn.tripadvisor.com/media/photo-o/1b/9e/f9/18/ta-img-20200725-125442.jpg?w=1000&s=1", "address": "2 rue Odebert, 21000, Dijon France", "lat": 47.324184, "lng": 5.039434, "ref_id": 21090446, "rating": 4.5, "num_reviews": 0, "website": "www.facebook.com/Le-Kent-Dijon-109758777221902/?ref=page_internal", "contact_phone": "+33 3 80 49 99 40", "contact_email": null, "status": 1, "source_type": 1, "numberReviews": 8}, {"name": "Restaurant A.b.e Aux Bouts De L'europe", "type": "restaurant", "image": "https://dynamic-media-cdn.tripadvisor.com/media/photo-o/1f/98/5c/be/les-amis.jpg?w=1000&s=1", "address": "38 avenue Jean Jaures, 21000, Dijon France", "lat": 47.310154, "lng": 5.025965, "ref_id": 23657613, "rating": 5, "num_reviews": 0, "website": "", "contact_phone": "+33 9 53 53 45 79", "contact_email": "restaurant.abe@gmail.com", "status": 1, "source_type": 1, "numberReviews": 5},