[{"name": "Mugg & Bean On The Move", "type": "restaurant", "image": null, "address": "646 Cape Road Hunters Retreat Shopping Centre, Gqeberha 6000 South Africa", "lat": -33.93819, "lng": 25.483908, "ref_id": 28120945, "rating": -1, "num_reviews": 0, "website": "http://location.muggandbean.co.za/hunters-retreat-spar-otm-gqeberha?y_source=1_MTA2Mzk1ODg4MC03NjktbG9jYXRpb24ud2Vic2l0ZQ%3D%3D", "contact_phone": "041 008 5136", "contact_email": "hunters@muggandbeanpe.co.za", "status": 1, "source_type": 1, "numberReviews": 0}, {"name": "Debonairs Pizza", "type": "restaurant", "image": null, "address": "80 LCM Ludidi Street Shop 11, Kwa Bhaca Express, Mount Frere 5090 South Africa", "lat": -30.90936, "lng": 28.991995, "ref_id": 28120946, "rating": -1, "num_reviews": 0, "website": "http://location.debonairspizza.co.za/kwa-bhaca-express?y_source=1_MTAyMDkxOTc3MC03NjktbG9jYXRpb24ud2Vic2l0ZQ%3D%3D", "contact_phone": "039 255 0183", "contact_email": "info@debonairspizza.co.za", "status": 1, "source_type": 1, "numberReviews": 0}, {"name": "Fishaways", "type": "restaurant", "image": null, "address": "The Bridge @ Greenacres, Shop B34/b35/b36 Corner Langenhoven Drive & Cape Road, Port Elizabeth 6220 South Africa", "lat": -33.94927, "lng": 25.573734, "ref_id": 17787438, "rating": -1, "num_reviews": 0, "website": "https://location.fishaways.co.za/the-bridge-pe?y_source=1_MTI0NDA3MzgtNzY5LWxvY2F0aW9uLndlYnNpdGU%3D", "contact_phone": "+27 41 363 8946", "contact_email": "info@fishaways.co.za", "status": 1, "source_type": 1, "numberReviews": 0}, {"name": "KFC Mount Ayliff", "type": "restaurant", "image": "https://dynamic-media-cdn.tripadvisor.com/media/photo-o/26/b2/7d/1e/kfc-logo.jpg?w=1000&s=1", "address": "Nolangeni St Shop 8, Mount Ayliff Shopping Centre, Mount Ayliff 4735 South Africa", "lat": -30.799517, "lng": 29.366287, "ref_id": 24168895, "rating": -1, "num_reviews": 0, "website": "http://www.kfc.co.za", "contact_phone": "+27 860 100 222", "contact_email": null, "status": 1, "source_type": 1, "numberReviews": 0}, {"name": "Zebro's Daku", "type": "restaurant", "image": "https://dynamic-media-cdn.tripadvisor.com/media/photo-o/22/69/1c/a4/zebro-s-chicken.jpg?w=1000&s=1", "address": "62903 Dibanisa Rd Kwazakele 2, Ibhayi 6205 South Africa", "lat": -33.87487, "lng": 25.583014, "ref_id": 23782583, "rating": -1, "num_reviews": 0, "website": "http://www.zebros.co.za/?utm_source=Tripadvisor&utm_medium=website_link&utm_campaign=SP&utm_content=SP", "contact_phone": "+27 41 517 3999", "contact_email": "marketing@tfcop.co.za", "status": 1, "source_type": 1, "numberReviews": 0}, {"name": "Hungry Lion Mount Fletcher Square", "type": "restaurant", "image": "https://dynamic-media-cdn.tripadvisor.com/media/photo-o/2b/25/9f/eb/hungry-lion.jpg?w=1000&s=1", "address": "R56 Shop 9 & 10, Mount Fletcher Square, Mount Fletcher 4770 South Africa", "lat": -30.690405, "lng": 28.503994, "ref_id": 26839009, "rating": -1, "num_reviews": 0, "website": "http://www.hungrylion.co.za/?utm_source=tripadvisor&utm_medium=website_link&utm_campaign=sp&utm_content=sp", "contact_phone": "+27 21 493 2600", "contact_email": "talktous@hungrylion.co.za", "status": 1, "source_type": 1, "numberReviews": 0}, {"name": "KFC Zwide", "type": "restaurant", "image": "https://dynamic-media-cdn.tripadvisor.com/media/photo-o/26/cd/23/99/kfc-logo.jpg?w=1000&s=1", "address": "Cnr Spondo & Qeqe St Zwide 4, Ibhayi 6205 South Africa", "lat": -33.86955, "lng": 25.565945, "ref_id": 24182740, "rating": -1, "num_reviews": 0, "website": "http://www.kfc.co.za", "contact_phone": "+27 41 541 0002", "contact_email": null, "status": 1, "source_type": 1, "numberReviews": 0}, {"name": "Steers", "type": "restaurant", "image": null, "address": "Engen Mt Ayliff 1 Nolangeni Street, Mount Ayliff 4735 South Africa", "lat": -30.798254, "lng": 29.366404, "ref_id": 17788244, "rating": -1, "num_reviews": 0, "website": "https://location.steers.co.za/engen-mount-ayliff?y_source=1_MTI0MzA4MDYtNzY5LWxvY2F0aW9uLndlYnNpdGU%3D", "contact_phone": "+27 39 254 0162", "contact_email": "info@steers.co.za", "status": 1, "source_type": 1, "numberReviews": 0}, {"name": "Hungry Lion", "type": "restaurant", "image": null, "address": "229 Main Street Shop 9 & 10, Mount Fletcher Square, Mount Fletcher 4770 South Africa", "lat": -32.143948, "lng": 27.243938, "ref_id": 25455162, "rating": -1, "num_reviews": 0, "website": null, "contact_phone": "+27 21 493 2600", "contact_email": null, "status": 1, "source_type": 1, "numberReviews": 0}, {"name": "Yummy Fish & Chips Daku", "type": "restaurant", "image": "https://dynamic-media-cdn.tripadvisor.com/media/photo-o/22/8d/e5/d2/yummy-fish-chips.jpg?w=1000&s=1", "address": "62903 Dibanisa Rd Kwazakele 2, Ibhayi 6205 South Africa", "lat": -33.87487, "lng": 25.583006, "ref_id": 23782601, "rating": -1, "num_reviews": 0, "website": "http://www.yummyfish.co.za/?utm_source=Tripadvisor&utm_medium=website_link&utm_campaign=SP&utm_content=SP", "contact_phone": "+27 41 517 3999", "contact_email": "marketing@tfcop.co.za", "status": 1, "source_type": 1, "numberReviews": 0}, {"name": "KFC Cala", "type": "restaurant", "image": "https://dynamic-media-cdn.tripadvisor.com/media/photo-o/26/c0/d5/9e/kfc-logo.jpg?w=1000&s=1", "address": "Titsa Rd, Cala 5455 South Africa", "lat": -31.525438, "lng": 27.69534, "ref_id": 24168668, "rating": -1, "num_reviews": 0, "website": "http://www.kfc.co.za", "contact_phone": "+27 860 100 222", "contact_email": null, "status": 1, "source_type": 1, "numberReviews": 0}, {"name": "KFC Kwazekhele", "type": "restaurant", "image": "https://dynamic-media-cdn.tripadvisor.com/media/photo-o/26/b5/13/95/kfc-logo.jpg?w=1000&s=1", "address": "Njoli St KwaZakhele 3, Ibhayi 6205 South Africa", "lat": -33.877777, "lng": 25.57695, "ref_id": 24168830, "rating": -1, "num_reviews": 0, "website": "http://www.kfc.co.za", "contact_phone": "+27 41 464 6465", "contact_email": "kwazakhele@kfcec.co.za", "status": 1, "source_type": 1, "numberReviews": 0}, {"name": "Debonairs Pizza", "type": "restaurant", "image": null, "address": "Mount Ayliff Shopping Centre, Shop 11 193 Khiliyoni Dandala Street, Mount Ayliff 4735 South Africa", "lat": -30.799484, "lng": 29.366041, "ref_id": 17787223, "rating": -1, "num_reviews": 0, "website": "https://location.debonairspizza.co.za/mount-ayliff?y_source=1_MTI0NTEwODgtNzY5LWxvY2F0aW9uLndlYnNpdGU%3D", "contact_phone": "+27 64 729 4296", "contact_email": "info@debonairspizza.co.za", "status": 1, "source_type": 1, "numberReviews": 0}, {"name": "Debonairs Pizza", "type": "restaurant", "image": null, "address": "Cleary Park Shopping Centre, Shop NG18, Cnr Stanford & Norman Middleton Roads, Bethelsdorp 6059 South Africa", "lat": -33.895058, "lng": 25.529364, "ref_id": 17787161, "rating": -1, "num_reviews": 0, "website": "https://location.debonairspizza.co.za/cleary-park?y_source=1_MTI0NTA5ODEtNzY5LWxvY2F0aW9uLndlYnNpdGU%3D", "contact_phone": "+27 41 481 0794", "contact_email": "info@debonairspizza.co.za", "status": 1, "source_type": 1, "numberReviews": 0}, {"name": "KFC Elliotdale", "type": "restaurant", "image": "https://dynamic-media-cdn.tripadvisor.com/media/photo-o/26/cc/92/ce/kfc-logo.jpg?w=1000&s=1", "address": "Boxer Centre Shop 1, Elliotdale 5070 South Africa", "lat": -31.970066, "lng": 28.684206, "ref_id": 24177718, "rating": -1, "num_reviews": 0, "website": "http://www.kfc.co.za", "contact_phone": "+27 86 333 1000", "contact_email": null, "status": 1, "source_type": 1, "numberReviews": 0}, {"name": "KFC Willowvale", "type": "restaurant", "image": "https://dynamic-media-cdn.tripadvisor.com/media/photo-o/26/d2/f6/9a/kfc-chicken-combo.jpg?w=1000&s=1", "address": "R408 Boxer Centre, Willowvale 5040 South Africa", "lat": -32.265305, "lng": 28.51043, "ref_id": 24169103, "rating": -1, "num_reviews": 0, "website": "http://www.kfc.co.za", "contact_phone": "+27 81 357 7312", "contact_email": null, "status": 1, "source_type": 1, "numberReviews": 0}, {"name": "KFC Tsolo", "type": "restaurant", "image": "https://dynamic-media-cdn.tripadvisor.com/media/photo-o/26/b5/2a/cd/kfc-logo.jpg?w=1000&s=1", "address": "109 Thurston Rd, Tsolo 5170 South Africa", "lat": -31.309351, "lng": 28.75569, "ref_id": 24182720, "rating": -1, "num_reviews": 0, "website": "http://www.kfc.co.za", "contact_phone": "+27 47 542 0076", "contact_email": "kfctsolo@hit.co.za", "status": 1, "source_type": 1, "numberReviews": 0}, {"name": "Debonairs Pizza", "type": "restaurant", "image": null, "address": "109 Thurston Street, Tsolo 5170 South Africa", "lat": -31.309114, "lng": 28.752586, "ref_id": 25631857, "rating": -1, "num_reviews": 0, "website": "https://location.debonairspizza.co.za/tsolo?y_source=1_NjE2MTU5ODMtNzY5LWxvY2F0aW9uLndlYnNpdGU%3D", "contact_phone": "+27 47-050-1041", "contact_email": "info@debonairspizza.co.za", "status": 1, "source_type": 1, "numberReviews": 0}, {"name": "Fego Caffe", "type": "restaurant", "image": null, "address": "Corner of N2 and Kurland Road, Nyawara 6602 South Africa", "lat": -31.955484, "lng": 28.35128, "ref_id": 21380683, "rating": -1, "num_reviews": 0, "website": "https://fegocaffe.co.za", "contact_phone": "+27 44 534 8824", "contact_email": "fegocaffethecrags@gmail.com", "status": 1, "source_type": 1, "numberReviews": 0}, {"name": "KFC Engcobo", "type": "restaurant", "image": "https://dynamic-media-cdn.tripadvisor.com/media/photo-o/26/cc/c1/ba/kfc-logo.jpg?w=1000&s=1", "address": "159 Main Rd, Engcobo 5050 South Africa", "lat": -31.677021, "lng": 27.999832, "ref_id": 24177722, "rating": -1, "num_reviews": 0, "website": "http://www.kfc.co.za", "contact_phone": "+27 47 548 1153", "contact_email": "kfcengcobo@hit.co.za", "status": 1, "source_type": 1, "numberReviews": 0}, {"name": "Ukutya", "type": "restaurant", "image": "https://dynamic-media-cdn.tripadvisor.com/media/photo-o/1b/17/eb/af/a-seven-colour-lunch.jpg?w=1000&s=1", "address": "190 Masangwana Street, Newbrighton, Port Elizabeth 6200 South Africa", "lat": -33.90518, "lng": 25.58747, "ref_id": 19451294, "rating": -1, "num_reviews": 0, "website": "http://www.facebook.com/ukutya.ukutya/", "contact_phone": "+27 68 035 4983", "contact_email": "ukutyafusion@gmail.com", "status": 1, "source_type": 1, "numberReviews": 0}, {"name": "Wimpy", "type": "restaurant", "image": null, "address": "Walmer Park Shopping Centre, Shop 48 Main Road, Port Elizabeth 6070 South Africa", "lat": -33.980488, "lng": 25.558083, "ref_id": 19102632, "rating": 3, "num_reviews": 0, "website": "https://location.wimpy.co.za/walmer-park?y_source=1_MTIzNjA3NjQtNzY5LWxvY2F0aW9uLndlYnNpdGU%3D", "contact_phone": "+27 41 368 5051", "contact_email": "info@wimpy.co.za", "status": 1, "source_type": 1, "numberReviews": 7}, {"name": "Domino's", "type": "restaurant", "image": null, "address": "Shop 12, Northway Mall, Woodlands, Tsitsikamma National Park 3201 South Africa", "lat": -29.581244, "lng": 30.39935, "ref_id": 10049253, "rating": 4.5, "num_reviews": 0, "website": "https://dominospizza.co.za/", "contact_phone": "+27 33 397 1939", "contact_email": "raisethorpe@dominospizza.co.za", "status": 1, "source_type": 1, "numberReviews": 2}, {"name": "Mugg & Bean", "type": "restaurant", "image": null, "address": "Totalenergies Devereux Avenue 8 Devereux Avenue, East London 5201 South Africa", "lat": -32.983875, "lng": 27.900587, "ref_id": 19096892, "rating": 4, "num_reviews": 0, "website": "https://location.muggandbean.co.za/totalenergies-devereux-avenue-otm?y_source=1_MTI0NDAzOTAtNzY5LWxvY2F0aW9uLndlYnNpdGU%3D", "contact_phone": "+27 43 726 3324", "contact_email": "info@muggandbean.co.za", "status": 1, "source_type": 1, "numberReviews": 1}, {"name": "Red Eagle Spur Steak Ranch", "type": "restaurant", "image": "https://dynamic-media-cdn.tripadvisor.com/media/photo-o/1a/30/dc/ca/original-spur-burger.jpg?w=1000&s=1", "address": "Pretoria Street Shop 23, Sterland Mall, Arcadia 0007 South Africa", "lat": -33.979942, "lng": 25.552746, "ref_id": 6674437, "rating": 3, "num_reviews": 0, "website": "http://www.spursteakranches.com/za/restaurant/red-eagle-spur?utm_source=Tripadvisor&utm_medium=website_link&utm_campaign=SP&utm_content=SP", "contact_phone": "+27 12 440 1577", "contact_email": "redeagle@spursteakranch.co.za", "status": 1, "source_type": 1, "numberReviews": 9}, {"name": "Cafe Capellini", "type": "restaurant", "image": null, "address": "Walmer Park Shopping Centre, Main St & 16th Ave Walmer, Port Elizabeth 6065 South Africa", "lat": -33.97972, "lng": 25.55563, "ref_id": 17150229, "rating": 5, "num_reviews": 0, "website": null, "contact_phone": "+27 41 368 1950", "contact_email": null, "status": 1, "source_type": 1, "numberReviews": 1}, {"name": "KFC Matatiele 2", "type": "restaurant", "image": "https://dynamic-media-cdn.tripadvisor.com/media/photo-o/26/cc/fc/f2/kfc-logo.jpg?w=1000&s=1", "address": "North St, Matatiele 4730 South Africa", "lat": -30.341076, "lng": 28.810244, "ref_id": 24168870, "rating": -1, "num_reviews": 0, "website": "http://www.kfc.co.za", "contact_phone": "+27 39 737 4884", "contact_email": "kfc-matatiele2@odini.co.za", "status": 1, "source_type": 1, "numberReviews": 0}, {"name": "Bean Tree Cafe", "type": "restaurant", "image": null, "address": "Beacon Bay Road Spargs Beacon Bay, East London South Africa", "lat": -32.95059, "lng": 27.92919, "ref_id": 8838634, "rating": 2.5, "num_reviews": 0, "website": null, "contact_phone": "+27 43 711 7790", "contact_email": null, "status": 1, "source_type": 1, "numberReviews": 8}, {"name": "Oom Wessel Seplass Stal", "type": "restaurant", "image": null, "address": "16D Nojoli Street, Somerset East 6410 South Africa", "lat": -32.71921, "lng": 25.588106, "ref_id": 23828389, "rating": -1, "num_reviews": 0, "website": "http://webcards.yellowpages.co.za/steyns-kafee", "contact_phone": "+27 42 243 0140", "contact_email": "cornell@absamail.co.za", "status": 1, "source_type": 1, "numberReviews": 0}, {"name": "Lazy leopard", "type": "restaurant", "image": null, "address": "6 Voortrekker Street R72, Alexandria 6185 South Africa", "lat": -33.65317, "lng": 26.4121, "ref_id": 7942299, "rating": 4, "num_reviews": 0, "website": null, "contact_phone": "+27 46 653 1009", "contact_email": null, "status": 1, "source_type": 1, "numberReviews": 1}, {"name": "Debonairs Pizza", "type": "restaurant", "image": null, "address": "Nedbank Plaza, Shop 0035 175 Steve Biko Street, Arcadia 2000 South Africa", "lat": -25.74485, "lng": 28.203487, "ref_id": 17787246, "rating": 3.5, "num_reviews": 0, "website": "https://location.debonairspizza.co.za/arcadia?y_source=1_MTI0NTExNDAtNzY5LWxvY2F0aW9uLndlYnNpdGU%3D", "contact_phone": "+27 12 323 5883", "contact_email": "info@debonairspizza.co.za", "status": 1, "source_type": 1, "numberReviews": 2}, {"name": "McDonald's Middelburg Mall", "type": "restaurant", "image": "https://dynamic-media-cdn.tripadvisor.com/media/photo-o/18/c5/fe/f8/macdonald-s.jpg?w=1000&s=1", "address": "Middelburg Mall, Cnr Tswelopele Avenue & Fontein Street Mpumalanga, Middelburg 5900 South Africa", "lat": -31.49616, "lng": 25.00595, "ref_id": 17568336, "rating": 2.5, "num_reviews": 0, "website": "https://www.mcdonalds.co.za/restaurants", "contact_phone": "+27 10 595 8396", "contact_email": "middelburgmall@za.mcd.com", "status": 1, "source_type": 1, "numberReviews": 2}, {"name": "Steers", "type": "restaurant", "image": null, "address": "80 Southwell Road, Port Alfred 6170 South Africa", "lat": -33.598137, "lng": 26.874897, "ref_id": 13370641, "rating": 3, "num_reviews": 0, "website": "https://location.steers.co.za/caltex-port-alfred?y_source=1_MTI0MzA3NzAtNzY5LWxvY2F0aW9uLndlYnNpdGU%3D", "contact_phone": "+27 46 624 4460", "contact_email": "info@steers.co.za", "status": 1, "source_type": 1, "numberReviews": 5}, {"name": "Roman's Pizza Dolphins Leap", "type": "restaurant", "image": "https://dynamic-media-cdn.tripadvisor.com/media/photo-o/2a/c9/40/bc/img.jpg?w=1000&s=1", "address": "Cnr La Roche Drive & Beach Road, Gqeberha 6013 South Africa", "lat": -33.977108, "lng": 25.648212, "ref_id": 26829191, "rating": -1, "num_reviews": 0, "website": "http://romanspizza.co.za/?utm_medium=TripAdvisor&utm_source=Roman%27s%20Pizza%20Atlasville&utm_campaign=TripAdvisor%20Store%20Listings&utm_content=BPD%20Pins", "contact_phone": "+27 41 023 0132", "contact_email": "customerservice@romanspizza.com", "status": 1, "source_type": 1, "numberReviews": 0}, {"name": "Protea Kafee", "type": "restaurant", "image": null, "address": "37 Grey Street, Aliwal North 9750 South Africa", "lat": -30.689983, "lng": 26.71018, "ref_id": 25365081, "rating": -1, "num_reviews": 0, "website": null, "contact_phone": "+27 64 095 9859", "contact_email": "manny.fernandes07@gmail.com", "status": 1, "source_type": 1, "numberReviews": 0}, {"name": "Steers", "type": "restaurant", "image": "https://dynamic-media-cdn.tripadvisor.com/media/photo-o/1c/33/27/4f/easy-access.jpg?w=1000&s=1", "address": "Shop 48 Walker Drive Shopping Centre Cnr Kabega and Walker Drive, Port Elizabeth 6001 South Africa", "lat": -33.958523, "lng": 25.502518, "ref_id": 17788029, "rating": 4, "num_reviews": 0, "website": "https://location.steers.co.za/walker-drive?y_source=1_MTI0MzAzMjUtNzY5LWxvY2F0aW9uLndlYnNpdGU%3D", "contact_phone": "+27 41 369 0711", "contact_email": "info@steers.co.za", "status": 1, "source_type": 1, "numberReviews": 2}, {"name": "Charmant\u00e9 Restaurant", "type": "restaurant", "image": null, "address": "R102 Humansdorp & St Francis Drive Fountains Mall, Shop G27, Jeffreys Bay 6300 South Africa", "lat": -34.030643, "lng": 24.897926, "ref_id": 23885904, "rating": -1, "num_reviews": 0, "website": "http://charmante.onuniverse.com/", "contact_phone": "+27 71 209 4259", "contact_email": "charmantejbay@gmail.com", "status": 1, "source_type": 1, "numberReviews": 0}, {"name": "Tiger's Milk - Port Elizabeth", "type": "restaurant", "image": null, "address": "281 Main street, Walmer, Port Elizabeth 6000 South Africa", "lat": -33.962, "lng": 25.62328, "ref_id": 26447848, "rating": -1, "num_reviews": 0, "website": null, "contact_phone": null, "contact_email": null, "status": 1, "source_type": 1, "numberReviews": 0}, {"name": "Mediteranian Restaurant & butchery", "type": "restaurant", "image": null, "address": "Diaz Road, Jeffreys Bay South Africa", "lat": -34.05167, "lng": 24.92375, "ref_id": 10086525, "rating": -1, "num_reviews": 0, "website": null, "contact_phone": "+27 78 811 4818", "contact_email": null, "status": 1, "source_type": 1, "numberReviews": 0}, {"name": "Tropicana", "type": "restaurant", "image": null, "address": "56 Main road, Despatch 6220 South Africa", "lat": -33.80175, "lng": 25.47443, "ref_id": 10837585, "rating": 3.5, "num_reviews": 0, "website": null, "contact_phone": "+27 41 933 6015", "contact_email": null, "status": 1, "source_type": 1, "numberReviews": 4}, {"name": "Beans with Wings", "type": "restaurant", "image": "https://dynamic-media-cdn.tripadvisor.com/media/photo-o/1a/59/4f/02/beans-with-wings.jpg?w=1000&s=1", "address": "3 Heatherbank Road, Charlo off Carrington road, Charlo, Port Elizabeth 6070 South Africa", "lat": -33.98481, "lng": 25.52193, "ref_id": 14055846, "rating": 3, "num_reviews": 0, "website": "http://www.beanswithwings.co.za", "contact_phone": "+27 84 907 3121", "contact_email": null, "status": 1, "source_type": 1, "numberReviews": 11}, {"name": "Hand Made Coffees Nahoon", "type": "restaurant", "image": null, "address": "52 C Beach Road, East London 5241 South Africa", "lat": -32.98878, "lng": 27.921913, "ref_id": 16818862, "rating": -1, "num_reviews": 0, "website": null, "contact_phone": "+27 79 388 7654", "contact_email": null, "status": 1, "source_type": 1, "numberReviews": 0}, {"name": "Oriental Cuisine PE", "type": "restaurant", "image": null, "address": "232 Circular Dr, Port Elizabeth 6070 South Africa", "lat": -33.96995, "lng": 25.526648, "ref_id": 24075157, "rating": -1, "num_reviews": 0, "website": "https://www.facebook.com/Oriental-Cuisine-PE-138668990284969/", "contact_phone": "+27 60 473 1382", "contact_email": "yanyan.pty@gmail.com", "status": 1, "source_type": 1, "numberReviews": 0}, {"name": "Hungry Lion Royal Mall", "type": "restaurant", "image": "https://dynamic-media-cdn.tripadvisor.com/media/photo-o/2b/25/e7/53/hungry-lion.jpg?w=1000&s=1", "address": "Bell Road Shop 43/44, Royal Mall, Queenstown South Africa", "lat": -31.902666, "lng": 26.872917, "ref_id": 23734086, "rating": -1, "num_reviews": 0, "website": "http://www.hungrylion.co.za/?utm_source=Tripadvisor&utm_medium=website_link&utm_campaign=SP&utm_content=SP", "contact_phone": "+27 45 838 5299", "contact_email": "talktous@hungrylion.co.za", "status": 1, "source_type": 1, "numberReviews": 0}, {"name": "Hungry Lion Oxford Street", "type": "restaurant", "image": "https://dynamic-media-cdn.tripadvisor.com/media/photo-o/2b/25/ba/1c/hungry-lion.jpg?w=1000&s=1", "address": "Cnr Oxford & Caxton Street, East London 5201 South Africa", "lat": null, "lng": null, "ref_id": 23749314, "rating": -1, "num_reviews": 0, "website": "http://www.hungrylion.co.za/?utm_source=Tripadvisor&utm_medium=website_link&utm_campaign=SP&utm_content=SP", "contact_phone": "+27 43 722 5109", "contact_email": "talktous@hungrylion.co.za", "status": 1, "source_type": 1, "numberReviews": 0}, {"name": "Mr Hyde's Restaurant & Pub", "type": "restaurant", "image": null, "address": "Bonza Bay Road The Hub, East London 5241 South Africa", "lat": -32.95729, "lng": 27.93521, "ref_id": 5849413, "rating": 2.5, "num_reviews": 0, "website": "https://mr-hydes-restaurant-pub.business.site/", "contact_phone": "+27 43 748 2249", "contact_email": null, "status": 1, "source_type": 1, "numberReviews": 5}, {"name": "Debonairs Pizza", "type": "restaurant", "image": null, "address": "1 Bridge Street, Alice 5700 South Africa", "lat": -32.788124, "lng": 26.839165, "ref_id": 17787238, "rating": 3, "num_reviews": 0, "website": "https://location.debonairspizza.co.za/alice?y_source=1_MTI0NTExMjUtNzY5LWxvY2F0aW9uLndlYnNpdGU%3D", "contact_phone": "+27 40 940 5040", "contact_email": "info@debonairspizza.co.za", "status": 1, "source_type": 1, "numberReviews": 2}, {"name": "Burger Palace", "type": "restaurant", "image": null, "address": "244 Durban Road Alabama Cntr, Port Elizabeth 6020 South Africa", "lat": -33.93562, "lng": 25.58357, "ref_id": 21512436, "rating": -1, "num_reviews": 0, "website": null, "contact_phone": "+27 41 451 0558", "contact_email": "omarabrahams2856@gmail.com", "status": 1, "source_type": 1, "numberReviews": 0}, {"name": "Thornwood Valley", "type": "restaurant", "image": null, "address": "Bonsa Bay Rd, Beacon Bay Crossing, Beacon Bay, East London 5241 South Africa", "lat": -33.015453, "lng": 27.904959, "ref_id": 26454019, "rating": -1, "num_reviews": 0, "website": null, "contact_phone": null, "contact_email": null, "status": 1, "source_type": 1, "numberReviews": 0}, {"name": "KFC Cleary Park", "type": "restaurant", "image": "https://dynamic-media-cdn.tripadvisor.com/media/photo-o/26/b2/a5/61/kfc-logo.jpg?w=1000&s=1", "address": "Cnr Stanford & Noman Middleton Rd Shop 1A, Cleary Park Shopping Centre, Bethelsdorp 6059 South Africa", "lat": -33.895264, "lng": 25.530739, "ref_id": 24179068, "rating": 2, "num_reviews": 0, "website": "http://www.kfc.co.za", "contact_phone": "+27 41 541 0115", "contact_email": null, "status": 1, "source_type": 1, "numberReviews": 1}, {"name": "Debonairs Pizza", "type": "restaurant", "image": null, "address": "Palm Spring Road, Kidd's Beach 5264 South Africa", "lat": -33.141937, "lng": 27.682999, "ref_id": 23987169, "rating": -1, "num_reviews": 0, "website": "https://location.debonairspizza.co.za/kidds-beach?y_source=1_Mjc4NDk2OTktNzY5LWxvY2F0aW9uLndlYnNpdGU%3D", "contact_phone": "+27 43 050 4237", "contact_email": "info@debonairspizza.co.za", "status": 1, "source_type": 1, "numberReviews": 0}, {"name": "Masters At St Francis", "type": "restaurant", "image": null, "address": "The Village Shopping Centre, Saint Francis Bay South Africa", "lat": -34.16413, "lng": 24.82771, "ref_id": 21387798, "rating": -1, "num_reviews": 0, "website": null, "contact_phone": "+27 42 294 0908", "contact_email": null, "status": 1, "source_type": 1, "numberReviews": 0}, {"name": "Steers Fingoland Mall", "type": "restaurant", "image": null, "address": "Shop 15, Fingoland Mall Main Road, Butterworth 4960 South Africa", "lat": -32.33326, "lng": 28.142815, "ref_id": 17788190, "rating": 1, "num_reviews": 0, "website": "https://location.steers.co.za/fingoland-mall?y_source=1_MTI0MzA2NjMtNzY5LWxvY2F0aW9uLndlYnNpdGU%3D", "contact_phone": "+27 47 491 8585", "contact_email": "info@steers.co.za", "status": 1, "source_type": 1, "numberReviews": 1}, {"name": "D'stoep", "type": "restaurant", "image": null, "address": "Corner Of Irvine And Raleigh Streets Richmond Hill, Port Elizabeth South Africa", "lat": -33.960293, "lng": 25.611988, "ref_id": 27689550, "rating": 2, "num_reviews": 0, "website": null, "contact_phone": null, "contact_email": null, "status": 1, "source_type": 1, "numberReviews": 1}, {"name": "Fishtales", "type": "restaurant", "image": null, "address": "24 6th Avenue, Port Elizabeth 6045 South Africa", "lat": -33.93958, "lng": 25.56183, "ref_id": 15582568, "rating": 5, "num_reviews": 0, "website": "https://www.fishtalessa.co.za/outlet-locator", "contact_phone": "+27 41 581 2212", "contact_email": null, "status": 1, "source_type": 1, "numberReviews": 1}, {"name": "Ekhaya Homemade Food", "type": "restaurant", "image": null, "address": "5th Avenue Walmer, Port Elizabeth 6000 South Africa", "lat": -33.979134, "lng": 25.59983, "ref_id": 10212101, "rating": -1, "num_reviews": 0, "website": null, "contact_phone": "+27 82 964 6118", "contact_email": "pmfenyana@gmail.com", "status": 1, "source_type": 1, "numberReviews": 0}, {"name": "Nando's", "type": "restaurant", "image": "https://dynamic-media-cdn.tripadvisor.com/media/photo-o/28/a6/04/f9/nando-s-south-africa.jpg?w=1000&s=1", "address": "Kabega Road Shop 7, Metlife Mall, Port Elizabeth 6025 South Africa", "lat": -33.94613, "lng": 25.50724, "ref_id": 17585587, "rating": -1, "num_reviews": 0, "website": "https://store.nandos.co.za/details/metlife", "contact_phone": "+27 41 541 0001", "contact_email": "metlife@nandcoas.com", "status": 1, "source_type": 1, "numberReviews": 0}, {"name": "ChesaNyama Amalinda", "type": "restaurant", "image": "https://dynamic-media-cdn.tripadvisor.com/media/photo-o/22/64/d0/52/chesanyama.jpg?w=1000&s=1", "address": "18 Amalinda Main Road Amalinda, East London 5247 South Africa", "lat": -32.996227, "lng": 27.873888, "ref_id": 23788861, "rating": -1, "num_reviews": 0, "website": "http://chesanyama.co.za/?utm_source=Tripadvisor&utm_medium=website_link&utm_campaign=SP&utm_content=SP", "contact_phone": "+27 87 654 9214", "contact_email": "marketing@tfcop.co.za", "status": 1, "source_type": 1, "numberReviews": 0}, {"name": "Indigo Moon", "type": "restaurant", "image": null, "address": "6 the Port Hole Building Unit 5 1 Triton Avenue, Port St Francis 6312 South Africa", "lat": -34.18722, "lng": 24.85015, "ref_id": 16739219, "rating": 2.5, "num_reviews": 0, "website": "https://www.facebook.com/Indigo-Moon-Restaurant-474256809643684/", "contact_phone": "+27 42 294 0488", "contact_email": null, "status": 1, "source_type": 1, "numberReviews": 3}, {"name": "KFC Grahamstown", "type": "restaurant", "image": "https://dynamic-media-cdn.tripadvisor.com/media/photo-o/26/af/51/51/kfc-logo.jpg?w=1000&s=1", "address": "Beaufort St Shoprite Mall, Grahamstown 6139 South Africa", "lat": -33.311714, "lng": 26.532303, "ref_id": 24168763, "rating": -1, "num_reviews": 0, "website": "http://www.kfc.co.za", "contact_phone": "+27 46 108 0101", "contact_email": "grahamstown2@kfcec.co.za", "status": 1, "source_type": 1, "numberReviews": 0}, {"name": "Memories", "type": "restaurant", "image": null, "address": "168 Circular Drive, Port Elizabeth 6070 South Africa", "lat": -33.97831, "lng": 25.53247, "ref_id": 14927998, "rating": 4, "num_reviews": 0, "website": "https://www.facebook.com/MemoriesCafePE/", "contact_phone": "+27 41 368 2884", "contact_email": null, "status": 1, "source_type": 1, "numberReviews": 1}, {"name": "The Kitchen Table", "type": "restaurant", "image": null, "address": "42 Pearce St, Berea, East London, 5241, East London 5241 South Africa", "lat": -33.015453, "lng": 27.904959, "ref_id": 26581362, "rating": -1, "num_reviews": 0, "website": null, "contact_phone": null, "contact_email": null, "status": 1, "source_type": 1, "numberReviews": 0}, {"name": "The Spot Expresso", "type": "restaurant", "image": null, "address": "41 Currie Street Shop 1/2, Adelaide 5000 South Africa", "lat": -33.01693, "lng": 27.91312, "ref_id": 11928348, "rating": 4, "num_reviews": 0, "website": null, "contact_phone": null, "contact_email": null, "status": 1, "source_type": 1, "numberReviews": 1}, {"name": "Restaurant de Belmont", "type": "restaurant", "image": null, "address": "7 Belmont Terrace in The Athenaeum, Port Elizabeth 6001 South Africa", "lat": -33.96516, "lng": 25.62047, "ref_id": 11924283, "rating": 5, "num_reviews": 0, "website": null, "contact_phone": "+27 83 857 5509", "contact_email": null, "status": 1, "source_type": 1, "numberReviews": 1}, {"name": "Braai Fry Centre", "type": "restaurant", "image": null, "address": "Caledon Street, Uitenhage, Port Elizabeth 6001 South Africa", "lat": -33.950584, "lng": 25.507418, "ref_id": 19600436, "rating": -1, "num_reviews": 0, "website": null, "contact_phone": "+27 41 922 5148", "contact_email": "braaiandfrycentre@gmail.com", "status": 1, "source_type": 1, "numberReviews": 0}, {"name": "Hand Made Coffee at the Day Kaif", "type": "restaurant", "image": null, "address": "On Rhodes University campus, Grahamstown South Africa", "lat": -33.31491, "lng": 26.51984, "ref_id": 16657218, "rating": 4, "num_reviews": 0, "website": null, "contact_phone": "+27 79 388 7654", "contact_email": null, "status": 1, "source_type": 1, "numberReviews": 1}, {"name": "Hungry Lion Uitenhage", "type": "restaurant", "image": "https://dynamic-media-cdn.tripadvisor.com/media/photo-o/2b/27/27/cf/hungry-lion.jpg?w=1000&s=1", "address": "Cnr Baird & Gerald Smith Street, Shop 11, Binnehof Centre, Uitenhage, Port Elizabeth 6229 South Africa", "lat": -33.769596, "lng": 25.397837, "ref_id": 23749317, "rating": -1, "num_reviews": 0, "website": "http://www.hungrylion.co.za/?utm_source=Tripadvisor&utm_medium=website_link&utm_campaign=SP&utm_content=SP", "contact_phone": "+27 41 922 6855", "contact_email": "talktous@hungrylion.co.za", "status": 1, "source_type": 1, "numberReviews": 0}, {"name": "KFC Aliwal North", "type": "restaurant", "image": null, "address": "50 Somerset Street, Aliwal North 9750 South Africa", "lat": null, "lng": null, "ref_id": 25051454, "rating": -1, "num_reviews": 0, "website": "https://locations.kfc.co.za/eastern-cape/aliwal-north/50-lord-somerset-street", "contact_phone": "+27 51 634 2508", "contact_email": null, "status": 1, "source_type": 1, "numberReviews": 0}, {"name": "Bem Vindo Mediterraneant Restaurant", "type": "restaurant", "image": null, "address": "Boardwalk mall Summerstrand, Port Elizabeth 6019 South Africa", "lat": -33.984386, "lng": 25.659365, "ref_id": 26441559, "rating": -1, "num_reviews": 0, "website": "www.bvpe.co.za", "contact_phone": "+27 41 450 9977", "contact_email": "bemvindo.pe@gmail.com", "status": 1, "source_type": 1, "numberReviews": 0}, {"name": "Zebro's Greenacres", "type": "restaurant", "image": "https://dynamic-media-cdn.tripadvisor.com/media/photo-o/22/69/22/16/zebro-s-chicken.jpg?w=1000&s=1", "address": "Shop 120, Greenacres Mall, Port Elizabeth 6045 South Africa", "lat": -33.948402, "lng": 25.577913, "ref_id": 23782582, "rating": 1, "num_reviews": 0, "website": "http://www.zebros.co.za/?utm_source=Tripadvisor&utm_medium=website_link&utm_campaign=SP&utm_content=SP", "contact_phone": "+27 41 363 0542", "contact_email": "marketing@tfcop.co.za", "status": 1, "source_type": 1, "numberReviews": 1}, {"name": "Hungry Lion Bt Ngebs", "type": "restaurant", "image": "https://dynamic-media-cdn.tripadvisor.com/media/photo-o/2b/19/a8/f2/hungry-lion.jpg?w=1000&s=1", "address": "Shop 94, BT Ngebs City, 33 Erro Spring Avenue Vulindlela Heights, Mthatha 6002 South Africa", "lat": -31.597054, "lng": 28.786419, "ref_id": 23734026, "rating": -1, "num_reviews": 0, "website": "http://www.hungrylion.co.za/?utm_source=Tripadvisor&utm_medium=website_link&utm_campaign=SP&utm_content=SP", "contact_phone": "+27 47 531 1701", "contact_email": "talktous@hungrylion.co.za", "status": 1, "source_type": 1, "numberReviews": 0}, {"name": "Mugg & Bean On The Move", "type": "restaurant", "image": null, "address": "Gqeberha Chief Dawid Stuurman Airport Alistair Miller Road, Port Elizabeth 6000 South Africa", "lat": -33.984005, "lng": 25.611652, "ref_id": 15813839, "rating": 3, "num_reviews": 0, "website": "https://location.muggandbean.co.za/gqeberha-chief-dawid-stuurman-airport-otm?y_source=1_MTI0NDAzMTAtNzY5LWxvY2F0aW9uLndlYnNpdGU%3D", "contact_phone": "+27 41 507 7231", "contact_email": "info@muggandbean.co.za", "status": 1, "source_type": 1, "numberReviews": 3}, {"name": "Ambrosia Restaurant", "type": "restaurant", "image": null, "address": "2 Van Riebeeck Street, Port Elizabeth 6025 South Africa", "lat": -33.94257, "lng": 25.52215, "ref_id": 10283305, "rating": 5, "num_reviews": 0, "website": "https://www.facebook.com/Ambrosia-Restaurant-1507997599523973/", "contact_phone": "+27 42 922 0419", "contact_email": "christopherstoltz08@gmail.com", "status": 1, "source_type": 1, "numberReviews": 1}, {"name": "Wimpy", "type": "restaurant", "image": null, "address": "No 12 JA Calata Street Spar Shopping Centre, Cradock 5880 South Africa", "lat": -32.18798, "lng": 25.64698, "ref_id": 5427474, "rating": 2.5, "num_reviews": 0, "website": null, "contact_phone": "+27 48 881 1200", "contact_email": null, "status": 1, "source_type": 1, "numberReviews": 16}, {"name": "Debonairs Pizza", "type": "restaurant", "image": null, "address": "Heritage Mall, Shop 6 Masonic Street, Port Alfred 6170 South Africa", "lat": -33.5938, "lng": 26.884415, "ref_id": 17787233, "rating": 4, "num_reviews": 0, "website": "https://location.debonairspizza.co.za/port-alfred?y_source=1_MTI0NTExMTgtNzY5LWxvY2F0aW9uLndlYnNpdGU%3D", "contact_phone": "+27 46 624 5565", "contact_email": "info@debonairspizza.co.za", "status": 1, "source_type": 1, "numberReviews": 1}, {"name": "KFC Boardwalk", "type": "restaurant", "image": "https://dynamic-media-cdn.tripadvisor.com/media/photo-o/26/b8/06/c3/kfc-logo.jpg?w=1000&s=1", "address": "Marine Dr Shop 5, The Boardwalk Complex, Summerstrand, Port Elizabeth 6001 South Africa", "lat": -33.98036, "lng": 25.657179, "ref_id": 24177679, "rating": -1, "num_reviews": 0, "website": "http://www.kfc.co.za", "contact_phone": "+27 41 541 0117", "contact_email": "boardwalk@kfcec.co.za", "status": 1, "source_type": 1, "numberReviews": 0}, {"name": "Simple", "type": "restaurant", "image": null, "address": "10 Epsom Road, East London 5241 South Africa", "lat": -32.991955, "lng": 27.92454, "ref_id": 27437915, "rating": -1, "num_reviews": 0, "website": null, "contact_phone": "+10825923961", "contact_email": "geraldine@saltel.co.za", "status": 1, "source_type": 1, "numberReviews": 0}, {"name": "Domino's Pizza Linton Grange", "type": "restaurant", "image": "https://dynamic-media-cdn.tripadvisor.com/media/photo-o/09/5c/26/4f/domino-s-pizza-linton.jpg?w=1000&s=1", "address": "527 Cape Road Linton Grange, Port Elizabeth 6025 South Africa", "lat": -33.94362, "lng": 25.513908, "ref_id": 8495046, "rating": 1.5, "num_reviews": 0, "website": "http://www.dominospizza.co.za/", "contact_phone": "+27 41 360 0513", "contact_email": "info@dominos.co.za", "status": 1, "source_type": 1, "numberReviews": 5}, {"name": "Panarottis Express Uitenhage", "type": "restaurant", "image": "https://dynamic-media-cdn.tripadvisor.com/media/photo-o/2c/ac/93/52/img.jpg?w=1000&s=1", "address": "Cnr Caledon & Queen Mary Street Cannon Hill, Uitenhage, Port Elizabeth 6229 South Africa", "lat": -33.767986, "lng": 25.40255, "ref_id": 23966452, "rating": -1, "num_reviews": 0, "website": "https://www.facebook.com/PanarottisUitenhage/", "contact_phone": "+27 41 205 0978", "contact_email": "uitenhage@panarottisexpress.co.za", "status": 1, "source_type": 1, "numberReviews": 0}, {"name": "Kota Life Shack", "type": "restaurant", "image": null, "address": "Coffee Bay road, Coffee Bay South Africa", "lat": null, "lng": null, "ref_id": 12871966, "rating": -1, "num_reviews": 0, "website": null, "contact_phone": "+27 72 092 6116", "contact_email": null, "status": 1, "source_type": 1, "numberReviews": 0}, {"name": "Infood Bakery & Deli", "type": "restaurant", "image": "https://dynamic-media-cdn.tripadvisor.com/media/photo-o/17/a5/d8/d3/street-view.jpg?w=1000&s=1", "address": "14 Jeffrey Street crn Schelde street, Jeffreys Bay 6330 South Africa", "lat": -34.050434, "lng": 24.921686, "ref_id": 2633963, "rating": 4.5, "num_reviews": 0, "website": "www.infood.co.za", "contact_phone": "+27 42 293 1880", "contact_email": "info@infood.co.za", "status": 1, "source_type": 1, "numberReviews": 471}, {"name": "Africanos Country Estate Restaurant & Sushi Bar", "type": "restaurant", "image": "https://dynamic-media-cdn.tripadvisor.com/media/photo-o/29/76/37/f6/restaurant.jpg?w=1000&s=1", "address": "R336 Zuuberg Road, Addo, Sundays River Valley 6105 South Africa", "lat": -33.517704, "lng": 25.668173, "ref_id": 8422209, "rating": 4.5, "num_reviews": 0, "website": "http://www.africanos.co.za/", "contact_phone": "+27 42 233 0030", "contact_email": "info@africanos.co.za", "status": 1, "source_type": 1, "numberReviews": 498}, {"name": "The Edge", "type": "restaurant", "image": "https://dynamic-media-cdn.tripadvisor.com/media/photo-o/0a/a4/29/5d/amazing-beef-burger-with.jpg?w=1000&s=1", "address": "Perry bar lane, Hogsback 5721 South Africa", "lat": -32.601578, "lng": 26.917515, "ref_id": 4831831, "rating": 4.5, "num_reviews": 0, "website": "http://theedge-hogsback.co.za/attractions/restaurant-at-the-edge/", "contact_phone": "+27 45 962 1159", "contact_email": null, "status": 1, "source_type": 1, "numberReviews": 208}, {"name": "Sanook Eatery", "type": "restaurant", "image": "https://dynamic-media-cdn.tripadvisor.com/media/photo-o/12/98/b6/e0/sanook-eatery.jpg?w=1000&s=1", "address": "Bonza Bay Road Shop 13A, Beacon Bay Crossing, East London 5241 South Africa", "lat": -32.952114, "lng": 27.929762, "ref_id": 7983182, "rating": 4.5, "num_reviews": 0, "website": "http://www.sanook.co.za/home/sanook-eatery/", "contact_phone": "+27 43 748 2494", "contact_email": "eat@sanook.co.za", "status": 1, "source_type": 1, "numberReviews": 240}, {"name": "Shanna's Portuguese Restaurant", "type": "restaurant", "image": "https://dynamic-media-cdn.tripadvisor.com/media/photo-o/1a/bc/c8/d8/img-20200128-185500-largejpg.jpg?w=1000&s=1", "address": "Circular Drive, Port Elizabeth 6070 South Africa", "lat": -33.97111, "lng": 25.528008, "ref_id": 2693513, "rating": 4.5, "num_reviews": 0, "website": "https://www.facebook.com/Shannas-Portuguese-Restaurant-1563427680354209/?rf=330617056953749", "contact_phone": "+27 41 367 4560", "contact_email": "", "status": 1, "source_type": 1, "numberReviews": 178}, {"name": "Graze By The River", "type": "restaurant", "image": "https://dynamic-media-cdn.tripadvisor.com/media/photo-o/03/b3/b3/91/graze-on-the-river.jpg?w=1000&s=1", "address": "38 Van Der Riet Street, Port Alfred 6170 South Africa", "lat": -33.590294, "lng": 26.88477, "ref_id": 3826025, "rating": 4.5, "num_reviews": 0, "website": "http://www.grazebytheriver.co.za", "contact_phone": "+27 63 644 3878", "contact_email": "njh4665@gmail.com", "status": 1, "source_type": 1, "numberReviews": 333}, {"name": "Stanley's Restaurant", "type": "restaurant", "image": "https://dynamic-media-cdn.tripadvisor.com/media/photo-o/0c/53/6e/80/photo2jpg.jpg?w=1000&s=1", "address": "R343 Grahamstown Road Eve's Retreat, Kenton-on-Sea 6191 South Africa", "lat": -33.658535, "lng": 26.642256, "ref_id": 4737831, "rating": 4.5, "num_reviews": 0, "website": "", "contact_phone": "+27 82 774 9326", "contact_email": "theoffice@stanleyskos.co.za", "status": 1, "source_type": 1, "numberReviews": 172}, {"name": "Addo Cattle Baron", "type": "restaurant", "image": "https://dynamic-media-cdn.tripadvisor.com/media/photo-o/1b/50/f3/08/beef-ribs.jpg?w=1000&s=1", "address": "Craddock, Addo Elephant National Park 6105 South Africa", "lat": -33.44444, "lng": 25.746086, "ref_id": 6563659, "rating": 3.5, "num_reviews": 0, "website": "http://www.cattlebaron.co.za/", "contact_phone": "+27 42 233 8674", "contact_email": "managers@cbaddo.co.za", "status": 1, "source_type": 1, "numberReviews": 650}, {"name": "Nina's Real Food", "type": "restaurant", "image": "https://dynamic-media-cdn.tripadvisor.com/media/photo-o/12/8e/66/d9/sharing-is-caring.jpg?w=1000&s=1", "address": "Da Gamma Road Spar Shopping Centre, Jeffreys Bay 6330 South Africa", "lat": -34.033333, "lng": 24.930483, "ref_id": 1966506, "rating": 4.5, "num_reviews": 0, "website": "http://www.ninas.co.za", "contact_phone": "+27 42 296 0281", "contact_email": "", "status": 1, "source_type": 1, "numberReviews": 1414}, {"name": "Camdeboo", "type": "restaurant", "image": "https://dynamic-media-cdn.tripadvisor.com/media/photo-o/11/e6/3b/2e/photo1jpg.jpg?w=1000&s=1", "address": "30 Church Street Drostdy Hotel, Graaff-Reinet 6280 South Africa", "lat": -32.25224, "lng": 24.535446, "ref_id": 10026155, "rating": 4.5, "num_reviews": 0, "website": "http://www.drostdy.co.za", "contact_phone": null, "contact_email": null, "status": 1, "source_type": 1, "numberReviews": 90}, {"name": "C'est la Vie", "type": "restaurant", "image": "https://dynamic-media-cdn.tripadvisor.com/media/photo-o/09/73/eb/c6/c-est-la-vie.jpg?w=1000&s=1", "address": "20 Stewart Road, Port Alfred 6170 South Africa", "lat": -33.60115, "lng": 26.88828, "ref_id": 5427394, "rating": 5, "num_reviews": 0, "website": null, "contact_phone": "+27 71 403 0130", "contact_email": null, "status": 1, "source_type": 1, "numberReviews": 56}, {"name": "The Highlander Pub", "type": "restaurant", "image": "https://dynamic-media-cdn.tripadvisor.com/media/photo-o/1c/37/77/1f/night-view-of-our-newly.jpg?w=1000&s=1", "address": "19 St Andrews Road, Port Alfred 6170 South Africa", "lat": -33.60311, "lng": 26.886724, "ref_id": 8093766, "rating": 4, "num_reviews": 0, "website": "http://www.royalstandrewshotel.co.za/highlander", "contact_phone": "+27 46 604 5400", "contact_email": "info@rsah.co.za", "status": 1, "source_type": 1, "numberReviews": 254}, {"name": "A Taste of Africa Restaurant & Coffee Shop", "type": "restaurant", "image": "https://dynamic-media-cdn.tripadvisor.com/media/photo-o/22/c7/4b/2b/taste-of-africa-restaurant.jpg?w=1000&s=1", "address": "Darling Street Corner of Darling and Jetty Street, Colchester 6175 South Africa", "lat": -33.691135, "lng": 25.82577, "ref_id": 8539956, "rating": 4, "num_reviews": 0, "website": "http://www.sundaze.co.za", "contact_phone": "+27 76 637 6351", "contact_email": "bookings@atasteofafrica.co.za", "status": 1, "source_type": 1, "numberReviews": 157}, {"name": "St Francis Brewing Co - Brew Pub", "type": "restaurant", "image": "https://dynamic-media-cdn.tripadvisor.com/media/photo-o/1c/fb/9b/35/great-beer-and-fresh.jpg?w=1000&s=1", "address": "171 St Francis Drive, Saint Francis Bay 6312 South Africa", "lat": -34.16499, "lng": 24.827425, "ref_id": 7813007, "rating": 4.5, "num_reviews": 0, "website": "http://www.stfrancisbrewing.co.za", "contact_phone": "+27 63 274 3743", "contact_email": "stfrancisbrewingcompany@gmail.com", "status": 1, "source_type": 1, "numberReviews": 195}, {"name": "Sandbar floating Restaurant", "type": "restaurant", "image": "https://dynamic-media-cdn.tripadvisor.com/media/photo-o/0c/fd/e9/b8/outdoor-area.jpg?w=1000&s=1", "address": "4th Avenue Bushmans River Mouth, Kenton-on-Sea 6190 South Africa", "lat": -33.67214, "lng": 26.645294, "ref_id": 8491220, "rating": 3.5, "num_reviews": 0, "website": "http://www.sandbar.co.za", "contact_phone": "+27 46 648 2450", "contact_email": "sandbar1@telkomsa.net", "status": 1, "source_type": 1, "numberReviews": 143}, {"name": "The Cricketer", "type": "restaurant", "image": "https://dynamic-media-cdn.tripadvisor.com/media/photo-o/06/3a/31/95/getlstd-property-photo.jpg?w=1000&s=1", "address": "2 Swans Schafli Road East Coast Resorts, East London 5259 South Africa", "lat": -32.916348, "lng": 28.005245, "ref_id": 6895784, "rating": 4.5, "num_reviews": 0, "website": "http://www.2swans.co.za", "contact_phone": "+27 83 659 8899", "contact_email": "alison@2swans.co.za", "status": 1, "source_type": 1, "numberReviews": 97}, {"name": "Stirlings@The Ibis", "type": "restaurant", "image": "https://dynamic-media-cdn.tripadvisor.com/media/photo-o/1c/95/31/32/lamb-curry.jpg?w=1000&s=1", "address": "Martin Street The Ibis, Nieu-Bethesda 6286 South Africa", "lat": -31.868307, "lng": 24.554243, "ref_id": 5887484, "rating": 4.5, "num_reviews": 0, "website": "https://www.theibislounge.co.za/eat/", "contact_phone": "+27 72 110 6254", "contact_email": "info@theibis.co.za", "status": 1, "source_type": 1, "numberReviews": 191}, {"name": "Angelo's", "type": "restaurant", "image": "https://dynamic-media-cdn.tripadvisor.com/media/photo-o/0e/d1/83/2d/photo0jpg.jpg?w=1000&s=1", "address": "Marine Drive Shark Rock Pier, Summerstrand, Port Elizabeth 6001 South Africa", "lat": -34.02432, "lng": 25.64846, "ref_id": 10595244, "rating": 4, "num_reviews": 0, "website": "https://www.facebook.com/AngelosCafeSharkRock/", "contact_phone": "+27 41 583 5862", "contact_email": "paul@angelos.biz", "status": 1, "source_type": 1, "numberReviews": 68}, {"name": "The Gallery Restaurant", "type": "restaurant", "image": "https://dynamic-media-cdn.tripadvisor.com/media/photo-o/2b/8e/e3/b7/night-view.jpg?w=1000&s=1", "address": "9 Wainwright Street Top Town, Queenstown 5319 South Africa", "lat": -31.896902, "lng": 26.88755, "ref_id": 3601176, "rating": 4, "num_reviews": 0, "website": "http://www.thegallerykomani.com", "contact_phone": "+27 45 838 3344", "contact_email": "herman@thegallerykomani.com", "status": 1, "source_type": 1, "numberReviews": 115}, {"name": "The Cow Shed", "type": "restaurant", "image": "https://dynamic-media-cdn.tripadvisor.com/media/photo-o/15/52/b2/06/photo0jpg.jpg?w=1000&s=1", "address": "54 Beach Road, East London 5241 South Africa", "lat": -32.98556, "lng": 27.927301, "ref_id": 10779721, "rating": 4, "num_reviews": 0, "website": "https://www.facebook.com/thecowandmilkshed", "contact_phone": "+27 43 735 1513", "contact_email": "thecowandmilkshed@gmail.com", "status": 1, "source_type": 1, "numberReviews": 89}, {"name": "The Coldstream Restaurant", "type": "restaurant", "image": "https://dynamic-media-cdn.tripadvisor.com/media/photo-o/25/5b/d0/71/the-coldstream-restaurant.jpg?w=1000&s=1", "address": "3 Church Street, Graaff-Reinet 6280 South Africa", "lat": -32.249523, "lng": 24.535818, "ref_id": 24919408, "rating": 4.5, "num_reviews": 0, "website": "https://www.facebook.com/coldstreamgrt/", "contact_phone": "+27 82 923 8384", "contact_email": "Info@thecoldstream.co.za", "status": 1, "source_type": 1, "numberReviews": 24}, {"name": "River Front Restaurant", "type": "restaurant", "image": "https://dynamic-media-cdn.tripadvisor.com/media/photo-o/21/fc/4e/dc/we-are-open-wednesday.jpg?w=1000&s=1", "address": "Holland Street, Addo, Sundays River Valley 6105 South Africa", "lat": -33.551044, "lng": 25.684818, "ref_id": 12978192, "rating": 4.5, "num_reviews": 0, "website": "https://www.facebook.com/rfrestaurant/", "contact_phone": "+27 42 233 0000", "contact_email": "addohub@gmail.com", "status": 1, "source_type": 1, "numberReviews": 92}, {"name": "Prana Lodge Restaurant", "type": "restaurant", "image": "https://dynamic-media-cdn.tripadvisor.com/media/photo-o/0f/a2/51/1a/fine-dining.jpg?w=1000&s=1", "address": "Chintsa Drive Prana Lodge, Chintsa 5275 South Africa", "lat": -32.824993, "lng": 28.118343, "ref_id": 5079495, "rating": 5, "num_reviews": 0, "website": "http://www.pranalodge.co.za", "contact_phone": "+27 43 704 5100", "contact_email": "info@pranalodge.co.za", "status": 1, "source_type": 1, "numberReviews": 76}, {"name": "TORO Sushi, Teppanyaki & Seafood", "type": "restaurant", "image": "https://dynamic-media-cdn.tripadvisor.com/media/photo-o/14/c0/e6/9f/toro-sushi-teppanyaki.jpg?w=1000&s=1", "address": "King's Court, Port Elizabeth 6070 South Africa", "lat": -33.99133, "lng": 25.556822, "ref_id": 15127995, "rating": 4.5, "num_reviews": 0, "website": "http://www.facebook.com/ToroPE", "contact_phone": "+27 41 368 1666", "contact_email": "toro.portelizabeth@gmail.com", "status": 1, "source_type": 1, "numberReviews": 145}, {"name": "Irana Indian Cuisine", "type": "restaurant", "image": "https://dynamic-media-cdn.tripadvisor.com/media/photo-o/29/7d/51/70/butter-chicken.jpg?w=1000&s=1", "address": "2 Glaston Street Berea, East London 5241 South Africa", "lat": -32.991795, "lng": 27.911125, "ref_id": 5849471, "rating": 4.5, "num_reviews": 0, "website": "https://www.facebook.com/iranarestaurant/", "contact_phone": "+27 43 721 2231", "contact_email": "thai@telkomsa.net", "status": 1, "source_type": 1, "numberReviews": 211}, {"name": "Chokka Block Restaurant", "type": "restaurant", "image": "https://dynamic-media-cdn.tripadvisor.com/media/photo-o/16/76/5b/67/chokka-block-restaurant.jpg?w=1000&s=1", "address": "Top Floor, Squid Square Triton Avenue, Port St Francis 6312 South Africa", "lat": -34.18326, "lng": 24.852936, "ref_id": 2589492, "rating": 4, "num_reviews": 0, "website": "http://www.facebook.com/chokkablock?sk=info", "contact_phone": "+27 42 294 1615", "contact_email": "canterfamily@hotmail.com", "status": 1, "source_type": 1, "numberReviews": 360}, {"name": "Woodfired Pizza - Papa Africa", "type": "restaurant", "image": "https://dynamic-media-cdn.tripadvisor.com/media/photo-o/1c/c6/0f/38/photo0jpg.jpg?w=1000&s=1", "address": "111 Darnell Street, Storms River, Tsitsikamma National Park 6308 South Africa", "lat": -33.974213, "lng": 23.887318, "ref_id": 12926877, "rating": 4, "num_reviews": 0, "website": null, "contact_phone": "+27 60 860 5838", "contact_email": "brad.mild2wild@gmail.com", "status": 1, "source_type": 1, "numberReviews": 107}, {"name": "Remo's Italian", "type": "restaurant", "image": "https://dynamic-media-cdn.tripadvisor.com/media/photo-o/15/7f/cb/d5/remo-s.jpg?w=1000&s=1", "address": "Alabaster street, Baakens Valley, Port Elizabeth 6001 South Africa", "lat": -33.968334, "lng": 25.620714, "ref_id": 12842503, "rating": 4.5, "num_reviews": 0, "website": "http://remos.co.za", "contact_phone": "+27 60 998 0789", "contact_email": "michelle@remos.co.za", "status": 1, "source_type": 1, "numberReviews": 123}, {"name": "Twenty Two Eatery & Wine Bar", "type": "restaurant", "image": "https://dynamic-media-cdn.tripadvisor.com/media/photo-o/21/e5/5c/65/twenty-two-eatery-wine.jpg?w=1000&s=1", "address": "173 St Francis Drive Cnr Assissi Drive, Saint Francis Bay 6312 South Africa", "lat": -34.165234, "lng": 24.827646, "ref_id": 23781492, "rating": 4.5, "num_reviews": 0, "website": "http://www.facebook.com/TwentyTwoEatery", "contact_phone": "+27 66 457 5486", "contact_email": "nicholasgeerts@gmail.com", "status": 1, "source_type": 1, "numberReviews": 22}, {"name": "The Little Ranch", "type": "restaurant", "image": "https://dynamic-media-cdn.tripadvisor.com/media/photo-o/0a/e1/d3/1c/tables-and-chairs-are.jpg?w=1000&s=1", "address": "Aliwal North 9750 South Africa", "lat": -30.706152, "lng": 26.71735, "ref_id": 9734701, "rating": 4.5, "num_reviews": 0, "website": "https://www.facebook.com/The-Little-Ranch-409349249174577/", "contact_phone": "+27 76 815 4790", "contact_email": null, "status": 1, "source_type": 1, "numberReviews": 91}, {"name": "Debonairs Pizza", "type": "restaurant", "image": "https://dynamic-media-cdn.tripadvisor.com/media/photo-o/06/d1/7b/c6/pizza-tres-andares.jpg?w=1000&s=1", "address": "Boardwalk Mall, Shop 30 Cnr Marine Drive and 2nd Avenue, Port Elizabeth 6019 South Africa", "lat": -33.984386, "lng": 25.659405, "ref_id": 817724, "rating": 3.5, "num_reviews": 0, "website": "https://location.debonairspizza.co.za/boardwalk-mall?y_source=1_MzY1NDU2OTUtNzY5LWxvY2F0aW9uLndlYnNpdGU%3D", "contact_phone": "+27 41 786 0005", "contact_email": "info@debonairspizza.co.za", "status": 1, "source_type": 1, "numberReviews": 37}, {"name": "Nanaga Farmstall", "type": "restaurant", "image": "https://dynamic-media-cdn.tripadvisor.com/media/photo-o/0e/14/1f/80/img-20161231-094403-largejpg.jpg?w=1000&s=1", "address": "N 2 Hwy R72 Alexandria, Alexandria 6185 South Africa", "lat": -33.607796, "lng": 25.919783, "ref_id": 8454782, "rating": 4.5, "num_reviews": 0, "website": "http://www.nanaga.co.za/the-farmstall/pies-roosterkoek/", "contact_phone": "+27 41 468 0353", "contact_email": null, "status": 1, "source_type": 1, "numberReviews": 16}, {"name": "Die Plaaswerf", "type": "restaurant", "image": null, "address": "Route 62, Kareedouw 6400 South Africa", "lat": -33.95696, "lng": 24.29729, "ref_id": 6168143, "rating": 4.5, "num_reviews": 0, "website": null, "contact_phone": "+27 42 288 0262", "contact_email": null, "status": 1, "source_type": 1, "numberReviews": 4}, {"name": "Debonairs Pizza", "type": "restaurant", "image": null, "address": "1 Barkly Street, Aliwal North 9750 South Africa", "lat": -30.686792, "lng": 26.70662, "ref_id": 17787188, "rating": 4.5, "num_reviews": 0, "website": "https://location.debonairspizza.co.za/aliwal-north-shell?y_source=1_MTI0NTEwMjgtNzY5LWxvY2F0aW9uLndlYnNpdGU%3D", "contact_phone": "+27 51 011 1580", "contact_email": "info@debonairspizza.co.za", "status": 1, "source_type": 1, "numberReviews": 4}, {"name": "Cofi Gqeberha", "type": "restaurant", "image": null, "address": "1 Lodge Road Shop 1, Boardwalk Casino, Summerstrand, Port Elizabeth 6001 South Africa", "lat": -33.98337, "lng": 25.659798, "ref_id": 28049712, "rating": -1, "num_reviews": 0, "website": "https://www.cofi.co.za/", "contact_phone": "+27 10 786 4964", "contact_email": "info@cofi.co.za", "status": 1, "source_type": 1, "numberReviews": 0}, {"name": "The Forest Restaurant", "type": "restaurant", "image": "https://dynamic-media-cdn.tripadvisor.com/media/photo-o/2b/6a/bc/5c/caption.jpg?w=1000&s=1", "address": "6 Main road Hogsback, Hogsback 5721 South Africa", "lat": -32.595173, "lng": 26.932255, "ref_id": 27092727, "rating": -1, "num_reviews": 0, "website": "https://kingslodgehogsback.co.za/", "contact_phone": "+27 72 355 7068", "contact_email": "faye@kingslodgehogsback.co.za", "status": 1, "source_type": 1, "numberReviews": 0}, {"name": "Altelekker", "type": "restaurant", "image": "https://dynamic-media-cdn.tripadvisor.com/media/photo-o/09/c4/60/65/altelekker.jpg?w=1000&s=1", "address": "15 Riebeeck Street, Kareedouw 6400 South Africa", "lat": -33.95195, "lng": 24.28991, "ref_id": 8119931, "rating": 3.5, "num_reviews": 0, "website": "http://www.facebook.com/Altelekker-Kareedouw-307636456082272", "contact_phone": "+27 42 288 0748", "contact_email": "anneke.altelekker@gmail.com", "status": 1, "source_type": 1, "numberReviews": 9}, {"name": "The Barn", "type": "restaurant", "image": null, "address": "Kidd's Beach Road, Kidd's Beach 5264 South Africa", "lat": -33.14806, "lng": 27.70205, "ref_id": 15670133, "rating": 4, "num_reviews": 0, "website": null, "contact_phone": "+27 43 781 1689", "contact_email": null, "status": 1, "source_type": 1, "numberReviews": 1}, {"name": "Kauai Walmer Park", "type": "restaurant", "image": "https://dynamic-media-cdn.tripadvisor.com/media/photo-o/1d/32/33/a8/imageimage.jpg?w=1000&s=1", "address": "Main Road Shop 11a, Walmer Park Shopping Centre, Walmer, Port Elizabeth 6070 South Africa", "lat": -33.981014, "lng": 25.558632, "ref_id": 7995569, "rating": 3.5, "num_reviews": 0, "website": "http://kauai.co.za/?utm_source=tripadvisor&utm_medium=website_link&utm_campaign=sp&utm_content=sp", "contact_phone": "+27 41 368 2399", "contact_email": "walmerpark@kauai.co.za", "status": 1, "source_type": 1, "numberReviews": 10}, {"name": "Mugg & Bean On The Move", "type": "restaurant", "image": "https://dynamic-media-cdn.tripadvisor.com/media/photo-o/22/43/f2/8f/mugg-bean.jpg?w=1000&s=1", "address": "Humerail Center, Shop 8 18 Beach Road, Port Elizabeth 6000 South Africa", "lat": -33.971226, "lng": 25.631992, "ref_id": 17787768, "rating": 5, "num_reviews": 0, "website": "https://location.muggandbean.co.za/humerail-otm-ls?y_source=1_MTI0NDA0NzAtNzY5LWxvY2F0aW9uLndlYnNpdGU%3D", "contact_phone": "+27 41 582 3655", "contact_email": "info@muggandbean.co.za", "status": 1, "source_type": 1, "numberReviews": 4}, {"name": "Wimpy (Greenacres)", "type": "restaurant", "image": "https://dynamic-media-cdn.tripadvisor.com/media/photo-o/0c/6e/80/a7/ta-img-20160808-095644.jpg?w=1000&s=1", "address": "Greenacres Shopping Centre, Shop 123 1 Ring Road, Port Elizabeth 6045 South Africa", "lat": -33.94813, "lng": 25.57975, "ref_id": 5427453, "rating": 3.5, "num_reviews": 0, "website": "https://location.wimpy.co.za/greenacres-port-elizabeth?y_source=1_MTIzNjA3MTgtNzY5LWxvY2F0aW9uLndlYnNpdGU%3D", "contact_phone": "+27 41 363 3249", "contact_email": "info@wimpy.co.za", "status": 1, "source_type": 1, "numberReviews": 21}, {"name": "Grapevine On Stanley", "type": "restaurant", "image": "https://dynamic-media-cdn.tripadvisor.com/media/photo-o/08/ff/33/d1/grapevine-on-stanley.jpg?w=1000&s=1", "address": "32 Stanley Street Richmond Hill, Port Elizabeth 6001 South Africa", "lat": -33.95987, "lng": 25.61033, "ref_id": 8528666, "rating": 4, "num_reviews": 0, "website": "http://www.facebook.com/GrapevineOnStanley", "contact_phone": "+27 41 582 2434", "contact_email": null, "status": 1, "source_type": 1, "numberReviews": 6}, {"name": "Elahleni Food and Braai", "type": "restaurant", "image": "https://dynamic-media-cdn.tripadvisor.com/media/photo-o/16/df/1c/20/the-grill-pap-wors-with.jpg?w=1000&s=1", "address": "119 Caxton Street Quigney, East London 5201 South Africa", "lat": -33.01496, "lng": 27.91847, "ref_id": 16824867, "rating": 4, "num_reviews": 0, "website": "http://www.facebook.com/ElahleniEL/", "contact_phone": "+27 73 687 8758", "contact_email": null, "status": 1, "source_type": 1, "numberReviews": 1}, {"name": "The Butcherbird", "type": "restaurant", "image": null, "address": "Hope Street, Bedford 5780 South Africa", "lat": -32.67895, "lng": 26.08694, "ref_id": 5427245, "rating": 5, "num_reviews": 0, "website": "https://www.facebook.com/TheButcherBird/", "contact_phone": "+27 72 247 0224", "contact_email": null, "status": 1, "source_type": 1, "numberReviews": 4}, {"name": "The Bean and Olive", "type": "restaurant", "image": "https://dynamic-media-cdn.tripadvisor.com/media/photo-o/11/de/9c/99/the-bean-and-olive.jpg?w=1000&s=1", "address": "On the R 72 Southern Entrance To Pa, Port Alfred 6170 South Africa", "lat": -33.61233, "lng": 26.88839, "ref_id": 12718104, "rating": 3.5, "num_reviews": 0, "website": "http://www.facebook.com/thebeanandolive", "contact_phone": "+27 46 624 3733", "contact_email": null, "status": 1, "source_type": 1, "numberReviews": 17}, {"name": "The Grill Room", "type": "restaurant", "image": null, "address": "22 Esplanade Road, East London 5201 South Africa", "lat": -33.019783, "lng": 27.918959, "ref_id": 12453776, "rating": 4.5, "num_reviews": 0, "website": "http://thegrillroom.co.za/", "contact_phone": "+27 43 709 5057", "contact_email": "eat@thegrillroom.co.za", "status": 1, "source_type": 1, "numberReviews": 2}, {"name": "Wimpy", "type": "restaurant", "image": null, "address": "Penford Shopping Centre, Shop 19 Graaf Reinet Street, Uitenhage, Port Elizabeth 6229 South Africa", "lat": -33.758827, "lng": 25.40813, "ref_id": 14204316, "rating": 4.5, "num_reviews": 0, "website": "https://location.wimpy.co.za/uitenhage?y_source=1_MTIzNjA4MDUtNzY5LWxvY2F0aW9uLndlYnNpdGU%3D", "contact_phone": "+27 41 023 0473", "contact_email": "info@wimpy.co.za", "status": 1, "source_type": 1, "numberReviews": 4}, {"name": "Zebro's Uitenhage", "type": "restaurant", "image": "https://dynamic-media-cdn.tripadvisor.com/media/photo-o/22/69/8a/71/zebro-s-chicken.jpg?w=1000&s=1", "address": "32B Market Street, Central, Uitenhage, Port Elizabeth 6229 South Africa", "lat": -33.771328, "lng": 25.397795, "ref_id": 23782594, "rating": -1, "num_reviews": 0, "website": "http://www.zebros.co.za/?utm_source=Tripadvisor&utm_medium=website_link&utm_campaign=SP&utm_content=SP", "contact_phone": "+27 41 922 6951", "contact_email": "marketing@tfcop.co.za", "status": 1, "source_type": 1, "numberReviews": 0}, {"name": "Steers", "type": "restaurant", "image": null, "address": "Phalo Avenue Engen Bisho, Bhisho 5605 South Africa", "lat": -32.84958, "lng": 27.43819, "ref_id": 23436996, "rating": 5, "num_reviews": 0, "website": "https://location.steers.co.za/engen-bisho?y_source=1_MjQyODk1MjMtNzY5LWxvY2F0aW9uLndlYnNpdGU%3D", "contact_phone": "+27 40 880 0122", "contact_email": "siyogcobisa@gmail.com", "status": 1, "source_type": 1, "numberReviews": 5}, {"name": "Feng Wei Palace", "type": "restaurant", "image": null, "address": "19 Main Road, Gonubie 5257 South Africa", "lat": -32.937443, "lng": 28.006767, "ref_id": 8001392, "rating": 4, "num_reviews": 0, "website": null, "contact_phone": null, "contact_email": null, "status": 1, "source_type": 1, "numberReviews": 4}, {"name": "Old School Grill & Pizzeria", "type": "restaurant", "image": null, "address": "26A Pickering Street, Port Elizabeth 6045 South Africa", "lat": -33.94709, "lng": 25.56815, "ref_id": 12328599, "rating": 4.5, "num_reviews": 0, "website": "https://www.facebook.com/oldschoolgrillpe/?fref=nf", "contact_phone": null, "contact_email": "itscountrype@gmail.com", "status": 1, "source_type": 1, "numberReviews": 5}, {"name": "Lizzy's Khaya", "type": "restaurant", "image": "https://dynamic-media-cdn.tripadvisor.com/media/photo-o/13/bb/42/2e/koeksisters-and-scones.jpg?w=1000&s=1", "address": "Steytlerville Township, Steytlerville 6250 South Africa", "lat": null, "lng": null, "ref_id": 4079827, "rating": 4.5, "num_reviews": 0, "website": null, "contact_phone": null, "contact_email": null, "status": 1, "source_type": 1, "numberReviews": 4}, {"name": "Boogie Slide'n Jive", "type": "restaurant", "image": "https://dynamic-media-cdn.tripadvisor.com/media/photo-o/1c/ea/a1/af/img-20210429-115145-largejpg.jpg?w=1000&s=1", "address": "122 Da Gama Road Shop 7, Magna Tubes Trio, Jeffreys Bay 6330 South Africa", "lat": -34.03577, "lng": 24.92969, "ref_id": 19096057, "rating": 5, "num_reviews": 0, "website": "http://boogieslidenjive.com", "contact_phone": "+27 81 361 6959", "contact_email": "boogieslidenjive@gmail.com", "status": 1, "source_type": 1, "numberReviews": 2}, {"name": "Pot O'Curry", "type": "restaurant", "image": "https://dynamic-media-cdn.tripadvisor.com/media/photo-o/1b/e5/35/3e/pot-o-curry-takeaway.jpg?w=1000&s=1", "address": "Bonza Bay Road, East London South Africa", "lat": null, "lng": null, "ref_id": 21223394, "rating": 4.5, "num_reviews": 0, "website": "http://www.potocurry.com", "contact_phone": "+27 72 538 7968", "contact_email": null, "status": 1, "source_type": 1, "numberReviews": 3}, {"name": "Vero's Restaurant and Take Away", "type": "restaurant", "image": "https://dynamic-media-cdn.tripadvisor.com/media/photo-o/12/aa/9e/3e/20180414-120545-largejpg.jpg?w=1000&s=1", "address": "Willowmore, Baviaanskloof Nature Reserve South Africa", "lat": -33.29523, "lng": 23.48653, "ref_id": 9880698, "rating": 4.5, "num_reviews": 0, "website": null, "contact_phone": "+27 44 923 1818", "contact_email": null, "status": 1, "source_type": 1, "numberReviews": 12}, {"name": "Vino & Cuppuccino", "type": "restaurant", "image": null, "address": "7 Shone Street, Stutterheim 4930 South Africa", "lat": -32.56954, "lng": 27.42559, "ref_id": 8091706, "rating": 4.5, "num_reviews": 0, "website": null, "contact_phone": "+27 43 683 1383", "contact_email": null, "status": 1, "source_type": 1, "numberReviews": 3}, {"name": "Dulce Cafe", "type": "restaurant", "image": "https://dynamic-media-cdn.tripadvisor.com/media/photo-o/06/bb/40/04/cheese-cake.jpg?w=1000&s=1", "address": "1 1st Avenue, Port Elizabeth South Africa", "lat": -33.98339, "lng": 25.6598, "ref_id": 4971543, "rating": 3.5, "num_reviews": 0, "website": null, "contact_phone": "+27 41 368 2672", "contact_email": null, "status": 1, "source_type": 1, "numberReviews": 8}, {"name": "The Eatery", "type": "restaurant", "image": null, "address": "Estate on the r336 to Kirkwood Presso Gerald's gift guest house, Addo, Sundays River Valley 6115 South Africa", "lat": -33.54775, "lng": 25.68964, "ref_id": 26555225, "rating": -1, "num_reviews": 0, "website": null, "contact_phone": "+27 71 854 9096", "contact_email": null, "status": 1, "source_type": 1, "numberReviews": 0}, {"name": "Hungry Lion Cradock Church Street", "type": "restaurant", "image": "https://dynamic-media-cdn.tripadvisor.com/media/photo-o/2c/8b/01/d1/hungry-lion-1.jpg?w=1000&s=1", "address": "Church Street, Cradock 5880 South Africa", "lat": -32.16962, "lng": 25.616419, "ref_id": 27935347, "rating": -1, "num_reviews": 0, "website": "http://www.hungrylion.co.za/?utm_source=tripadvisor&utm_medium=website_link&utm_campaign=sp&utm_content=sp", "contact_phone": "+27 87 288 9441", "contact_email": "talktous@hungrylion.co.za", "status": 1, "source_type": 1, "numberReviews": 0}, {"name": "KFC Jeffrey's Bay", "type": "restaurant", "image": "https://dynamic-media-cdn.tripadvisor.com/media/photo-o/26/b8/51/48/kfc-logo.jpg?w=1000&s=1", "address": "117 Da Gama Rd Ferreira Town, Jeffreys Bay 6330 South Africa", "lat": -34.037586, "lng": 24.929909, "ref_id": 24168795, "rating": 3.5, "num_reviews": 0, "website": "http://www.kfc.co.za", "contact_phone": "+27 45 108 0001", "contact_email": "jeffreysbay2@kfcec.co.za", "status": 1, "source_type": 1, "numberReviews": 3}, {"name": "Debonairs Pizza", "type": "restaurant", "image": null, "address": "2 Cathcart Road, Queenstown 5320 South Africa", "lat": -31.898895, "lng": 26.878073, "ref_id": 17787231, "rating": 3.5, "num_reviews": 0, "website": "https://location.debonairspizza.co.za/komani?y_source=1_MTI0NTExMTMtNzY5LWxvY2F0aW9uLndlYnNpdGU%3D", "contact_phone": "+27 45 838 1235", "contact_email": "info@debonairspizza.co.za", "status": 1, "source_type": 1, "numberReviews": 3}, {"name": "Debonairs Pizza", "type": "restaurant", "image": "https://dynamic-media-cdn.tripadvisor.com/media/photo-o/29/11/a1/9e/caption.jpg?w=1000&s=1", "address": "Phalo Avenue Engen Bisho, Bhisho 5605 South Africa", "lat": -32.849533, "lng": 27.438128, "ref_id": 23436259, "rating": 5, "num_reviews": 0, "website": "https://location.debonairspizza.co.za/engen-bisho?y_source=1_MjQyODk1MjAtNzY5LWxvY2F0aW9uLndlYnNpdGU%3D", "contact_phone": "+27 40 880 0121", "contact_email": "info@debonairspizza.co.za", "status": 1, "source_type": 1, "numberReviews": 2}, {"name": "Wimpy", "type": "restaurant", "image": "https://dynamic-media-cdn.tripadvisor.com/media/photo-o/2b/a0/20/9c/caption.jpg?w=1000&s=1", "address": "Top Up Petroleum Despatch 27 Main Street, Despatch 6220 South Africa", "lat": -33.799145, "lng": 25.466585, "ref_id": 27114250, "rating": 5, "num_reviews": 0, "website": "https://location.wimpy.co.za/top-up-despatch?y_source=1_mtayndkyntu4ni03njktbg9jyxrpb24ud2vic2l0zq%3d%3d", "contact_phone": "+27 41-880-0292", "contact_email": "wimpydespatch@algoanet.com", "status": 1, "source_type": 1, "numberReviews": 1}, {"name": "Bella's Harbour Kitchen", "type": "restaurant", "image": "https://dynamic-media-cdn.tripadvisor.com/media/photo-o/1c/27/53/b6/bella-s-harbour-kitchen.jpg?w=1000&s=1", "address": "St.Francis Harbour side, Port St Francis South Africa", "lat": -34.18326, "lng": 24.85159, "ref_id": 15709107, "rating": 3, "num_reviews": 0, "website": null, "contact_phone": "+27 83 419 0199", "contact_email": null, "status": 1, "source_type": 1, "numberReviews": 10}, {"name": "Eddie Macs at VP", "type": "restaurant", "image": "https://dynamic-media-cdn.tripadvisor.com/media/photo-o/13/94/5f/49/getlstd-property-photo.jpg?w=1000&s=1", "address": "Victoria Park Drive, Port Elizabeth 6001 South Africa", "lat": -33.97483, "lng": 25.6171, "ref_id": 14793351, "rating": 3.5, "num_reviews": 0, "website": "http://www.eddiemacsatvp.com/", "contact_phone": "+27 83 225 1093", "contact_email": "vpclub@mwebbiz.co.za", "status": 1, "source_type": 1, "numberReviews": 3}, {"name": "Chairman's Bistro & Lounge", "type": "restaurant", "image": null, "address": "12 Esplanade Road, Quigney, East London, East London 5201 South Africa", "lat": -33.01306, "lng": 27.90809, "ref_id": 17605063, "rating": 5, "num_reviews": 0, "website": "http://www.chairmans.co.za", "contact_phone": "+27 43 050 5842", "contact_email": "luxolo@picklink.co.za", "status": 1, "source_type": 1, "numberReviews": 1}, {"name": "Death by Coffee", "type": "restaurant", "image": "https://dynamic-media-cdn.tripadvisor.com/media/photo-o/18/cd/5e/7b/img-20190816-wa0007-largejpg.jpg?w=1000&s=1", "address": "7 High Street Mount Pleasant, Port Elizabeth 6070 South Africa", "lat": -33.99543, "lng": 25.53683, "ref_id": 18031912, "rating": 5, "num_reviews": 0, "website": "https://www.facebook.com/DeathbyCoffeeRoastery/", "contact_phone": "+27 74 649 1810", "contact_email": null, "status": 1, "source_type": 1, "numberReviews": 2}, {"name": "Padlangs Restaurant & Gift Shop", "type": "restaurant", "image": "https://dynamic-media-cdn.tripadvisor.com/media/photo-o/16/2a/ab/c4/imagine-sitting-on-a.jpg?w=1000&s=1", "address": "Baviaanskloof Road R331, Port Elizabeth 6001 South Africa", "lat": null, "lng": null, "ref_id": 3321474, "rating": 4, "num_reviews": 0, "website": "http://padlangs.com/", "contact_phone": "+27 42 283 0798", "contact_email": "baviaans@padlangs.net", "status": 1, "source_type": 1, "numberReviews": 11}, {"name": "Zebro's Port Elizabeth", "type": "restaurant", "image": "https://dynamic-media-cdn.tripadvisor.com/media/photo-o/22/76/cc/e1/zebro-s-chicken.jpg?w=1000&s=1", "address": "24 Goven Mbeki, Central, Port Elizabeth 6001 South Africa", "lat": -33.96139, "lng": 25.622501, "ref_id": 5849498, "rating": 4, "num_reviews": 0, "website": "http://www.zebros.co.za/?utm_source=Tripadvisor&utm_medium=website_link&utm_campaign=SP&utm_content=SP", "contact_phone": "+27 41 585 4632", "contact_email": "marketing@tfcop.co.za", "status": 1, "source_type": 1, "numberReviews": 5}, {"name": "Steers", "type": "restaurant", "image": null, "address": "Shell 1 Barkly Street, Aliwal North 9750 South Africa", "lat": -30.686787, "lng": 26.706554, "ref_id": 17788170, "rating": 5, "num_reviews": 0, "website": "https://location.steers.co.za/shell-aliwal-north?y_source=1_MTI0MzA2MTAtNzY5LWxvY2F0aW9uLndlYnNpdGU%3D", "contact_phone": "+27 51 633 2176", "contact_email": "info@steers.co.za", "status": 1, "source_type": 1, "numberReviews": 2}, {"name": "Wimpy", "type": "restaurant", "image": null, "address": "Bridgegate Centre, Shop 017 Corner Robinson And Aliwal Street, Aliwal North 9750 South Africa", "lat": -30.687445, "lng": 26.705473, "ref_id": 17788422, "rating": 5, "num_reviews": 0, "website": "https://location.wimpy.co.za/aliwal-north?y_source=1_MTIzNjA3MjctNzY5LWxvY2F0aW9uLndlYnNpdGU%3D", "contact_phone": "+27 51 633 2223", "contact_email": "info@wimpy.co.za", "status": 1, "source_type": 1, "numberReviews": 2}, {"name": "Merak Port Eilzabeth", "type": "restaurant", "image": null, "address": "261 Main Road Gqeberha, Port Elizabeth South Africa", "lat": -33.982117, "lng": 25.567339, "ref_id": 27533471, "rating": 3, "num_reviews": 0, "website": null, "contact_phone": null, "contact_email": null, "status": 1, "source_type": 1, "numberReviews": 2}, {"name": "Coffee2Day", "type": "restaurant", "image": "https://dynamic-media-cdn.tripadvisor.com/media/photo-o/16/6f/f3/dc/getlstd-property-photo.jpg?w=1000&s=1", "address": "Al Ansaar Building,Bell Road,Parkside, Port Elizabeth 6020 South Africa", "lat": -33.922134, "lng": 25.554043, "ref_id": 16663146, "rating": 5, "num_reviews": 0, "website": "http://coffee2day-cafe.business.site/", "contact_phone": "+27 81 526 5802", "contact_email": "coffee2daysa@gmail.com", "status": 1, "source_type": 1, "numberReviews": 1}, {"name": "Wimpy", "type": "restaurant", "image": null, "address": "Engen 1 Stop Sherwoods 20 Voortrekker Road, Humansdorp 6300 South Africa", "lat": -34.026352, "lng": 24.77196, "ref_id": 17788421, "rating": 3.5, "num_reviews": 0, "website": "https://location.wimpy.co.za/engen-1-stop-humansdorp-(sherwoods-humansdorp)?y_source=1_MTIzNjA3MTYtNzY5LWxvY2F0aW9uLndlYnNpdGU%3D", "contact_phone": "+27 42 295 2154", "contact_email": "general@sherwoods93.co.za", "status": 1, "source_type": 1, "numberReviews": 4}, {"name": "M & J's Cottage Kitchen", "type": "restaurant", "image": "https://dynamic-media-cdn.tripadvisor.com/media/photo-o/07/0a/0f/40/the-brekkie.jpg?w=1000&s=1", "address": "Birha Crafts Building, Wesley South Africa", "lat": null, "lng": null, "ref_id": 7275849, "rating": 4, "num_reviews": 0, "website": null, "contact_phone": "+27 40 677 1036", "contact_email": null, "status": 1, "source_type": 1, "numberReviews": 8}, {"name": "McDonald's Boardwalk Mall", "type": "restaurant", "image": "https://dynamic-media-cdn.tripadvisor.com/media/photo-o/2a/5d/29/3d/mcdonald-s-boardwalk.jpg?w=1000&s=1", "address": "Boardwalk Road Boardwalk Mall, Summerstrand, Port Elizabeth 6001 South Africa", "lat": -33.986507, "lng": 25.657372, "ref_id": 26650309, "rating": 1, "num_reviews": 0, "website": null, "contact_phone": "+27 41 504 6590", "contact_email": "customer.care@za.mcd.com", "status": 1, "source_type": 1, "numberReviews": 1}, {"name": "KFC Vincent Park", "type": "restaurant", "image": "https://dynamic-media-cdn.tripadvisor.com/media/photo-o/26/d2/e8/aa/kfc-logo.jpg?w=1000&s=1", "address": "18 Devereaux Ave, East London 5247 South Africa", "lat": -32.984207, "lng": 27.9023, "ref_id": 24169087, "rating": 5, "num_reviews": 0, "website": "http://www.kfc.co.za", "contact_phone": "+27 43 108 0004", "contact_email": "vincentpark@kfcec.co.za", "status": 1, "source_type": 1, "numberReviews": 1}, {"name": "Biloxi Spur Steak Ranch", "type": "restaurant", "image": "https://dynamic-media-cdn.tripadvisor.com/media/photo-o/1a/27/ab/b7/original-spur-burger.jpg?w=1000&s=1", "address": "Walker Drive Extension Shop LG3 & LG3.1, Baywest Mall, Port Elizabeth 6001 South Africa", "lat": -33.95603, "lng": 25.47351, "ref_id": 8299610, "rating": 3, "num_reviews": 0, "website": "http://www.spursteakranches.com/za/restaurant/biloxi-spur?utm_source=Tripadvisor&utm_medium=website_link&utm_campaign=SP&utm_content=SP", "contact_phone": "+27 41 492 0368", "contact_email": "biloxi@spursteakranch.co.za", "status": 1, "source_type": 1, "numberReviews": 34}, {"name": "Shambah Restaurant", "type": "restaurant", "image": "https://dynamic-media-cdn.tripadvisor.com/media/photo-o/07/89/1a/4a/shambah-restaurant.jpg?w=1000&s=1", "address": "Cypraea Sands Estate Schafli Road, East Coast Resorts Road, East London 5259 South Africa", "lat": -32.92413, "lng": 27.97933, "ref_id": 7372193, "rating": 4.5, "num_reviews": 0, "website": null, "contact_phone": "+27 79 523 6671", "contact_email": null, "status": 1, "source_type": 1, "numberReviews": 3}, {"name": "Cornerstone Coffee", "type": "restaurant", "image": "https://dynamic-media-cdn.tripadvisor.com/media/photo-o/19/7b/bb/3e/photo0jpg.jpg?w=1000&s=1", "address": "27 De Villiers Street, Barkly East 9786 South Africa", "lat": -30.965284, "lng": 27.593348, "ref_id": 15676070, "rating": 5, "num_reviews": 0, "website": "https://www.facebook.com/cornerstonecoffee.be/", "contact_phone": null, "contact_email": null, "status": 1, "source_type": 1, "numberReviews": 2}, {"name": "Louis Pub", "type": "restaurant", "image": null, "address": "1 Tom Scott Rd, Alicedale 6135 South Africa", "lat": -33.88913, "lng": 25.58692, "ref_id": 9801216, "rating": 5, "num_reviews": 0, "website": "http://www.facebook.com/Louis-pub-250746948463651/timeline", "contact_phone": "+27 82 921 3437", "contact_email": null, "status": 1, "source_type": 1, "numberReviews": 2}, {"name": "African Dream", "type": "restaurant", "image": null, "address": "Blue Crane Route, Somerset East 5850 South Africa", "lat": -32.71888, "lng": 25.588, "ref_id": 8779162, "rating": 4.5, "num_reviews": 0, "website": null, "contact_phone": null, "contact_email": null, "status": 1, "source_type": 1, "numberReviews": 3}, {"name": "Kommietjies Bar & Restaurant", "type": "restaurant", "image": null, "address": "2054 Gazania Street, Cradock 5880 South Africa", "lat": -32.166367, "lng": 25.60408, "ref_id": 23961664, "rating": -1, "num_reviews": 0, "website": null, "contact_phone": "+27 65 622 2540", "contact_email": "kommietjies@gmail.com", "status": 1, "source_type": 1, "numberReviews": 0}, {"name": "Taste Kitchen", "type": "restaurant", "image": "https://dynamic-media-cdn.tripadvisor.com/media/photo-o/09/96/39/0b/taste-kitchen.jpg?w=1000&s=1", "address": "C/O Jeffreys Str & Schelde Str, Jeffreys Bay 6330 South Africa", "lat": -34.050304, "lng": 24.92223, "ref_id": 8826801, "rating": 5, "num_reviews": 0, "website": "http://www.3fatfish.co.za", "contact_phone": "+27 42 293 4147", "contact_email": "info@3fatfish.co.za", "status": 1, "source_type": 1, "numberReviews": 3}, {"name": "Doppio Zero", "type": "restaurant", "image": null, "address": "Boardwalk Mall Summerstrand, Port Elizabeth South Africa", "lat": -33.984386, "lng": 25.659365, "ref_id": 25356771, "rating": 3, "num_reviews": 0, "website": null, "contact_phone": null, "contact_email": null, "status": 1, "source_type": 1, "numberReviews": 7}, {"name": "PRIMI", "type": "restaurant", "image": "https://dynamic-media-cdn.tripadvisor.com/media/photo-o/15/4b/e2/e5/meal-5.jpg?w=1000&s=1", "address": "Airport W Road Shop 72, Port Elizabeth International Airport, Port Elizabeth 6011 South Africa", "lat": -33.97914, "lng": 25.62159, "ref_id": 10831246, "rating": 2.5, "num_reviews": 0, "website": "https://www.primi-world.co.za/?utm_source=tripadvisor&utm_medium=website_link&utm_campaign=sp&utm_content=sp", "contact_phone": "+27 41 581 2915", "contact_email": "pea@primi-restaurants.com", "status": 1, "source_type": 1, "numberReviews": 34}, {"name": "Hand Made Coffees Spargs", "type": "restaurant", "image": null, "address": "On right at main Spargs entrance, East London South Africa", "lat": -32.99366, "lng": 27.86606, "ref_id": 16657201, "rating": 5, "num_reviews": 0, "website": null, "contact_phone": "+27 79 388 7654", "contact_email": null, "status": 1, "source_type": 1, "numberReviews": 1}, {"name": "Hungry Lion Port Alfred Heritage Mall", "type": "restaurant", "image": "https://dynamic-media-cdn.tripadvisor.com/media/photo-o/2c/9f/c3/d8/5.jpg?w=1000&s=1", "address": "Biscay Road Shop 1, Heritage Mall, Port Alfred 6170 South Africa", "lat": -33.594006, "lng": 26.884632, "ref_id": 27968486, "rating": -1, "num_reviews": 0, "website": "http://www.hungrylion.co.za/?utm_source=tripadvisor&utm_medium=website_link&utm_campaign=sp&utm_content=sp", "contact_phone": "+27 87 288 9435", "contact_email": "talktous@hungrylion.co.za", "status": 1, "source_type": 1, "numberReviews": 0}, {"name": "Wimpy", "type": "restaurant", "image": null, "address": "Hemingways Mall, Shop Ug36 Corner Western Avenue And Two Rivers Drive, East London 5201 South Africa", "lat": -32.9713, "lng": 27.902077, "ref_id": 10762163, "rating": 4, "num_reviews": 0, "website": "https://location.wimpy.co.za/hemingways-mall?y_source=1_MTIzNjA1ODktNzY5LWxvY2F0aW9uLndlYnNpdGU%3D", "contact_phone": "+27 43-721-0647", "contact_email": "info@wimpy.co.za", "status": 1, "source_type": 1, "numberReviews": 5}, {"name": "Bushbuck Ridge Treehouse Restaurant", "type": "restaurant", "image": null, "address": "Bushbuck Ridge Game Farm, Port Elizabeth South Africa", "lat": -33.96156, "lng": 25.33907, "ref_id": 15273146, "rating": 3, "num_reviews": 0, "website": "https://www.facebook.com/pages/category/Fast-Food-Restaurant/Bushbuck-Ridge-Treehouse-Restaurant-184655164881179/", "contact_phone": "+27 83 244 9191", "contact_email": null, "status": 1, "source_type": 1, "numberReviews": 4}, {"name": "Hungry Lion", "type": "restaurant", "image": "https://dynamic-media-cdn.tripadvisor.com/media/photo-o/2a/c7/35/f7/3.jpg?w=1000&s=1", "address": "Cnr Walker & Downing Street Unit 22 Market Square Centre, King William's Town 05601 South Africa", "lat": -32.875004, "lng": 27.390806, "ref_id": 25414573, "rating": -1, "num_reviews": 0, "website": "https://www.hungrylion.co.za/store-locator/", "contact_phone": "+27 43 642 2847", "contact_email": "talktous@hungrylion.co.za", "status": 1, "source_type": 1, "numberReviews": 0}, {"name": "Yami Pizza Amalinda", "type": "restaurant", "image": "https://dynamic-media-cdn.tripadvisor.com/media/photo-o/22/64/c9/e2/yami-pizza.jpg?w=1000&s=1", "address": "18 Amalinda Main Road, East London 5247 South Africa", "lat": -32.99602, "lng": 27.873856, "ref_id": 23788862, "rating": -1, "num_reviews": 0, "website": "http://www.yamipizza.co.za/?utm_source=Tripadvisor&utm_medium=website_link&utm_campaign=SP&utm_content=SP", "contact_phone": "+27 87 654 9214", "contact_email": "marketing@tfcop.co.za", "status": 1, "source_type": 1, "numberReviews": 0}, {"name": "Roman's Pizza PE Walmer Park", "type": "restaurant", "image": "https://dynamic-media-cdn.tripadvisor.com/media/photo-o/28/06/dd/f3/img-0013.jpg?w=1000&s=1", "address": "Cnr Main Road & 16th Avenue, Port Elizabeth 6070 South Africa", "lat": -33.98059, "lng": 25.555826, "ref_id": 23867795, "rating": -1, "num_reviews": 0, "website": "http://romanspizza.co.za/?utm_medium=TripAdvisor&utm_source=Roman%27s%20Pizza%20PE%20Walmer%20Park&utm_campaign=TripAdvisor%20Store%20Listings&utm_content=BPD%20Pins", "contact_phone": "+27 41 820 2020", "contact_email": "customerservice@romanspizza.com", "status": 1, "source_type": 1, "numberReviews": 0}, {"name": "Orazest", "type": "restaurant", "image": null, "address": "Marine Drive 45 Boardwalk Cntr, Port Elizabeth 6019 South Africa", "lat": -33.98229, "lng": 25.658436, "ref_id": 17787809, "rating": -1, "num_reviews": 0, "website": null, "contact_phone": "+27 41 583 2856", "contact_email": "tandiswa.ngxukumeshe@nmmu.ac.za", "status": 1, "source_type": 1, "numberReviews": 0}, {"name": "McDonald's Linton Grange", "type": "restaurant", "image": "https://dynamic-media-cdn.tripadvisor.com/media/photo-o/19/2d/ad/6f/img.jpg?w=1000&s=1", "address": "Cnr Cape Road & Bramlin Road Mill Park, Port Elizabeth 6001 South Africa", "lat": -33.96219, "lng": 25.60622, "ref_id": 12419891, "rating": 3, "num_reviews": 0, "website": "http://www.mcdonalds.co.za/", "contact_phone": "+27 41 354 5413", "contact_email": "lintongrange@za.mcd.com", "status": 1, "source_type": 1, "numberReviews": 4}, {"name": "Rock Cafe & Drumming", "type": "restaurant", "image": null, "address": "1 Main road, Coffee Bay, Eastern Cape Bomvu River Mouth, Coffee Bay, Coffee Bay 5082 South Africa", "lat": null, "lng": null, "ref_id": 20174583, "rating": -1, "num_reviews": 0, "website": null, "contact_phone": "+27 76 093 8448", "contact_email": null, "status": 1, "source_type": 1, "numberReviews": 0}, {"name": "Just Breathe", "type": "restaurant", "image": null, "address": "50 Diaz Road Jeffrey's Bay, Jeffreys Bay 6330 South Africa", "lat": -34.056572, "lng": 24.923069, "ref_id": 23436010, "rating": -1, "num_reviews": 0, "website": "https://www.facebook.com/justbreathejeffreysbay/about/?ref=page_internal", "contact_phone": "+27 62 450 8261", "contact_email": "smitriki88@gmail.com", "status": 1, "source_type": 1, "numberReviews": 0}, {"name": "Hungry Lion Madeira Plaza", "type": "restaurant", "image": "https://dynamic-media-cdn.tripadvisor.com/media/photo-o/2b/25/85/24/hungry-lion.jpg?w=1000&s=1", "address": "Shop 1, Cnr Madeira & Elliot Street, Mthatha 5099 South Africa", "lat": -31.585833, "lng": 28.790112, "ref_id": 25412658, "rating": -1, "num_reviews": 0, "website": "http://www.hungrylion.co.za/?utm_source=tripadvisor&utm_medium=website_link&utm_campaign=sp&utm_content=sp", "contact_phone": "+27 41 492 5560", "contact_email": "talktous@hungrylion.co.za", "status": 1, "source_type": 1, "numberReviews": 0}, {"name": "Hungry Lion East London Taxi City", "type": "restaurant", "image": "https://dynamic-media-cdn.tripadvisor.com/media/photo-o/2b/1b/35/f0/hungry-lion.jpg?w=1000&s=1", "address": "74 Buffalo Street, East London 5200 South Africa", "lat": -33.015926, "lng": 27.902176, "ref_id": 26875846, "rating": -1, "num_reviews": 0, "website": "http://www.hungrylion.co.za/?utm_source=tripadvisor&utm_medium=website_link&utm_campaign=sp&utm_content=sp", "contact_phone": "+27 87 288 9414", "contact_email": "talktous@hungrylion.co.za", "status": 1, "source_type": 1, "numberReviews": 0}, {"name": "Hungry Lion Grahamstown Center", "type": "restaurant", "image": "https://dynamic-media-cdn.tripadvisor.com/media/photo-o/2b/1b/71/fe/hungry-lion.jpg?w=1000&s=1", "address": "109 High Street Shop 1, Carlton Center, Grahamstown 6139 South Africa", "lat": -33.31093, "lng": 26.524794, "ref_id": 24919450, "rating": -1, "num_reviews": 0, "website": "http://www.hungrylion.co.za/?utm_source=Tripadvisor&utm_medium=website_link&utm_campaign=SP&utm_content=SP", "contact_phone": "+27 46 492 0490", "contact_email": "talktous@hungrylion.co.za", "status": 1, "source_type": 1, "numberReviews": 0}, {"name": "KFC Port Alfred", "type": "restaurant", "image": "https://dynamic-media-cdn.tripadvisor.com/media/photo-o/26/c0/fe/f4/kfc-logo.jpg?w=1000&s=1", "address": "Main St, Port Alfred 6170 South Africa", "lat": -33.592804, "lng": 26.883272, "ref_id": 24168955, "rating": -1, "num_reviews": 0, "website": "http://www.kfc.co.za", "contact_phone": "+27 860 100 222", "contact_email": "kfcportalfred@baobabkhulisani.co.za", "status": 1, "source_type": 1, "numberReviews": 0}, {"name": "Jeffs place", "type": "restaurant", "image": null, "address": "Mdantsane Nu3, East London South Africa", "lat": -32.92895, "lng": 27.75893, "ref_id": 15100417, "rating": -1, "num_reviews": 0, "website": "https://www.facebook.com/Jeffs-Place-987142938008340/", "contact_phone": "+27 62 858 9402", "contact_email": null, "status": 1, "source_type": 1, "numberReviews": 0}, {"name": "KFC Port St Johns", "type": "restaurant", "image": "https://dynamic-media-cdn.tripadvisor.com/media/photo-o/26/c2/e7/e1/kfc-logo.jpg?w=1000&s=1", "address": "Westgate St, Port St Johns 5120 South Africa", "lat": -31.619894, "lng": 29.544922, "ref_id": 24168958, "rating": -1, "num_reviews": 0, "website": "http://www.kfc.co.za", "contact_phone": "+27 47 564 1451", "contact_email": "kfcpsj@hit.co.za", "status": 1, "source_type": 1, "numberReviews": 0}, {"name": "Cortile Caffe", "type": "restaurant", "image": null, "address": "3/71 Walkerville Terrace, Adelaide 5081 South Africa", "lat": -33.96488, "lng": 25.61648, "ref_id": 7285064, "rating": 3, "num_reviews": 0, "website": null, "contact_phone": "0882695511", "contact_email": null, "status": 1, "source_type": 1, "numberReviews": 1}, {"name": "Hungry Lion East London Fleet Street", "type": "restaurant", "image": "https://dynamic-media-cdn.tripadvisor.com/media/photo-o/2b/e5/e1/43/hl-family-platter.jpg?w=1000&s=1", "address": "Fleet Street, East London 5201 South Africa", "lat": -33.019554, "lng": 27.904621, "ref_id": 27687339, "rating": -1, "num_reviews": 0, "website": "http://www.hungrylion.co.za/?utm_source=tripadvisor&utm_medium=website_link&utm_campaign=sp&utm_content=sp", "contact_phone": "+27 87 288 9421", "contact_email": "talktous@hungrylion.co.za", "status": 1, "source_type": 1, "numberReviews": 0}, {"name": "Oriental Delights", "type": "restaurant", "image": null, "address": "28 Fowler Street Sidwell, Rooks International Building, Port Elizabeth 6001 South Africa", "lat": -33.92048, "lng": 25.59363, "ref_id": 3582513, "rating": -1, "num_reviews": 0, "website": "http://orientaldelights.wozaonline.co.za/", "contact_phone": "+27 73 614 3017", "contact_email": null, "status": 1, "source_type": 1, "numberReviews": 0}, {"name": "Debonairs Pizza", "type": "restaurant", "image": null, "address": "Kenje Building, Shop 2 16 Green Street, Matatiele 4730 South Africa", "lat": -30.3399, "lng": 28.809954, "ref_id": 17787082, "rating": -1, "num_reviews": 0, "website": "https://location.debonairspizza.co.za/matatiele?y_source=1_MTI0NTA4MjQtNzY5LWxvY2F0aW9uLndlYnNpdGU%3D", "contact_phone": "+27 39 737 3575", "contact_email": "info@debonairspizza.co.za", "status": 1, "source_type": 1, "numberReviews": 0}, {"name": "KFC Mthatha Engen", "type": "restaurant", "image": "https://dynamic-media-cdn.tripadvisor.com/media/photo-o/26/b2/60/9a/kfc-logo.jpg?w=1000&s=1", "address": "Cnr Tudor Ndamase Ave & Spring St, Mthatha 5100 South Africa", "lat": -31.597273, "lng": 28.79097, "ref_id": 24168898, "rating": -1, "num_reviews": 0, "website": "http://www.kfc.co.za", "contact_phone": "+27 860 100 222", "contact_email": null, "status": 1, "source_type": 1, "numberReviews": 0}, {"name": "Fishaways", "type": "restaurant", "image": null, "address": "Corner Tutor Ndamase and Erroll Sprigg Bt Ngebs city, Mthatha 5099 South Africa", "lat": -31.596613, "lng": 28.787758, "ref_id": 17812676, "rating": -1, "num_reviews": 0, "website": "https://location.fishaways.co.za/engen-n2-mthatha?y_source=1_MTI0NDA3NTUtNzY5LWxvY2F0aW9uLndlYnNpdGU%3D", "contact_phone": "+27 47 150 0106", "contact_email": "info@fishaways.co.za", "status": 1, "source_type": 1, "numberReviews": 0}, {"name": "The Farmhouse", "type": "restaurant", "image": "https://dynamic-media-cdn.tripadvisor.com/media/photo-o/1c/e1/23/34/newly-renovated.jpg?w=1000&s=1", "address": "162 Voortrekker Rd, Hofmeyr 5930 South Africa", "lat": -31.65308, "lng": 25.80455, "ref_id": 21351664, "rating": 4.5, "num_reviews": 0, "website": "https://www.facebook.com/thefarmhouseza/", "contact_phone": "+27 87 807 8522", "contact_email": null, "status": 1, "source_type": 1, "numberReviews": 10}, {"name": "KFC Greenfields", "type": "restaurant", "image": "https://dynamic-media-cdn.tripadvisor.com/media/photo-o/28/76/de/ee/self-ordering-kiosk.jpg?w=1000&s=1", "address": "Buffaloview Rd Cnr Settlers Way, East London 5201 South Africa", "lat": -33.035324, "lng": 27.86771, "ref_id": 24179326, "rating": -1, "num_reviews": 0, "website": "https://www.facebook.com/kfc-1163188277125257/", "contact_phone": "+27 43 108 0006", "contact_email": "greenfields@kfcec.co.za", "status": 1, "source_type": 1, "numberReviews": 0}, {"name": "Steers", "type": "restaurant", "image": null, "address": "Engen Kenton On Sea Cnr R72 and Kariega Road, Kenton-on-Sea 6191 South Africa", "lat": -33.68222, "lng": 26.67839, "ref_id": 26353501, "rating": -1, "num_reviews": 0, "website": "https://location.steers.co.za/engen-kenton-on-sea?y_source=1_OTE5MzQ0MjAtNzY5LWxvY2F0aW9uLndlYnNpdGU%3D", "contact_phone": "+27 83 623 3748", "contact_email": "info@steers.co.za", "status": 1, "source_type": 1, "numberReviews": 0}, {"name": "Fishaways", "type": "restaurant", "image": null, "address": "Phalo Avenue Engen Bisho, Bhisho 5605 South Africa", "lat": -32.849663, "lng": 27.438215, "ref_id": 23445857, "rating": -1, "num_reviews": 0, "website": "https://location.fishaways.co.za/engen-bisho?y_source=1_MjQyODk1MTEtNzY5LWxvY2F0aW9uLndlYnNpdGU%3D", "contact_phone": "+27 40 880 0123", "contact_email": "siyogcobisa@gmail.com", "status": 1, "source_type": 1, "numberReviews": 0}, {"name": "KFC Middelburg Wc", "type": "restaurant", "image": "https://dynamic-media-cdn.tripadvisor.com/media/photo-o/26/c6/c9/78/kfc-logo.jpg?w=1000&s=1", "address": "Cnr Meintjies & Van Der Wald St, Middelburg 5900 South Africa", "lat": -31.494135, "lng": 25.005875, "ref_id": 24168884, "rating": -1, "num_reviews": 0, "website": "http://www.kfc.co.za", "contact_phone": "+27 860 100 222", "contact_email": null, "status": 1, "source_type": 1, "numberReviews": 0}, {"name": "Hungry Lion Mbeki Avenue 1", "type": "restaurant", "image": "https://dynamic-media-cdn.tripadvisor.com/media/photo-o/2b/25/8b/ac/hungry-lion.jpg?w=1000&s=1", "address": "Govan Mbeki Drive, Port Elizabeth 6001 South Africa", "lat": -33.94604, "lng": 25.605984, "ref_id": 23749460, "rating": -1, "num_reviews": 0, "website": "http://www.hungrylion.co.za/?utm_source=Tripadvisor&utm_medium=website_link&utm_campaign=SP&utm_content=SP", "contact_phone": "+27 41 582 4125", "contact_email": "talktous@hungrylion.co.za", "status": 1, "source_type": 1, "numberReviews": 0}, {"name": "KFC Walker Drive", "type": "restaurant", "image": "https://dynamic-media-cdn.tripadvisor.com/media/photo-o/26/b5/82/64/kfc-logo.jpg?w=1000&s=1", "address": "Walker Drive Shop 2 And 3, Shopping Centre, Port Elizabeth 6025 South Africa", "lat": -33.957607, "lng": 25.502077, "ref_id": 24182731, "rating": 1, "num_reviews": 0, "website": "http://www.kfc.co.za", "contact_phone": "+27 41 541 0103", "contact_email": null, "status": 1, "source_type": 1, "numberReviews": 1}, {"name": "Mugg & Bean On The Move", "type": "restaurant", "image": null, "address": "Dan's Lodge N2 Highway, Mthatha 7142 South Africa", "lat": -31.430307, "lng": 28.860544, "ref_id": 21264249, "rating": -1, "num_reviews": 0, "website": "https://location.muggandbean.co.za/dans-lodge-n2-mthatha-otm?y_source=1_MTcxNTM1MDctNzY5LWxvY2F0aW9uLndlYnNpdGU%3D", "contact_phone": "+27 47 004 0033", "contact_email": "info@muggandbean.co.za", "status": 1, "source_type": 1, "numberReviews": 0}, {"name": "Steers", "type": "restaurant", "image": null, "address": "Shell Ultra City Cathcart Road, Queenstown 5322 South Africa", "lat": -31.902962, "lng": 26.886879, "ref_id": 19097719, "rating": -1, "num_reviews": 0, "website": "https://location.steers.co.za/shell-diner-queenstown?y_source=1_MTI0MzA2NjQtNzY5LWxvY2F0aW9uLndlYnNpdGU%3D", "contact_phone": "+27 45 838 2892", "contact_email": "info@steers.co.za", "status": 1, "source_type": 1, "numberReviews": 0}, {"name": "Fishaways", "type": "restaurant", "image": null, "address": "Midwater Centre, Retail 53 Corner Oranje & Kieskamma Street, Middelburg 1055 South Africa", "lat": -25.789322, "lng": 29.45034, "ref_id": 17787430, "rating": -1, "num_reviews": 0, "website": "https://location.fishaways.co.za/midwater?y_source=1_MTI0NDA3MjYtNzY5LWxvY2F0aW9uLndlYnNpdGU%3D", "contact_phone": "+27 13 591 0402", "contact_email": "info@fishaways.co.za", "status": 1, "source_type": 1, "numberReviews": 0}, {"name": "KFC Cambridge", "type": "restaurant", "image": "https://dynamic-media-cdn.tripadvisor.com/media/photo-o/26/c0/f3/74/kfc-logo.jpg?w=1000&s=1", "address": "26 Queen St Shop 6-6a, Twin Palms Centre, East London 5247 South Africa", "lat": -32.975163, "lng": 27.892931, "ref_id": 24168670, "rating": -1, "num_reviews": 0, "website": "http://www.kfc.co.za", "contact_phone": "+27 860 100 222", "contact_email": null, "status": 1, "source_type": 1, "numberReviews": 0}, {"name": "KFC Flagstaff", "type": "restaurant", "image": "https://dynamic-media-cdn.tripadvisor.com/media/photo-o/26/ce/a2/03/kfc-logo.jpg?w=1000&s=1", "address": "R61, Flagstaff 4810 South Africa", "lat": -31.079983, "lng": 29.501925, "ref_id": 24168743, "rating": -1, "num_reviews": 0, "website": "http://www.kfc.co.za", "contact_phone": "+27 39 252 0162", "contact_email": "kfc-flagstaff@odini.co.za", "status": 1, "source_type": 1, "numberReviews": 0}, {"name": "KFC 17th Quarter", "type": "restaurant", "image": "https://dynamic-media-cdn.tripadvisor.com/media/photo-o/26/af/2a/5f/kfc-logo.jpg?w=1000&s=1", "address": "William Moffat Dr 17th Quarter Complex, Port Elizabeth 6070 South Africa", "lat": -33.98448, "lng": 25.553473, "ref_id": 24177657, "rating": -1, "num_reviews": 0, "website": "http://www.kfc.co.za", "contact_phone": "+27 41 541 0109", "contact_email": "17thquarter@kfcec.co.za", "status": 1, "source_type": 1, "numberReviews": 0}, {"name": "Crema Walmer", "type": "restaurant", "image": null, "address": "154 Main Road, Port Elizabeth 6065 South Africa", "lat": -33.98035, "lng": 25.58142, "ref_id": 23601626, "rating": -1, "num_reviews": 0, "website": null, "contact_phone": "+27 64 770 9049", "contact_email": "crema@roastmaster.co.za", "status": 1, "source_type": 1, "numberReviews": 0}, {"name": "Fishaways", "type": "restaurant", "image": null, "address": "Kennaway Hotel Complex 331 Esplanade Street, East London 5201 South Africa", "lat": -33.017506, "lng": 27.919796, "ref_id": 17835182, "rating": -1, "num_reviews": 0, "website": "https://location.fishaways.co.za/beachfront?y_source=1_MTI0NDA2NjEtNzY5LWxvY2F0aW9uLndlYnNpdGU%3D", "contact_phone": "+27 43 722 1039", "contact_email": "info@fishaways.co.za", "status": 1, "source_type": 1, "numberReviews": 0}, {"name": "Steers", "type": "restaurant", "image": null, "address": "Shop 9 Malcomess Park Cnr Gately Street & St Georges, East London 5219 South Africa", "lat": -33.001957, "lng": 27.905523, "ref_id": 17788152, "rating": -1, "num_reviews": 0, "website": "https://location.steers.co.za/southernwood?y_source=1_MTI0MzA1NzUtNzY5LWxvY2F0aW9uLndlYnNpdGU%3D", "contact_phone": "+27 43 722 8708", "contact_email": "info@steers.co.za", "status": 1, "source_type": 1, "numberReviews": 0}, {"name": "Roots Reggae Cafe & Restaurant", "type": "restaurant", "image": null, "address": "3675+4j, Mdumbi 5100 South Africa", "lat": -31.937187, "lng": 29.209063, "ref_id": 24952994, "rating": -1, "num_reviews": 0, "website": null, "contact_phone": "+27 73 544 7874", "contact_email": "rootsreggaecafe1@gmail.com", "status": 1, "source_type": 1, "numberReviews": 0}, {"name": "Fishaways", "type": "restaurant", "image": null, "address": "R61 Highway Main Street,, Ngcobo 5050 South Africa", "lat": -31.92389, "lng": 26.489405, "ref_id": 25351640, "rating": -1, "num_reviews": 0, "website": "https://location.fishaways.co.za/ngcobo?y_source=1_NTkxNjU0MzktNzY5LWxvY2F0aW9uLndlYnNpdGU%3D", "contact_phone": "+27 47-011-0053", "contact_email": "info@fishaways.co.za", "status": 1, "source_type": 1, "numberReviews": 0}, {"name": "Steers", "type": "restaurant", "image": null, "address": "ERF 260 Flagstaff Township Extension 1, Flagstaff 4810 South Africa", "lat": -31.079582, "lng": 29.493368, "ref_id": 23698031, "rating": -1, "num_reviews": 0, "website": "https://location.steers.co.za/flagstaff-mall?y_source=1_MjY4OTI1MzgtNzY5LWxvY2F0aW9uLndlYnNpdGU%3D", "contact_phone": "+27 87 223 4825", "contact_email": "flagstaffsteers@gmail.com", "status": 1, "source_type": 1, "numberReviews": 0}, {"name": "Debonairs Pizza", "type": "restaurant", "image": null, "address": "Shell Corner Mthatha & Elliot Road, Ngcobo 5050 South Africa", "lat": -31.923887, "lng": 26.489405, "ref_id": 19093193, "rating": -1, "num_reviews": 0, "website": "https://location.debonairspizza.co.za/ngcobo-111347?y_source=1_MTI0NTA4NTAtNzY5LWxvY2F0aW9uLndlYnNpdGU%3D", "contact_phone": "+27 47 001 0052", "contact_email": "info@debonairspizza.co.za", "status": 1, "source_type": 1, "numberReviews": 0}, {"name": "Fishaways", "type": "restaurant", "image": null, "address": "Amalinda Square, Shops 6&7 Corner Kent & Amalinda Main Roads, East London 5201 South Africa", "lat": -32.992813, "lng": 27.867489, "ref_id": 17835184, "rating": -1, "num_reviews": 0, "website": "https://location.fishaways.co.za/amalinda?y_source=1_MTI0NDA3NDktNzY5LWxvY2F0aW9uLndlYnNpdGU%3D", "contact_phone": "+27 43 741 1055", "contact_email": "info@fishaways.co.za", "status": 1, "source_type": 1, "numberReviews": 0}, {"name": "Steers", "type": "restaurant", "image": null, "address": "Mthatha Road Ngcobo, Ngcobo 5050 South Africa", "lat": -31.674988, "lng": 28.00231, "ref_id": 17813408, "rating": -1, "num_reviews": 0, "website": "https://location.steers.co.za/caltex-ngcobo?y_source=1_MTI0MzAyMDktNzY5LWxvY2F0aW9uLndlYnNpdGU%3D", "contact_phone": "+27 47 548 1716", "contact_email": "info@steers.co.za", "status": 1, "source_type": 1, "numberReviews": 0},