[{"name": "Das Feuerschiff LV13", "type": "restaurant", "image": "https://dynamic-media-cdn.tripadvisor.com/media/photo-o/0b/6b/58/f2/das-feuerschiff-lv13.jpg?w=1000&s=1", "address": "Vorsetzen im City-Sporthafen, 20495 Hamburg Germany", "lat": 53.543495, "lng": 9.978535, "ref_id": 1356052, "rating": 4, "num_reviews": 0, "website": "http://www.das-feuerschiff.de", "contact_phone": "+49 40 362553", "contact_email": "lv13@das-feuerschiff.de", "status": 1, "source_type": 1, "numberReviews": 284}, {"name": "Cafe O Fado", "type": "restaurant", "image": "https://dynamic-media-cdn.tripadvisor.com/media/photo-o/12/ad/da/ef/innenraum.jpg?w=1000&s=1", "address": "Hofweg 14, 22085 Hamburg Germany", "lat": 53.5698, "lng": 10.01768, "ref_id": 14003144, "rating": 4.5, "num_reviews": 0, "website": null, "contact_phone": "+494018229868", "contact_email": "cafe.o.fado@gmail.com", "status": 1, "source_type": 1, "numberReviews": 9}, {"name": "Wellingten", "type": "restaurant", "image": "https://dynamic-media-cdn.tripadvisor.com/media/photo-o/0f/32/2d/78/wellingten.jpg?w=1000&s=1", "address": "Wellingsbuettler Weg 91, 22391 Hamburg Germany", "lat": 53.6424, "lng": 10.07712, "ref_id": 8587344, "rating": 3.5, "num_reviews": 0, "website": "http://www.wellingten.de", "contact_phone": "+49 40 5362402", "contact_email": null, "status": 1, "source_type": 1, "numberReviews": 69}, {"name": "Le Crobag", "type": "restaurant", "image": "https://dynamic-media-cdn.tripadvisor.com/media/photo-o/0e/6c/83/db/nice-sandwich-and-proper.jpg?w=1000&s=1", "address": "Am Sandtorpark 6, 20457 Hamburg Germany", "lat": 53.54235, "lng": 9.99562, "ref_id": 10607499, "rating": 3.5, "num_reviews": 0, "website": "http://www.lecrobag.de", "contact_phone": "+49 40 30709379", "contact_email": null, "status": 1, "source_type": 1, "numberReviews": 23}, {"name": "Just Falafels", "type": "restaurant", "image": "https://dynamic-media-cdn.tripadvisor.com/media/photo-o/1a/48/bb/31/unser-falafelbowl-mit.jpg?w=1000&s=1", "address": "Pezolddamm 40, 22175 Hamburg Germany", "lat": 53.62073, "lng": 10.10195, "ref_id": 19493538, "rating": 5, "num_reviews": 0, "website": "http://www.justfalafels.de/", "contact_phone": "+49 40 55645530", "contact_email": "info@justfalafels.de", "status": 1, "source_type": 1, "numberReviews": 5}, {"name": "Mercato Venezia", "type": "restaurant", "image": "https://dynamic-media-cdn.tripadvisor.com/media/photo-o/10/5d/81/95/photo0jpg.jpg?w=1000&s=1", "address": "Eppendorfer Weg 87, 20259 Hamburg Germany", "lat": 53.57305, "lng": 9.95997, "ref_id": 5520254, "rating": 4.5, "num_reviews": 0, "website": "https://www.facebook.com/MercatoVenezia/", "contact_phone": "+49 40 4015853", "contact_email": null, "status": 1, "source_type": 1, "numberReviews": 9}, {"name": "Hanoi Deli Rathaus", "type": "restaurant", "image": "https://dynamic-media-cdn.tripadvisor.com/media/photo-o/19/c0/49/e0/hanoi-deli-rathaus.jpg?w=1000&s=1", "address": "Schauenburgerstr. 49, 20095 Hamburg Germany", "lat": 53.549335, "lng": 9.992981, "ref_id": 18980951, "rating": 4.5, "num_reviews": 0, "website": "https://www.hanoideli-rathaus.de/", "contact_phone": "+49 40 60001910", "contact_email": "post@hanoideli-rathaus.de", "status": 1, "source_type": 1, "numberReviews": 310}, {"name": "TAYAS Kaffeehaus", "type": "restaurant", "image": "https://dynamic-media-cdn.tripadvisor.com/media/photo-o/08/ba/41/a4/tayas-kaffeehaus.jpg?w=1000&s=1", "address": "Papenhuder Str. 36, 22087 Hamburg Germany", "lat": 53.56737, "lng": 10.018869, "ref_id": 8501260, "rating": 4, "num_reviews": 0, "website": "http://www.tayas-kaffeehaus.de", "contact_phone": null, "contact_email": null, "status": 1, "source_type": 1, "numberReviews": 19}, {"name": "Kronos", "type": "restaurant", "image": "https://dynamic-media-cdn.tripadvisor.com/media/photo-o/19/f3/c9/b2/photo0jpg.jpg?w=1000&s=1", "address": "Haidkoppelweg 2, 21465 Reinbek, Schleswig-Holstein Germany", "lat": 53.54906, "lng": 10.23974, "ref_id": 15361601, "rating": 4, "num_reviews": 0, "website": "http://www.restaurant-kronos.com", "contact_phone": "+49 40 7111000", "contact_email": null, "status": 1, "source_type": 1, "numberReviews": 16}, {"name": "Weidenkantine", "type": "restaurant", "image": "https://dynamic-media-cdn.tripadvisor.com/media/photo-o/1d/cf/ae/4c/pancakes.jpg?w=1000&s=1", "address": "Weidenallee 61, 20357 Hamburg Germany", "lat": 53.568363, "lng": 9.963859, "ref_id": 23604444, "rating": 5, "num_reviews": 0, "website": "http://www.weidenkantine.de", "contact_phone": "+49 40 71628805", "contact_email": "mail@weidenkantine.de", "status": 1, "source_type": 1, "numberReviews": 4}, {"name": "Sushibar Bergedorf", "type": "restaurant", "image": "https://dynamic-media-cdn.tripadvisor.com/media/photo-o/1c/3d/11/00/img20201026180533-largejpg.jpg?w=1000&s=1", "address": "Bergedorfer Str. 138, 21029 Hamburg Germany", "lat": 53.48635, "lng": 10.21301, "ref_id": 866294, "rating": 4, "num_reviews": 0, "website": "https://www.facebook.com/132224750160326", "contact_phone": "+49 40 18073686", "contact_email": "", "status": 1, "source_type": 1, "numberReviews": 23}, {"name": "Cafe Winklers", "type": "restaurant", "image": "https://dynamic-media-cdn.tripadvisor.com/media/photo-o/11/05/4d/e7/abendbrot.jpg?w=1000&s=1", "address": "Winklers Platz 2, 22767 Hamburg Germany", "lat": 53.55502, "lng": 9.95645, "ref_id": 7372190, "rating": 4.5, "num_reviews": 0, "website": "", "contact_phone": "+494043270391", "contact_email": null, "status": 1, "source_type": 1, "numberReviews": 15}, {"name": "Hanami", "type": "restaurant", "image": "https://dynamic-media-cdn.tripadvisor.com/media/photo-o/2a/7f/eb/5a/caption.jpg?w=1000&s=1", "address": "Barmbeker Str. 165, 22299 Hamburg Germany", "lat": 53.590324, "lng": 10.011742, "ref_id": 25391574, "rating": 5, "num_reviews": 0, "website": null, "contact_phone": "+49 40 36859950", "contact_email": "trandinhdung1289@gmail.com", "status": 1, "source_type": 1, "numberReviews": 5}, {"name": "Unsicht-Bar", "type": "restaurant", "image": "https://dynamic-media-cdn.tripadvisor.com/media/photo-o/12/14/5b/2b/photo0jpg.jpg?w=1000&s=1", "address": "Kleiner Schaeferkamp 36, 20357 Hamburg Germany", "lat": 53.56654, "lng": 9.96753, "ref_id": 9791828, "rating": 4, "num_reviews": 0, "website": "http://www.unsicht-bar-hamburg.de", "contact_phone": "+49 4146 9330", "contact_email": null, "status": 1, "source_type": 1, "numberReviews": 30}, {"name": "Goa Zone", "type": "restaurant", "image": "https://dynamic-media-cdn.tripadvisor.com/media/photo-o/1b/2b/34/5b/das-beste-an-dem-kalten.jpg?w=1000&s=1", "address": "Bleichenbruecke 9-11 Stadthofe Bleichenhof, 20354 Hamburg Germany", "lat": 53.551613, "lng": 9.98759, "ref_id": 20095469, "rating": 3.5, "num_reviews": 0, "website": "https://www.goa-hamburg.de/", "contact_phone": "+49 40 2296664", "contact_email": "kontakt@goa-hamburg.de", "status": 1, "source_type": 1, "numberReviews": 31}, {"name": "SIMIT Factory", "type": "restaurant", "image": "https://dynamic-media-cdn.tripadvisor.com/media/photo-o/21/f6/86/00/simit-factory-lamacun.jpg?w=1000&s=1", "address": "Fuhlsbuettler Str. 125, 22305 Hamburg Germany", "lat": 53.59025, "lng": 10.04471, "ref_id": 20121110, "rating": 4.5, "num_reviews": 0, "website": "https://www.facebook.com/SIMITfactory", "contact_phone": "+49 40 84301272", "contact_email": null, "status": 1, "source_type": 1, "numberReviews": 5}, {"name": "Das Restaurant in der W\u00e4scherei", "type": "restaurant", "image": "https://dynamic-media-cdn.tripadvisor.com/media/photo-o/11/dc/e3/c7/20180115-120124-largejpg.jpg?w=1000&s=1", "address": "Mexikoring 27-29, 22297 Hamburg Germany", "lat": 53.60399, "lng": 10.02275, "ref_id": 13373452, "rating": 4.5, "num_reviews": 0, "website": "http://die-waescherei.de/Restaurant", "contact_phone": "+49 40 271507135", "contact_email": "restaurant@die-waescherei.de", "status": 1, "source_type": 1, "numberReviews": 8}, {"name": "Domino's Pizza", "type": "restaurant", "image": "https://dynamic-media-cdn.tripadvisor.com/media/photo-o/18/eb/b8/1c/victor-s-bratkartoffel.jpg?w=1000&s=1", "address": "Quedlinburger Weg 78, 22455 Hamburg Germany", "lat": 53.636204, "lng": 9.944792, "ref_id": 16851687, "rating": 4.5, "num_reviews": 0, "website": "https://www.dominos.de/filiale/de-hamburgniendorf-33803", "contact_phone": "+49 40 5558810", "contact_email": "info@dominos.de", "status": 1, "source_type": 1, "numberReviews": 8}, {"name": "Am Kai Restaurant Seafood, Drinks, Elbblick", "type": "restaurant", "image": "https://dynamic-media-cdn.tripadvisor.com/media/photo-o/26/7e/d4/86/unser-restaurant.jpg?w=1000&s=1", "address": "Gro\u00dfe Elbstra\u00dfe 145 B-D, 22767 Hamburg Germany", "lat": 53.54449, "lng": 9.9341, "ref_id": 1010677, "rating": 4, "num_reviews": 0, "website": "http://amkai.hamburg", "contact_phone": "+49 40 38037730", "contact_email": "info@amkai.hamburg", "status": 1, "source_type": 1, "numberReviews": 413}, {"name": "Corfu Grill", "type": "restaurant", "image": "https://dynamic-media-cdn.tripadvisor.com/media/photo-o/0b/a0/9c/28/img-20160414-175917-largejpg.jpg?w=1000&s=1", "address": "Schiffbeker Weg 66, 22119 Hamburg Germany", "lat": 53.546116, "lng": 10.106053, "ref_id": 8854238, "rating": 4, "num_reviews": 0, "website": "https://www.facebook.com/GyrosspezialistCorfuGrillHamburg/", "contact_phone": "+49 40 29810001", "contact_email": null, "status": 1, "source_type": 1, "numberReviews": 20}, {"name": "Haifisch Sepp", "type": "restaurant", "image": "https://dynamic-media-cdn.tripadvisor.com/media/photo-o/16/21/3f/4e/photo0jpg.jpg?w=1000&s=1", "address": "Glinder Stra\u00dfe 1, 22117 Hamburg Germany", "lat": 53.5446, "lng": 10.14946, "ref_id": 11793383, "rating": 5, "num_reviews": 0, "website": "http://haifischsepp.de", "contact_phone": "+494071009750", "contact_email": null, "status": 1, "source_type": 1, "numberReviews": 6}, {"name": "Zur Elbbr\u00fccke", "type": "restaurant", "image": "https://dynamic-media-cdn.tripadvisor.com/media/photo-o/08/37/58/33/zur-elbbrucke.jpg?w=1000&s=1", "address": "Moorfleeter Deich 259, 22113 Hamburg Germany", "lat": 53.501736, "lng": 10.079951, "ref_id": 1038899, "rating": 4, "num_reviews": 0, "website": null, "contact_phone": "+49 40 7372304", "contact_email": "kay-harder-zur-elbbruecke@gmx.de", "status": 1, "source_type": 1, "numberReviews": 14}, {"name": "Edeka Tamme", "type": "restaurant", "image": null, "address": "Flughafenstrasse 1-3 Airport Plaza, 22335 Hamburg Germany", "lat": 53.63191, "lng": 10.00573, "ref_id": 10758526, "rating": 4.5, "num_reviews": 0, "website": null, "contact_phone": "+49 40 35965258", "contact_email": "larstamme.nord@edeka.de", "status": 1, "source_type": 1, "numberReviews": 16}, {"name": "Park", "type": "restaurant", "image": "https://dynamic-media-cdn.tripadvisor.com/media/photo-o/15/92/5e/7a/photo0jpg.jpg?w=1000&s=1", "address": "Susannenstr. 1, 20357 Hamburg Germany", "lat": 53.56194, "lng": 9.962279, "ref_id": 8278294, "rating": 3.5, "num_reviews": 0, "website": "http://www.park-hamburg.de/", "contact_phone": "+49 40 43183280", "contact_email": null, "status": 1, "source_type": 1, "numberReviews": 26}, {"name": "NOM vietnamese fusion food", "type": "restaurant", "image": "https://dynamic-media-cdn.tripadvisor.com/media/photo-o/11/a6/16/56/vietnamesische-reisnudelsuppe.jpg?w=1000&s=1", "address": "Zeughausmarkt 17, 20459 Hamburg Germany", "lat": 53.549088, "lng": 9.974997, "ref_id": 12732323, "rating": 4.5, "num_reviews": 0, "website": "http://nom-restaurant.de", "contact_phone": "+49 40 50097120", "contact_email": "info@nom-restaurant.de", "status": 1, "source_type": 1, "numberReviews": 569}, {"name": "Restaurant Ruperti", "type": "restaurant", "image": "https://dynamic-media-cdn.tripadvisor.com/media/photo-o/0d/df/46/3b/sommerterasse.jpg?w=1000&s=1", "address": "Rupertistr. 26, 22609 Hamburg Germany", "lat": 53.55562, "lng": 9.84309, "ref_id": 7367629, "rating": 3.5, "num_reviews": 0, "website": "http://www.ruperti-restaurant.de/", "contact_phone": "+49 40 85505995", "contact_email": "ruperti-hamburg@outlook.com", "status": 1, "source_type": 1, "numberReviews": 30}, {"name": "Farinelli", "type": "restaurant", "image": "https://dynamic-media-cdn.tripadvisor.com/media/photo-o/1b/a5/17/1e/frittierte-calamari-sehr.jpg?w=1000&s=1", "address": "Ulzburger Str. 2A, 22850 Norderstedt, Schleswig-Holstein Germany", "lat": 53.68267, "lng": 9.99857, "ref_id": 19387342, "rating": 4, "num_reviews": 0, "website": "https://www.facebook.com/Farinelli-Norderstedt-102245214499443/", "contact_phone": "+49 40 5296742", "contact_email": "farinelli.norderstedt@gmail.com", "status": 1, "source_type": 1, "numberReviews": 13}, {"name": "Engelke Pasta Olio Vino", "type": "restaurant", "image": "https://dynamic-media-cdn.tripadvisor.com/media/photo-o/16/9e/b2/e6/lecker.jpg?w=1000&s=1", "address": "Eppendorfer Baum 20, 20249 Hamburg Germany", "lat": 53.583187, "lng": 9.985506, "ref_id": 1038925, "rating": 4, "num_reviews": 0, "website": "http://www.engelke-hamburg.de", "contact_phone": "+49 40 63945857", "contact_email": "", "status": 1, "source_type": 1, "numberReviews": 16}, {"name": "LOBSTERHOUSE", "type": "restaurant", "image": "https://dynamic-media-cdn.tripadvisor.com/media/photo-o/0a/c5/09/37/ta-img-20160331-203227.jpg?w=1000&s=1", "address": "Grosse Elbstr. 96, 22767 Hamburg Germany", "lat": 53.544415, "lng": 9.947488, "ref_id": 2068043, "rating": 3.5, "num_reviews": 0, "website": "http://www.lobsterhouse-hamburg.de/", "contact_phone": "+49 40 3895888", "contact_email": "info@lobsterhouse-hamburg.de", "status": 1, "source_type": 1, "numberReviews": 72}, {"name": "Asia Om", "type": "restaurant", "image": "https://dynamic-media-cdn.tripadvisor.com/media/photo-o/1b/0b/a7/1a/img-20200229-172822-largejpg.jpg?w=1000&s=1", "address": "Lange Reihe 43, 20099 Hamburg Germany", "lat": 53.55709, "lng": 10.01061, "ref_id": 12990142, "rating": 3.5, "num_reviews": 0, "website": "http://www.facebook.com/Asia-OM-313351025516290", "contact_phone": "+4940240305", "contact_email": null, "status": 1, "source_type": 1, "numberReviews": 24}, {"name": "Mazza Eimsb\u00fcttel", "type": "restaurant", "image": "https://dynamic-media-cdn.tripadvisor.com/media/photo-o/2b/d1/b8/fe/orientsaal.jpg?w=1000&s=1", "address": "Moorkamp 5, 20357 Hamburg Germany", "lat": 53.56987, "lng": 9.966892, "ref_id": 1353543, "rating": 4, "num_reviews": 0, "website": "http://mazza.hamburg/restaurant/", "contact_phone": "+49 40 2841917", "contact_email": "events@mazza.hamburg", "status": 1, "source_type": 1, "numberReviews": 180}, {"name": "Restaurant Oro", "type": "restaurant", "image": null, "address": "Ernst-Mantius-Str. 12, 21029 Hamburg Germany", "lat": 53.4907, "lng": 10.21086, "ref_id": 19879089, "rating": 4.5, "num_reviews": 0, "website": "http://ororestaurant.de", "contact_phone": "+49 40 42944886", "contact_email": null, "status": 1, "source_type": 1, "numberReviews": 7}, {"name": "An An Streetfood", "type": "restaurant", "image": "https://dynamic-media-cdn.tripadvisor.com/media/photo-o/18/f4/a5/fd/udon-reisnudeln-bratten.jpg?w=1000&s=1", "address": "Steinwegpassage 11, 20355 Hamburg Germany", "lat": 53.55086, "lng": 9.98213, "ref_id": 17817818, "rating": 4.5, "num_reviews": 0, "website": "https://www.facebook.com/ananstreetfood/", "contact_phone": "+49 176 23127014", "contact_email": "ananstreetfood@gmail.com", "status": 1, "source_type": 1, "numberReviews": 5}, {"name": "Le Marrakech", "type": "restaurant", "image": "https://dynamic-media-cdn.tripadvisor.com/media/photo-o/0f/a8/1c/e2/photo1jpg.jpg?w=1000&s=1", "address": "Kellerbleek 10, 22529 Hamburg Germany", "lat": 53.603, "lng": 9.974497, "ref_id": 812227, "rating": 3.5, "num_reviews": 0, "website": "http://www.lemarrakech.eu/", "contact_phone": "+49 40 57145301", "contact_email": "", "status": 1, "source_type": 1, "numberReviews": 180}, {"name": "Louisiana", "type": "restaurant", "image": "https://dynamic-media-cdn.tripadvisor.com/media/photo-o/08/66/1f/07/photo0jpg.jpg?w=1000&s=1", "address": "Hamburger Str. 1-15, 22083 Hamburg Germany", "lat": 53.570885, "lng": 10.027883, "ref_id": 783730, "rating": 3.5, "num_reviews": 0, "website": "http://www.louisiana.de/outlet/hamburg-mundsburg", "contact_phone": "+49 40 22759678", "contact_email": null, "status": 1, "source_type": 1, "numberReviews": 57}, {"name": "Yumi", "type": "restaurant", "image": "https://dynamic-media-cdn.tripadvisor.com/media/photo-o/16/c6/57/39/yumi.jpg?w=1000&s=1", "address": "Grindelallee 20, 20146 Hamburg Germany", "lat": 53.564766, "lng": 9.983708, "ref_id": 10880472, "rating": 4, "num_reviews": 0, "website": "http://yumi-streetkitchen.de", "contact_phone": "+49 40 46654176", "contact_email": null, "status": 1, "source_type": 1, "numberReviews": 14}, {"name": "Tyo Tyo", "type": "restaurant", "image": "https://dynamic-media-cdn.tripadvisor.com/media/photo-o/2b/e3/19/57/terrasse-direkt-am-osterbekkan.jpg?w=1000&s=1", "address": "Barmbeker Str. 2, 22303 Hamburg Germany", "lat": 53.58238, "lng": 10.019781, "ref_id": 16708737, "rating": 4, "num_reviews": 0, "website": "https://www.tyo-tyo.de", "contact_phone": "+49 40 600600444", "contact_email": "info@tyo-tyo.de", "status": 1, "source_type": 1, "numberReviews": 112}, {"name": "Sugarfree Hamburg", "type": "restaurant", "image": "https://dynamic-media-cdn.tripadvisor.com/media/photo-o/2b/ee/d0/91/caption.jpg?w=1000&s=1", "address": "Mohlenhofstr. 4, 20095 Hamburg Germany", "lat": 53.549755, "lng": 10.001242, "ref_id": 24127776, "rating": 4.5, "num_reviews": 0, "website": "http://www.sugarfreehamburg.de", "contact_phone": "+49 40 60797825", "contact_email": "info@sugarfreehamburg.de", "status": 1, "source_type": 1, "numberReviews": 9}, {"name": "Garduong", "type": "restaurant", "image": "https://dynamic-media-cdn.tripadvisor.com/media/photo-o/17/3f/a6/1e/20190422-124417-largejpg.jpg?w=1000&s=1", "address": "Eppendorfer Weg 200, 20253 Hamburg Germany", "lat": 53.5816, "lng": 9.97155, "ref_id": 12181618, "rating": 4, "num_reviews": 0, "website": "https://garduong.hamburg/", "contact_phone": "+49 40 53263535", "contact_email": null, "status": 1, "source_type": 1, "numberReviews": 32}, {"name": "Pastaria", "type": "restaurant", "image": "https://dynamic-media-cdn.tripadvisor.com/media/photo-o/10/75/18/99/dessert.jpg?w=1000&s=1", "address": "Adolph-Schoenfelder-Str. 67, 22083 Hamburg Germany", "lat": 53.5795, "lng": 10.032277, "ref_id": 11643528, "rating": 4, "num_reviews": 0, "website": "https://pastaria-barmbek.business.site/", "contact_phone": "+49 40 30727583", "contact_email": null, "status": 1, "source_type": 1, "numberReviews": 26}, {"name": "Calistoga Wine Saloon", "type": "restaurant", "image": "https://dynamic-media-cdn.tripadvisor.com/media/photo-o/09/f5/3b/ea/calistoga-wine-saloon.jpg?w=1000&s=1", "address": "Goernestr. 7, 20249 Hamburg Germany", "lat": 53.59004, "lng": 9.987806, "ref_id": 8835091, "rating": 5, "num_reviews": 0, "website": "http://www.facebook.com/calistogawinesaloon", "contact_phone": "+49 173 2011479", "contact_email": "beverly@calistoga.eu", "status": 1, "source_type": 1, "numberReviews": 13}, {"name": "Rosmarin Restaurant", "type": "restaurant", "image": "https://dynamic-media-cdn.tripadvisor.com/media/photo-o/18/b4/d1/fe/photo0jpg.jpg?w=1000&s=1", "address": "Trettaustrasse 16, 21107 Hamburg Germany", "lat": 53.49356, "lng": 9.99019, "ref_id": 17461177, "rating": 4.5, "num_reviews": 0, "website": "https://www.restaurant-rosmarin-hamburg.de/", "contact_phone": "+49 40 759852", "contact_email": "info@restaurant-rosmarin-hamburg.de", "status": 1, "source_type": 1, "numberReviews": 10}, {"name": "Ukitchen Vietnamese Restaurant", "type": "restaurant", "image": "https://dynamic-media-cdn.tripadvisor.com/media/photo-o/1f/1a/62/95/unsere-tapasspezialitaten.jpg?w=1000&s=1", "address": "Colonnaden 3, 20354 Hamburg Germany", "lat": 53.554955, "lng": 9.990787, "ref_id": 19735037, "rating": 4.5, "num_reviews": 0, "website": "http://www.ukitchen.de", "contact_phone": "+49 40 35710209", "contact_email": "info@ukitchen.de", "status": 1, "source_type": 1, "numberReviews": 70}, {"name": "Die alte Druckerei", "type": "restaurant", "image": "https://dynamic-media-cdn.tripadvisor.com/media/photo-o/1c/f3/64/c9/dad.jpg?w=1000&s=1", "address": "Kattrepel 2, 20095 Hamburg Germany", "lat": 53.5488, "lng": 9.999751, "ref_id": 20810692, "rating": 5, "num_reviews": 0, "website": "http://www.die-alte-druckerei.de", "contact_phone": "+49 170 7013786", "contact_email": "moin@die-alte-druckerei.de", "status": 1, "source_type": 1, "numberReviews": 10}, {"name": "Rotbuche", "type": "restaurant", "image": "https://dynamic-media-cdn.tripadvisor.com/media/photo-o/08/dd/fd/90/photo3jpg.jpg?w=1000&s=1", "address": "Tannenweg 4, 22415 Hamburg Germany", "lat": 53.643936, "lng": 10.013823, "ref_id": 1039215, "rating": 4, "num_reviews": 0, "website": "http://www.restaurant-rotbuche.de", "contact_phone": "+49 40 5317613", "contact_email": "info@restaurant-rotbuche.de", "status": 1, "source_type": 1, "numberReviews": 57}, {"name": "Bottega Italia", "type": "restaurant", "image": "https://dynamic-media-cdn.tripadvisor.com/media/photo-o/03/d8/c1/2a/bottega-italia.jpg?w=1000&s=1", "address": "Lange Reihe 41, 20099 Hamburg Germany", "lat": 53.55695, "lng": 10.010614, "ref_id": 1969471, "rating": 3.5, "num_reviews": 0, "website": "https://www.facebook.com/pages/category/Italian-Restaurant/Bottega-Italia-151011604938341/", "contact_phone": "+49 40 28803903", "contact_email": "", "status": 1, "source_type": 1, "numberReviews": 83}, {"name": "Inos", "type": "restaurant", "image": "https://dynamic-media-cdn.tripadvisor.com/media/photo-o/0e/c7/56/c6/photo0jpg.jpg?w=1000&s=1", "address": "Carl-Petersen-Str. 124, 20535 Hamburg Germany", "lat": 53.55727, "lng": 10.05245, "ref_id": 10527087, "rating": 4, "num_reviews": 0, "website": "http://www.restaurant-inos.de", "contact_phone": "+49 40 64837833", "contact_email": null, "status": 1, "source_type": 1, "numberReviews": 24}, {"name": "Restaurant Pinakas", "type": "restaurant", "image": "https://dynamic-media-cdn.tripadvisor.com/media/photo-o/04/cf/c7/c0/getlstd-property-photo.jpg?w=1000&s=1", "address": "Grindelhof 64, 20146 Hamburg Germany", "lat": 53.57059, "lng": 9.9851, "ref_id": 5495117, "rating": 4.5, "num_reviews": 0, "website": "http://www.restaurant-pinakas.de", "contact_phone": "+49 40 18102375", "contact_email": null, "status": 1, "source_type": 1, "numberReviews": 19}, {"name": "Kaalia", "type": "restaurant", "image": "https://dynamic-media-cdn.tripadvisor.com/media/photo-o/18/ae/71/18/19-07-05-18-43-19-776.jpg?w=1000&s=1", "address": "Rentzelstr. 13, 20146 Hamburg Germany", "lat": 53.56623, "lng": 9.98003, "ref_id": 8333989, "rating": 5, "num_reviews": 0, "website": "http://kaalia.de/", "contact_phone": "+49 1573 3120817", "contact_email": null, "status": 1, "source_type": 1, "numberReviews": 16}, {"name": "Cafe & Bar Celona Hamburg Eppendorf", "type": "restaurant", "image": "https://dynamic-media-cdn.tripadvisor.com/media/photo-o/1c/bc/06/56/kuchen.jpg?w=1000&s=1", "address": "Lenhartzstr. 1-5, 20249 Hamburg Germany", "lat": 53.585327, "lng": 9.981364, "ref_id": 9977960, "rating": 3.5, "num_reviews": 0, "website": "http://www.celona.de/mein-celona/details/cafe-bar-celona-hamburg-eppendorf", "contact_phone": "+49 40 20201458", "contact_email": "eppendorf@cafe-bar-celona.de", "status": 1, "source_type": 1, "numberReviews": 99}, {"name": "Apollon bei Pano", "type": "restaurant", "image": "https://dynamic-media-cdn.tripadvisor.com/media/photo-o/25/43/c3/aa/biergarten-apollon-bei.jpg?w=1000&s=1", "address": "Nienredder 1 Ecke W\u00f6rdemanns Weg, 22527 Hamburg Germany", "lat": 53.59942, "lng": 9.92204, "ref_id": 954463, "rating": 4, "num_reviews": 0, "website": "http://www.apollon-pano.de", "contact_phone": "+49 40 5408436", "contact_email": "", "status": 1, "source_type": 1, "numberReviews": 38}, {"name": "Deck 7 Market Restaurant", "type": "restaurant", "image": "https://dynamic-media-cdn.tripadvisor.com/media/photo-o/05/45/c5/00/sullberg.jpg?w=1000&s=1", "address": "Suellbergsterrasse 12, 22587 Hamburg Germany", "lat": 53.559444, "lng": 9.801015, "ref_id": 1884660, "rating": 3.5, "num_reviews": 0, "website": "http://www.suellberg-hamburg.de", "contact_phone": "+49 40 8662520", "contact_email": "info@suellberg-hamburg.de", "status": 1, "source_type": 1, "numberReviews": 187}, {"name": "Bistro Schanz-Elysee", "type": "restaurant", "image": "https://dynamic-media-cdn.tripadvisor.com/media/photo-o/08/54/9b/53/bistro-schanz-elysee.jpg?w=1000&s=1", "address": "Schanzenstr. 3, 20357 Hamburg Germany", "lat": 53.55975, "lng": 9.9643, "ref_id": 5809236, "rating": 5, "num_reviews": 0, "website": "http://schanz-elysee.de", "contact_phone": "+49 40 436424", "contact_email": "info@schanz-elysee.de", "status": 1, "source_type": 1, "numberReviews": 14}, {"name": "Il Sardo da Lorenzo", "type": "restaurant", "image": "https://dynamic-media-cdn.tripadvisor.com/media/photo-o/28/b2/4a/19/bellissima-sala-con-una.jpg?w=1000&s=1", "address": "Eppendorfer weg 280 Eppendorfer weg 280, 20251 Hamburg Germany", "lat": 53.58444, "lng": 9.980217, "ref_id": 25414730, "rating": 4.5, "num_reviews": 0, "website": "www.il-sardo.de", "contact_phone": "+49 40 30748428", "contact_email": "info@il-sardo.de", "status": 1, "source_type": 1, "numberReviews": 10}, {"name": "BLOCK HOUSE Eppendorf", "type": "restaurant", "image": "https://dynamic-media-cdn.tripadvisor.com/media/photo-o/0e/9e/b4/a5/wieder-ausgezeichnete.jpg?w=1000&s=1", "address": "Hoheluftchaussee 2, 20253 Hamburg Germany", "lat": 53.57901, "lng": 9.975701, "ref_id": 7337025, "rating": 4, "num_reviews": 0, "website": "https://www.block-house.de/restaurants/hamburg/eppendorf", "contact_phone": "040459022", "contact_email": "info@block-house.de", "status": 1, "source_type": 1, "numberReviews": 55}, {"name": "Restaurant Il Diamante", "type": "restaurant", "image": "https://dynamic-media-cdn.tripadvisor.com/media/photo-o/14/7a/81/44/20180606-125603-largejpg.jpg?w=1000&s=1", "address": "Schulterblatt 63 Direkt auf der Schanze, 20357 Hamburg Germany", "lat": 53.56153, "lng": 9.96214, "ref_id": 13507173, "rating": 4.5, "num_reviews": 0, "website": "http://il-diamante.de/", "contact_phone": "+49 40 63971405", "contact_email": null, "status": 1, "source_type": 1, "numberReviews": 15}, {"name": "Caf\u00e9 Gr\u00fcneberg", "type": "restaurant", "image": "https://dynamic-media-cdn.tripadvisor.com/media/photo-o/13/c2/c8/94/photo0jpg.jpg?w=1000&s=1", "address": "Lange Reihe 86, 20099 Hamburg Germany", "lat": 53.558216, "lng": 10.01245, "ref_id": 10352404, "rating": 4, "num_reviews": 0, "website": null, "contact_phone": "+494028055707", "contact_email": null, "status": 1, "source_type": 1, "numberReviews": 23}, {"name": "China Restaurant Goldener Buddha", "type": "restaurant", "image": "https://dynamic-media-cdn.tripadvisor.com/media/photo-o/10/43/91/55/photo1jpg.jpg?w=1000&s=1", "address": "Gluesinger Str. 54, 21217 Seevetal, Lower Saxony Germany", "lat": 53.41651, "lng": 10.01948, "ref_id": 5510625, "rating": 4.5, "num_reviews": 0, "website": "http://goldener-buddha.de", "contact_phone": "+49 40 7681046", "contact_email": null, "status": 1, "source_type": 1, "numberReviews": 21}, {"name": "Cast Iron Grill", "type": "restaurant", "image": "https://dynamic-media-cdn.tripadvisor.com/media/photo-o/2b/00/5f/54/welcome-to-cast-iron.jpg?w=1000&s=1", "address": "ABC-Str. 52 Hamburg Marriott Hotel, 20354 Hamburg Germany", "lat": 53.55459, "lng": 9.987132, "ref_id": 1949200, "rating": 3.5, "num_reviews": 0, "website": "http://www.castirongrill.de/hamburg/", "contact_phone": "+49 40 35051735", "contact_email": "hamburg.info@marriott.com", "status": 1, "source_type": 1, "numberReviews": 70}, {"name": "Manju", "type": "restaurant", "image": "https://dynamic-media-cdn.tripadvisor.com/media/photo-o/18/90/af/e7/photo0jpg.jpg?w=1000&s=1", "address": "Hamburg Central Station, Hamburg Germany", "lat": 53.553253, "lng": 10.006001, "ref_id": 1929486, "rating": 4, "num_reviews": 0, "website": "http://www.eatmanju.de", "contact_phone": "+49 40 613927", "contact_email": "", "status": 1, "source_type": 1, "numberReviews": 37}, {"name": "Bear Claw", "type": "restaurant", "image": "https://dynamic-media-cdn.tripadvisor.com/media/photo-o/18/2d/f6/bc/img-20190704-133753-050.jpg?w=1000&s=1", "address": "Langenhorner Markt 18, 22415 Hamburg Germany", "lat": 53.64964, "lng": 10.01275, "ref_id": 17599446, "rating": 4.5, "num_reviews": 0, "website": "http://www.bearclaw.de", "contact_phone": "+49 40 32029988", "contact_email": "service@bearclaw.de", "status": 1, "source_type": 1, "numberReviews": 14}, {"name": "Cafe Conditorei Hosch", "type": "restaurant", "image": "https://dynamic-media-cdn.tripadvisor.com/media/photo-o/13/0c/7a/f9/dsc-0259-largejpg.jpg?w=1000&s=1", "address": "Poelchaukamp 19, 22301 Hamburg Germany", "lat": 53.58109, "lng": 10.0086, "ref_id": 14107037, "rating": 5, "num_reviews": 0, "website": "http://cafehosch.de/#welcome", "contact_phone": "+494028464666", "contact_email": null, "status": 1, "source_type": 1, "numberReviews": 9}, {"name": "Junge Die B\u00e4ckerei. Bieberhaus", "type": "restaurant", "image": "https://dynamic-media-cdn.tripadvisor.com/media/photo-o/09/0c/32/c4/hansebacker-junge.jpg?w=1000&s=1", "address": "Kirchenallee 19, 20099 Hamburg Germany", "lat": 53.5544, "lng": 10.007739, "ref_id": 8659393, "rating": 4, "num_reviews": 0, "website": "https://shop.jb.de/", "contact_phone": "+49 40 22606775", "contact_email": null, "status": 1, "source_type": 1, "numberReviews": 33}, {"name": "Ciao Ana", "type": "restaurant", "image": "https://dynamic-media-cdn.tripadvisor.com/media/photo-o/1b/b9/18/34/photo1jpg.jpg?w=1000&s=1", "address": "Ditmar-Koel-Str. 8, 20459 Hamburg Germany", "lat": 53.54624, "lng": 9.976259, "ref_id": 1347836, "rating": 3.5, "num_reviews": 0, "website": "http://www.ciao-ana.de/#home", "contact_phone": "+49 40 25485183", "contact_email": "", "status": 1, "source_type": 1, "numberReviews": 276}, {"name": "Kaffee Stark", "type": "restaurant", "image": "https://dynamic-media-cdn.tripadvisor.com/media/photo-o/15/83/f1/75/the-bar-inside-the-cafe.jpg?w=1000&s=1", "address": "Wohlwillstra\u00dfe 18, 20359 Hamburg Germany", "lat": 53.55331, "lng": 9.961454, "ref_id": 15199793, "rating": 4.5, "num_reviews": 0, "website": "http://www.kaffeestark.de", "contact_phone": "+494067382060", "contact_email": null, "status": 1, "source_type": 1, "numberReviews": 14}, {"name": "Restaurant Aretea", "type": "restaurant", "image": "https://dynamic-media-cdn.tripadvisor.com/media/photo-o/10/a6/8a/cc/20170907-183426-largejpg.jpg?w=1000&s=1", "address": "Hummelsbuetteler Weg 60, 22339 Hamburg Germany", "lat": 53.64247, "lng": 10.04859, "ref_id": 1039273, "rating": 4, "num_reviews": 0, "website": "http://aretea.de", "contact_phone": "+49 40 5388242", "contact_email": "", "status": 1, "source_type": 1, "numberReviews": 21}, {"name": "Vina-Haus", "type": "restaurant", "image": "https://dynamic-media-cdn.tripadvisor.com/media/photo-o/15/1c/a1/97/vina-haus.jpg?w=1000&s=1", "address": "Mendelssohnstr. 28, 22761 Hamburg Germany", "lat": 53.56385, "lng": 9.91361, "ref_id": 1341184, "rating": 4.5, "num_reviews": 0, "website": "https://vina-haus-hamburg.xregional.de", "contact_phone": "+49 40 89018288", "contact_email": "", "status": 1, "source_type": 1, "numberReviews": 21}, {"name": "Westwind", "type": "restaurant", "image": "https://dynamic-media-cdn.tripadvisor.com/media/photo-o/0f/96/1f/3d/photo0jpg.jpg?w=1000&s=1", "address": "Spadenteich 1, 20099 Hamburg Germany", "lat": 53.555843, "lng": 10.00801, "ref_id": 2367816, "rating": 3.5, "num_reviews": 0, "website": "https://www.facebook.com/Westwind-Caf%C3%A9-247599365291554/?locale2=de_DE", "contact_phone": "+49 40 41924344", "contact_email": "", "status": 1, "source_type": 1, "numberReviews": 87}, {"name": "Restaurant Zeder", "type": "restaurant", "image": "https://dynamic-media-cdn.tripadvisor.com/media/photo-o/15/d0/54/8a/das-lokal.jpg?w=1000&s=1", "address": "Ausschlaeger Weg 41, 20537 Hamburg Germany", "lat": 53.551064, "lng": 10.035803, "ref_id": 12248313, "rating": 4, "num_reviews": 0, "website": "https://www.facebook.com/Restaurant-Zeder-Libanesische-K%C3%BCche-1748026988743532/", "contact_phone": "+49 40 25305650", "contact_email": "restaurant.zeder@gmail.com", "status": 1, "source_type": 1, "numberReviews": 23}, {"name": "Rio Grande Blankenese", "type": "restaurant", "image": "https://dynamic-media-cdn.tripadvisor.com/media/photo-o/28/b1/83/a2/black-angus-steak.jpg?w=1000&s=1", "address": "Dockenhudener Str. 2, 22587 Hamburg Germany", "lat": 53.561764, "lng": 9.82015, "ref_id": 5793667, "rating": 4.5, "num_reviews": 0, "website": "https://www.facebook.com/1418895995007636", "contact_phone": "+49 40 88941941", "contact_email": null, "status": 1, "source_type": 1, "numberReviews": 81}, {"name": "Shiso Burger", "type": "restaurant", "image": "https://dynamic-media-cdn.tripadvisor.com/media/photo-o/16/9c/c1/b6/shiso-burger-combine.jpg?w=1000&s=1", "address": "Bugenhagenstra\u00dfe 23, 20095 Hamburg Germany", "lat": 53.55057, "lng": 10.001919, "ref_id": 14927259, "rating": 4.5, "num_reviews": 0, "website": "http://www.shisoburger.com", "contact_phone": "+494074304110", "contact_email": null, "status": 1, "source_type": 1, "numberReviews": 83}, {"name": "Zum Brandanfang", "type": "restaurant", "image": "https://dynamic-media-cdn.tripadvisor.com/media/photo-o/14/44/1b/49/photo3jpg.jpg?w=1000&s=1", "address": "Deichstr. 25, 20459 Hamburg Germany", "lat": 53.546158, "lng": 9.987343, "ref_id": 1344938, "rating": 4, "num_reviews": 0, "website": "https://www.facebook.com/pages/Zum-Brandanfang/112853865442500", "contact_phone": "+49 40 365520", "contact_email": "", "status": 1, "source_type": 1, "numberReviews": 307}, {"name": "Ristorante Portonovo", "type": "restaurant", "image": "https://dynamic-media-cdn.tripadvisor.com/media/photo-o/11/c9/8e/f9/blick-vom-park-aus.jpg?w=1000&s=1", "address": "Milchstra\u00dfe 7, 20148 Hamburg Germany", "lat": 53.57079, "lng": 9.997246, "ref_id": 1850116, "rating": 4, "num_reviews": 0, "website": "www.ristorante-portonovo.de", "contact_phone": "+49 40 41356616", "contact_email": "info@ristorante-portonovo.de", "status": 1, "source_type": 1, "numberReviews": 319}, {"name": "La Terrazza", "type": "restaurant", "image": "https://dynamic-media-cdn.tripadvisor.com/media/photo-o/17/26/d8/a2/photo0jpg.jpg?w=1000&s=1", "address": "Adlerhorst 18, 22459 Hamburg Germany", "lat": 53.632298, "lng": 9.955936, "ref_id": 1346217, "rating": 5, "num_reviews": 0, "website": "https://www.facebook.com/pages/Ristorante-La-Terrazza/319373098158602?sk=info&tab=overview", "contact_phone": "+49 40 56009241", "contact_email": "laterrazza@hotmail.de", "status": 1, "source_type": 1, "numberReviews": 52}, {"name": "Nakama - Fusion Kitchen", "type": "restaurant", "image": "https://dynamic-media-cdn.tripadvisor.com/media/photo-o/11/42/f0/8f/nakama.jpg?w=1000&s=1", "address": "Willy-Brandt-Str. 51, 20457 Hamburg Germany", "lat": 53.54744, "lng": 9.99535, "ref_id": 12929173, "rating": 4, "num_reviews": 0, "website": "http://nakama-hamburg.de", "contact_phone": "+49 40 49205111", "contact_email": "mail@nakama-hamburg.de", "status": 1, "source_type": 1, "numberReviews": 144}, {"name": "Royal Punjab", "type": "restaurant", "image": "https://dynamic-media-cdn.tripadvisor.com/media/photo-o/28/d8/61/02/caption.jpg?w=1000&s=1", "address": "Ernst-Merck-Str. 4, 20099 Hamburg Germany", "lat": 53.55556, "lng": 10.013171, "ref_id": 24072297, "rating": 5, "num_reviews": 0, "website": "http://royalpunjab-hamburg.de", "contact_phone": "+49 40 88355151", "contact_email": null, "status": 1, "source_type": 1, "numberReviews": 31}, {"name": "Dean&David Fresh to Eat", "type": "restaurant", "image": "https://dynamic-media-cdn.tripadvisor.com/media/photo-o/18/97/b5/ea/20190730-124354-largejpg.jpg?w=1000&s=1", "address": "Ballindamm 40, 20095 Hamburg Germany", "lat": 53.55361, "lng": 10.002772, "ref_id": 6031001, "rating": 4.5, "num_reviews": 0, "website": "http://deananddavid.de/en/locations/", "contact_phone": "+49 7675 2624", "contact_email": "tamara.bajski@deananddavid.com", "status": 1, "source_type": 1, "numberReviews": 119}, {"name": "Apple & Eve Vegan&Natural", "type": "restaurant", "image": "https://dynamic-media-cdn.tripadvisor.com/media/photo-o/18/7e/ea/fb/photo0jpg.jpg?w=1000&s=1", "address": "Schanzenstr. 107, 20357 Hamburg Germany", "lat": 53.56425, "lng": 9.96533, "ref_id": 15273082, "rating": 5, "num_reviews": 0, "website": "http://www.appleeve.de", "contact_phone": "+49 40 41352578", "contact_email": "info@appleeve.de", "status": 1, "source_type": 1, "numberReviews": 35}, {"name": "Tower Bar", "type": "restaurant", "image": "https://dynamic-media-cdn.tripadvisor.com/media/photo-o/17/d4/7f/8b/tower-bar-im-hotel-hafen.jpg?w=1000&s=1", "address": "Seewartenstra\u00dfe 9, 20459 Hamburg Germany", "lat": 53.546818, "lng": 9.969635, "ref_id": 966362, "rating": 4, "num_reviews": 0, "website": "https://www.hotel-hafen-hamburg.de/en/restaurants-and-bars/tower-bar/", "contact_phone": "+49 40 31113524", "contact_email": "info@hotel-hamburg.de", "status": 1, "source_type": 1, "numberReviews": 294}, {"name": "Dos Amigos Mexican Restaurant", "type": "restaurant", "image": "https://dynamic-media-cdn.tripadvisor.com/media/photo-o/1a/f5/d5/e0/hausgemachte-dips.jpg?w=1000&s=1", "address": "Sillemstrasse 74, 20257 Hamburg Germany", "lat": 53.578606, "lng": 9.943797, "ref_id": 1038919, "rating": 4, "num_reviews": 0, "website": "http://www.dos-amigos-eimsbuettel.de/", "contact_phone": "+49 40 40197284", "contact_email": "info@dos-amigos-eimsbuettel.de", "status": 1, "source_type": 1, "numberReviews": 166}, {"name": "Captains Dinner", "type": "restaurant", "image": "https://dynamic-media-cdn.tripadvisor.com/media/photo-o/18/64/ee/48/ta-img-20190720-172447.jpg?w=1000&s=1", "address": "Bei den St. Pauli-Landungsbruecken 3, 20359 Hamburg Germany", "lat": 53.545135, "lng": 9.969657, "ref_id": 1356841, "rating": 4, "num_reviews": 0, "website": "http://www.captainsdinner.de", "contact_phone": "+49 40 312121", "contact_email": "info@captainsdinner.de", "status": 1, "source_type": 1, "numberReviews": 215}, {"name": "raw like sushi & more", "type": "restaurant", "image": "https://dynamic-media-cdn.tripadvisor.com/media/photo-s/03/18/4c/be/raw-like-sushi-more.jpg?w=1000&s=1", "address": "Martinistr. 5, 20251 Hamburg Germany", "lat": 53.59246, "lng": 9.987008, "ref_id": 1392857, "rating": 4.5, "num_reviews": 0, "website": "http://www.raw-like-sushi.de", "contact_phone": "+49 40 476731", "contact_email": "more@raw-like-sushi.de", "status": 1, "source_type": 1, "numberReviews": 135}, {"name": "Asia Unique", "type": "restaurant", "image": "https://dynamic-media-cdn.tripadvisor.com/media/photo-o/1c/d3/29/a6/asia-unique.jpg?w=1000&s=1", "address": "Susannenstr. 18, 20357 Hamburg Germany", "lat": 53.562767, "lng": 9.96456, "ref_id": 8057717, "rating": 4.5, "num_reviews": 0, "website": "https://www.facebook.com/ASIA-Unique-1802196486712487/", "contact_phone": "+49 40 55448221", "contact_email": null, "status": 1, "source_type": 1, "numberReviews": 47}, {"name": "Xeom", "type": "restaurant", "image": "https://dynamic-media-cdn.tripadvisor.com/media/photo-o/16/79/c5/89/photo3jpg.jpg?w=1000&s=1", "address": "Karolinenstr. 25, 20357 Hamburg Germany", "lat": 53.55925, "lng": 9.975494, "ref_id": 8561875, "rating": 4, "num_reviews": 0, "website": "https://www.facebook.com/Xe%C3%94m-Eatery-367437996799591/", "contact_phone": "+49 1521 9193226", "contact_email": null, "status": 1, "source_type": 1, "numberReviews": 151}, {"name": "Hard Rock Cafe", "type": "restaurant", "image": "https://dynamic-media-cdn.tripadvisor.com/media/photo-o/16/8b/ee/3c/hard-rock-cafe-hamburg.jpg?w=1000&s=1", "address": "Bei den St. Pauli Landungsbr\u00fccken 5, 20359 Hamburg Germany", "lat": 53.545773, "lng": 9.967863, "ref_id": 2271294, "rating": 4, "num_reviews": 0, "website": "https://cafe.hardrock.com/hamburg/", "contact_phone": "+49 40 30068480", "contact_email": "sales@hardrockcafe-hh.com", "status": 1, "source_type": 1, "numberReviews": 1966}, {"name": "Restaurant Teheran", "type": "restaurant", "image": "https://dynamic-media-cdn.tripadvisor.com/media/photo-o/1c/d4/ad/f3/chelo-kabab-makhsos-tehran.jpg?w=1000&s=1", "address": "Adenauerallee 70, 20097 Hamburg Germany", "lat": 53.552303, "lng": 10.013603, "ref_id": 1356051, "rating": 4, "num_reviews": 0, "website": "http://www.restaurant-teheran.de", "contact_phone": "+49 40 28008992", "contact_email": "info@restaurant-teheran.de", "status": 1, "source_type": 1, "numberReviews": 213}, {"name": "Traumzeit Hamburg", "type": "restaurant", "image": "https://dynamic-media-cdn.tripadvisor.com/media/photo-o/0c/1f/09/f7/traumzeit-hamburg.jpg?w=1000&s=1", "address": "Hansaplatz 12, 20099 Hamburg Germany", "lat": 53.55486, "lng": 10.012225, "ref_id": 6510470, "rating": 4, "num_reviews": 0, "website": "http://www.traumzeithamburg.de", "contact_phone": "+49 40 28407969", "contact_email": "traumzeit-hamburg@web.de", "status": 1, "source_type": 1, "numberReviews": 158}, {"name": "Com Nieu 21", "type": "restaurant", "image": "https://dynamic-media-cdn.tripadvisor.com/media/photo-o/1d/88/5e/71/caption.jpg?w=1000&s=1", "address": "Davidstr. 21, 20359 Hamburg Germany", "lat": 53.548782, "lng": 9.962431, "ref_id": 18895629, "rating": 4.5, "num_reviews": 0, "website": "http://comnieu21.de", "contact_phone": "+49 40 31182266", "contact_email": "info@comnieu21.de", "status": 1, "source_type": 1, "numberReviews": 49}, {"name": "Open Kitchen Restaurant & Drinks", "type": "restaurant", "image": "https://dynamic-media-cdn.tripadvisor.com/media/photo-o/27/e2/8a/42/perlgraupen-risotto.jpg?w=1000&s=1", "address": "Grosse Elbstrasse 133, 22767 Hamburg Germany", "lat": 53.54417, "lng": 9.939824, "ref_id": 24183523, "rating": 5, "num_reviews": 0, "website": "https://open-kitchen.eu/", "contact_phone": "+49 176 70851370", "contact_email": "kontakt@open-kitchen.eu", "status": 1, "source_type": 1, "numberReviews": 26}, {"name": "Trattoria da Leandro", "type": "restaurant", "image": "https://dynamic-media-cdn.tripadvisor.com/media/photo-o/13/9b/fa/eb/photo1jpg.jpg?w=1000&s=1", "address": "Weidenallee 57, 20357 Hamburg Germany", "lat": 53.568043, "lng": 9.964354, "ref_id": 4756608, "rating": 4.5, "num_reviews": 0, "website": null, "contact_phone": "+49 40 87603068", "contact_email": null, "status": 1, "source_type": 1, "numberReviews": 98}, {"name": "An Khang Restaurant", "type": "restaurant", "image": "https://dynamic-media-cdn.tripadvisor.com/media/photo-o/11/1d/dd/2e/photo0jpg.jpg?w=1000&s=1", "address": "Hoheluftchaussee 86, 20253 Hamburg Germany", "lat": 53.583496, "lng": 9.970303, "ref_id": 1039201, "rating": 4.5, "num_reviews": 0, "website": "http://ankhangquan.de", "contact_phone": "+494063948624", "contact_email": "info@ankhang.de", "status": 1, "source_type": 1, "numberReviews": 106}, {"name": "Restaurant Hof Immenhorst", "type": "restaurant", "image": "https://dynamic-media-cdn.tripadvisor.com/media/photo-o/1a/07/15/e0/photo0jpg.jpg?w=1000&s=1", "address": "Immenhorst 22, 22850 Norderstedt, Schleswig-Holstein Germany", "lat": 53.689053, "lng": 10.008094, "ref_id": 1355845, "rating": 4.5, "num_reviews": 0, "website": "http://www.restaurant-immenhorst.de", "contact_phone": "+49 40 52983167", "contact_email": "", "status": 1, "source_type": 1, "numberReviews": 55}, {"name": "Ristorante Opera", "type": "restaurant", "image": "https://dynamic-media-cdn.tripadvisor.com/media/photo-o/1b/5a/01/46/img-20200526-wa0033-largejpg.jpg?w=1000&s=1", "address": "Dammtorstrasse 7, 20354 Hamburg Germany", "lat": 53.55685, "lng": 9.988147, "ref_id": 1983761, "rating": 4, "num_reviews": 0, "website": "http://www.ristorante-opera.com/index.php", "contact_phone": "+49 40 341200", "contact_email": "info@ristorante-opera.com", "status": 1, "source_type": 1, "numberReviews": 184}, {"name": "O'Pote", "type": "restaurant", "image": "https://dynamic-media-cdn.tripadvisor.com/media/photo-o/1c/32/50/e6/o-pote.jpg?w=1000&s=1", "address": "Lange Reihe 83, 20099 Hamburg Germany", "lat": 53.558327, "lng": 10.012396, "ref_id": 1841449, "rating": 4, "num_reviews": 0, "website": "http://www.opote-restaurante.de", "contact_phone": "+49 40 243013", "contact_email": "", "status": 1, "source_type": 1, "numberReviews": 238}, {"name": "Pulvermuehle", "type": "restaurant", "image": "https://dynamic-media-cdn.tripadvisor.com/media/photo-o/12/25/13/43/mehr-als-1000-worte.jpg?w=1000&s=1", "address": "Bei der Pulvermuehle 1 Kellerbleek 3, 22453 Hamburg Germany", "lat": 53.60504, "lng": 9.966123, "ref_id": 12450819, "rating": 4, "num_reviews": 0, "website": "http://www.pulvermuehle.eu", "contact_phone": "+49 40 22864948", "contact_email": "info@pulvermuehle.eu", "status": 1, "source_type": 1, "numberReviews": 132}, {"name": "Zum Silbersack", "type": "restaurant", "image": "https://dynamic-media-cdn.tripadvisor.com/media/photo-o/17/53/7d/c3/silbersack.jpg?w=1000&s=1", "address": "Silbersackstr. 9, 20359 Hamburg Germany", "lat": 53.54894, "lng": 9.959978, "ref_id": 8765247, "rating": 4.5, "num_reviews": 0, "website": "https://www.facebook.com/zumsilbersack1949/", "contact_phone": "+4940314589", "contact_email": null, "status": 1, "source_type": 1, "numberReviews": 69}, {"name": "Bona'me Hamburg", "type": "restaurant", "image": "https://dynamic-media-cdn.tripadvisor.com/media/photo-o/17/d4/ae/d3/jpeg-20190602-101254.jpg?w=1000&s=1", "address": "Burchardstrasse 17, 20095 Hamburg Germany", "lat": 53.54876, "lng": 10.001378, "ref_id": 12146451, "rating": 4, "num_reviews": 0, "website": "https://www.facebook.com/bonameHamburg/", "contact_phone": "+49 40 32870170", "contact_email": null, "status": 1, "source_type": 1, "numberReviews": 251}, {"name": "Vous", "type": "restaurant", "image": "https://dynamic-media-cdn.tripadvisor.com/media/photo-o/1b/11/c1/bc/vous-restaurant.jpg?w=1000&s=1", "address": "Gertigstra\u00dfe 7, 22303 Hamburg Germany", "lat": 53.58143, "lng": 10.012878, "ref_id": 14070198, "rating": 4.5, "num_reviews": 0, "website": "http://www.vousrestaurant.com", "contact_phone": "+49 40 36901488", "contact_email": null, "status": 1, "source_type": 1, "numberReviews": 53}, {"name": "L'Osteria Hamburg Opernplaza", "type": "restaurant", "image": "https://dynamic-media-cdn.tripadvisor.com/media/photo-o/13/90/d2/27/photo6jpg.jpg?w=1000&s=1", "address": "Dammtorstr. 12, 20354 Hamburg Germany", "lat": 53.557076, "lng": 9.988035, "ref_id": 3642346, "rating": 3.5, "num_reviews": 0, "website": "https://losteria.net/de/restaurants/restaurant/hamburg-opernplaza/?utm_source=ExtNet&utm_medium=Yext", "contact_phone": "+49 40 34106788", "contact_email": "hamburg@losteria.de", "status": 1, "source_type": 1, "numberReviews": 508}, {"name": "LORDS Deli", "type": "restaurant", "image": "https://dynamic-media-cdn.tripadvisor.com/media/photo-o/17/2a/bf/7b/photo7jpg.jpg?w=1000&s=1", "address": "Beim Alten Sch\u00fctzenhof 16, 22083 Hamburg Germany", "lat": 53.575684, "lng": 10.029374, "ref_id": 17313971, "rating": 5, "num_reviews": 0, "website": "http://www.lordsdeli.de", "contact_phone": "+494028807907", "contact_email": null, "status": 1, "source_type": 1, "numberReviews": 6}, {"name": "Arione Restaurant", "type": "restaurant", "image": "https://dynamic-media-cdn.tripadvisor.com/media/photo-o/2c/07/90/e4/caption.jpg?w=1000&s=1", "address": "Deichstrasse, Hamburg Germany", "lat": 53.55556, "lng": 10.013171, "ref_id": 26360741, "rating": 4.5, "num_reviews": 0, "website": null, "contact_phone": null, "contact_email": null, "status": 1, "source_type": 1, "numberReviews": 7}, {"name": "\u0110\u1ed7 Qu\u00e1n Restaurant", "type": "restaurant", "image": "https://dynamic-media-cdn.tripadvisor.com/media/photo-o/2a/fa/a5/d4/caption.jpg?w=1000&s=1", "address": "Dehnhaide 12, 22081 Hamburg Germany", "lat": 53.55556, "lng": 10.013171, "ref_id": 25045994, "rating": 4.5, "num_reviews": 0, "website": "https://doquan.de/", "contact_phone": "+49 40 76500888", "contact_email": "kontakt@doquan.de", "status": 1, "source_type": 1, "numberReviews": 5}, {"name": "Koch Kontor Inh. Martina Olufs", "type": "restaurant", "image": "https://dynamic-media-cdn.tripadvisor.com/media/photo-o/10/59/2d/79/nur-vor-der-mittagszeit.jpg?w=1000&s=1", "address": "Karolinenstr. 27, 20357 Hamburg Germany", "lat": 53.55952, "lng": 9.97522, "ref_id": 1340139, "rating": 5, "num_reviews": 0, "website": "http://www.koch-kontor.de/", "contact_phone": "+49 40 43216036", "contact_email": "info@koch-kontor.de", "status": 1, "source_type": 1, "numberReviews": 11}, {"name": "Sphinx D\u00f6ner", "type": "restaurant", "image": "https://dynamic-media-cdn.tripadvisor.com/media/photo-o/17/a4/11/2c/sphinx-doner-neben-s.jpg?w=1000&s=1", "address": "Landwehr 39 S-Bahn Hamburg Landwehr, 22087 Hamburg Germany", "lat": 53.56142, "lng": 10.03747, "ref_id": 17467432, "rating": 5, "num_reviews": 0, "website": "https://www.sternschanze.net/location/sphinx-doener-97", "contact_phone": "+494018046276", "contact_email": null, "status": 1, "source_type": 1, "numberReviews": 6}, {"name": "LuttLiv", "type": "restaurant", "image": "https://dynamic-media-cdn.tripadvisor.com/media/photo-o/0e/70/51/c2/waldburger.jpg?w=1000&s=1", "address": "Maurienstr. 19, 22305 Hamburg Germany", "lat": 53.58566, "lng": 10.04591, "ref_id": 8656712, "rating": 4, "num_reviews": 0, "website": "http://luettliv.de/", "contact_phone": "+49 40 33422422", "contact_email": null, "status": 1, "source_type": 1, "numberReviews": 36}, {"name": "Saha - Das Waldcafe", "type": "restaurant", "image": "https://dynamic-media-cdn.tripadvisor.com/media/photo-o/28/b7/8c/e7/saha-das-waldcafe.jpg?w=1000&s=1", "address": "Burgunderweg 23 Minigolfplatz Niendorfer Miniaturgolf-club, 22453 Hamburg Germany", "lat": 53.62979, "lng": 9.969772, "ref_id": 23566776, "rating": 4.5, "num_reviews": 0, "website": "http://www.saha-hamburg.de", "contact_phone": "+49 40 5552204", "contact_email": "info@saha-hamburg.de", "status": 1, "source_type": 1, "numberReviews": 8}, {"name": "Bar Hamburg", "type": "restaurant", "image": "https://dynamic-media-cdn.tripadvisor.com/media/photo-o/15/a4/70/73/photo0jpg.jpg?w=1000&s=1", "address": "Rautenbergstr. 6-8, 20099 Hamburg Germany", "lat": 53.55632, "lng": 10.00625, "ref_id": 1866710, "rating": 4, "num_reviews": 0, "website": "http://www.barhamburg.com", "contact_phone": "+49 40 36029393", "contact_email": "", "status": 1, "source_type": 1, "numberReviews": 41}, {"name": "Factory Hasselbrook", "type": "restaurant", "image": "https://dynamic-media-cdn.tripadvisor.com/media/photo-o/0c/02/65/eb/factory-hasselbrook.jpg?w=1000&s=1", "address": "Hasselbrookstr. 172, 22089 Hamburg Germany", "lat": 53.565, "lng": 10.056203, "ref_id": 3595125, "rating": 3.5, "num_reviews": 0, "website": "http://www.factory-hasselbrook.com", "contact_phone": "+49 40 205037", "contact_email": "FactoryHamburg@aol.com", "status": 1, "source_type": 1, "numberReviews": 61}, {"name": "Restaurant Augila", "type": "restaurant", "image": "https://dynamic-media-cdn.tripadvisor.com/media/photo-o/07/e2/9f/56/restaurant-augila.jpg?w=1000&s=1", "address": "Hagenbeckstr. 150 Lindner Park-Hotel Hagenback, 22527 Hamburg Germany", "lat": 53.59319, "lng": 9.940531, "ref_id": 1495570, "rating": 4, "num_reviews": 0, "website": "https://www.lindner.de/hamburg-park-hotel-hagenbeck/essen/restaurant-augila.html", "contact_phone": "+49 40 800808380", "contact_email": "restaurant.hagenbeck@lindner.de", "status": 1, "source_type": 1, "numberReviews": 30}, {"name": "Traumkuh", "type": "restaurant", "image": "https://dynamic-media-cdn.tripadvisor.com/media/photo-o/11/03/2c/56/die-leckersten-sossen.jpg?w=1000&s=1", "address": "Grindelallee 146, 20146 Hamburg Germany", "lat": 53.56946, "lng": 9.97967, "ref_id": 12816952, "rating": 4, "num_reviews": 0, "website": "https://www.facebook.com/guterbullehh/", "contact_phone": "+49 40 31171990", "contact_email": "guterbullehh@gmail.com", "status": 1, "source_type": 1, "numberReviews": 38}, {"name": "AJ's Colourful Kitchen", "type": "restaurant", "image": "https://dynamic-media-cdn.tripadvisor.com/media/photo-o/19/ca/9c/c0/aj-s-colourful-kitchen.jpg?w=1000&s=1", "address": "Berner Heerweg 111, 22159 Hamburg Germany", "lat": 53.6002, "lng": 10.11784, "ref_id": 15021963, "rating": 5, "num_reviews": 0, "website": "https://www.facebook.com/AJscolorsofkitchen/", "contact_phone": "+49 40 21071089", "contact_email": null, "status": 1, "source_type": 1, "numberReviews": 7}, {"name": "Cantina Centrale", "type": "restaurant", "image": "https://dynamic-media-cdn.tripadvisor.com/media/photo-o/28/07/6e/1a/sphagetti-ice-cream-prepared.jpg?w=1000&s=1", "address": "Gertrudenkirchhof 6, 20095 Hamburg Germany", "lat": 53.552498, "lng": 10.001323, "ref_id": 25112910, "rating": 5, "num_reviews": 0, "website": "http://www.cantina-centrale.de", "contact_phone": "+49 40 30712928", "contact_email": "info@cantina-centrale.de", "status": 1, "source_type": 1, "numberReviews": 4}, {"name": "Lagano Bistro & Caf\u00e9", "type": "restaurant", "image": "https://dynamic-media-cdn.tripadvisor.com/media/photo-o/27/3c/cc/f2/caption.jpg?w=1000&s=1", "address": "Sankt Georgs Kirchhof 3, 20099 Hamburg Germany", "lat": 53.55621, "lng": 10.00761, "ref_id": 15145760, "rating": 5, "num_reviews": 0, "website": "http://www.lagano-bistro.de", "contact_phone": "+494034866533", "contact_email": null, "status": 1, "source_type": 1, "numberReviews": 6}, {"name": "Bun's Streetfood Hamburg", "type": "restaurant", "image": "https://dynamic-media-cdn.tripadvisor.com/media/photo-o/2a/65/d0/e1/caption.jpg?w=1000&s=1", "address": "Schulterblatt 108, 20357 Hamburg Germany", "lat": 53.564117, "lng": 9.96011, "ref_id": 25556032, "rating": 4.5, "num_reviews": 0, "website": null, "contact_phone": "+49 40 86698070", "contact_email": null, "status": 1, "source_type": 1, "numberReviews": 5}, {"name": "Taverna Kreta", "type": "restaurant", "image": "https://dynamic-media-cdn.tripadvisor.com/media/photo-o/0e/dd/17/3b/vorher-gemischte-platte.jpg?w=1000&s=1", "address": "Grosse Brunnenstr. 31, 22763 Hamburg Germany", "lat": 53.54917, "lng": 9.92528, "ref_id": 1467847, "rating": 4, "num_reviews": 0, "website": "http://tavernakreta.com/", "contact_phone": "+49 40 395009", "contact_email": "", "status": 1, "source_type": 1, "numberReviews": 17}, {"name": "Viet-Garden", "type": "restaurant", "image": "https://dynamic-media-cdn.tripadvisor.com/media/photo-o/29/1e/d9/a3/caption.jpg?w=1000&s=1", "address": "Saseler Chaussee 205, 22393 Hamburg Germany", "lat": 53.55556, "lng": 10.013171, "ref_id": 25650569, "rating": 4.5, "num_reviews": 0, "website": null, "contact_phone": "+49 40 52701833", "contact_email": null, "status": 1, "source_type": 1, "numberReviews": 5}, {"name": "Taverna Pegasus Bergstedt", "type": "restaurant", "image": "https://dynamic-media-cdn.tripadvisor.com/media/photo-o/14/73/51/a7/img-20180903-141620-largejpg.jpg?w=1000&s=1", "address": "Bergstedter Chaussee 128, 22395 Hamburg Germany", "lat": 53.67012, "lng": 10.12642, "ref_id": 13946087, "rating": 3.5, "num_reviews": 0, "website": "https://www.facebook.com/Taverna-Pegasus-Bergstedt-1798041307144085/", "contact_phone": "+49 40 64430710", "contact_email": null, "status": 1, "source_type": 1, "numberReviews": 36}, {"name": "Domino's Pizza", "type": "restaurant", "image": "https://dynamic-media-cdn.tripadvisor.com/media/photo-o/07/f7/29/17/hellas-pizza-house.jpg?w=1000&s=1", "address": "Eiffestr. 181, 20537 Hamburg Germany", "lat": 53.55286, "lng": 10.046127, "ref_id": 5513816, "rating": 4, "num_reviews": 0, "website": "https://www.dominos.de/filiale/de-hamburghamm-34041", "contact_phone": "+49 40 25497300", "contact_email": "info@dominos.de", "status": 1, "source_type": 1, "numberReviews": 19}, {"name": "TWOSIX", "type": "restaurant", "image": "https://dynamic-media-cdn.tripadvisor.com/media/photo-o/1a/da/63/77/weinbar-26-terrace.jpg?w=1000&s=1", "address": "Congressplatz 2 Radisson Blu Hotel, 20354 Hamburg Germany", "lat": 53.56018, "lng": 9.9846, "ref_id": 19888398, "rating": 4.5, "num_reviews": 0, "website": "http://twosix.hamburg", "contact_phone": "+49 40 35023543", "contact_email": "welcome@twosix.hamburg", "status": 1, "source_type": 1, "numberReviews": 8}, {"name": "K\u00d6RRI Speisekontor", "type": "restaurant", "image": "https://dynamic-media-cdn.tripadvisor.com/media/photo-o/18/42/b4/7f/eventlocation-korri.jpg?w=1000&s=1", "address": "Springeltwiete 2 Sprinkenhof, 20095 Hamburg Germany", "lat": 53.54863, "lng": 10.003879, "ref_id": 1963482, "rating": 4.5, "num_reviews": 0, "website": "http://www.koerri-deutschland.de/de/index.php", "contact_phone": "+49 40 76755100", "contact_email": "info@koerri-deutschland.de", "status": 1, "source_type": 1, "numberReviews": 143}, {"name": "Elies Griechisches Restaurant und Bar", "type": "restaurant", "image": null, "address": "Abendrothsweg 55, 20251 Hamburg Germany", "lat": 53.58424, "lng": 9.97505, "ref_id": 23606932, "rating": 5, "num_reviews": 0, "website": "http://elies-restaurant.de/", "contact_phone": "+49 2533 5233", "contact_email": "post@elies-restaurant.de", "status": 1, "source_type": 1, "numberReviews": 5}, {"name": "Weinladen", "type": "restaurant", "image": null, "address": "Paul-Roosen-Str. 29, 22767 Hamburg Germany", "lat": 53.55313, "lng": 9.95784, "ref_id": 15087821, "rating": 5, "num_reviews": 0, "website": "http://www.weinladen.de/st-pauli-weinladen", "contact_phone": null, "contact_email": null, "status": 1, "source_type": 1, "numberReviews": 7}, {"name": "Rindock\u2018s", "type": "restaurant", "image": "https://dynamic-media-cdn.tripadvisor.com/media/photo-o/17/03/69/dc/img-20190331-wa0002-largejpg.jpg?w=1000&s=1", "address": "Lohbrugger Landstrasse 119 Bergedorf, 21031 Hamburg Germany", "lat": 53.503, "lng": 10.193277, "ref_id": 15078164, "rating": 4, "num_reviews": 0, "website": "http://www.rindocks.de/index.html", "contact_phone": "+49 40 72106755", "contact_email": "rindocks@outlook.de", "status": 1, "source_type": 1, "numberReviews": 20}, {"name": "Baradona", "type": "restaurant", "image": "https://dynamic-media-cdn.tripadvisor.com/media/photo-o/0b/4c/20/2e/die-gemutlichen-platze.jpg?w=1000&s=1", "address": "Bismarckstr. 95, 20253 Hamburg Germany", "lat": 53.5763, "lng": 9.96946, "ref_id": 5610420, "rating": 5, "num_reviews": 0, "website": "http://www.baradona.com", "contact_phone": "+49 40 42102050", "contact_email": "corrado@baradona.com", "status": 1, "source_type": 1, "numberReviews": 11}, {"name": "Asiahung", "type": "restaurant", "image": "https://dynamic-media-cdn.tripadvisor.com/media/photo-o/06/9e/57/da/asiahung.jpg?w=1000&s=1", "address": "Kleinjohannes Strasse, Hamburg Germany", "lat": 53.54947, "lng": 9.99379, "ref_id": 4226550, "rating": 4, "num_reviews": 0, "website": "http://www.asiahung.de/standorte/standorte-asiahung/", "contact_phone": null, "contact_email": "restaurants@asiahung.de", "status": 1, "source_type": 1, "numberReviews": 15}, {"name": "Ciao Bella", "type": "restaurant", "image": "https://dynamic-media-cdn.tripadvisor.com/media/photo-o/1b/da/b9/73/ciao-bella.jpg?w=1000&s=1", "address": "Ballindamm 40, 20095 Hamburg Germany", "lat": 53.55182, "lng": 9.99532, "ref_id": 5505616, "rating": 4, "num_reviews": 0, "website": "http://www.ciaobella-italianfood.de/", "contact_phone": "+49 40 30709936", "contact_email": null, "status": 1, "source_type": 1, "numberReviews": 14}, {"name": "Bolero Rotherbaum", "type": "restaurant", "image": "https://dynamic-media-cdn.tripadvisor.com/media/photo-o/17/98/ad/5a/bolero-rotherbaum.jpg?w=1000&s=1", "address": "Rothenbaumchaussee 78, 20148 Hamburg Germany", "lat": 53.57227, "lng": 9.988936, "ref_id": 1090513, "rating": 3.5, "num_reviews": 0, "website": "http://www.bolerobar.de", "contact_phone": "+49 40 41497700", "contact_email": "rothenbaum@bolero.bar", "status": 1, "source_type": 1, "numberReviews": 52}, {"name": "Gr\u00fcner J\u00e4ger", "type": "restaurant", "image": "https://dynamic-media-cdn.tripadvisor.com/media/photo-o/1c/e8/a7/b5/barbereich-eg.jpg?w=1000&s=1", "address": "Neuer Pferdemarkt 36, 20359 Hamburg Germany", "lat": 53.55675, "lng": 9.963712, "ref_id": 23338876, "rating": 5, "num_reviews": 0, "website": "http://www.gruener-jaeger-stpauli.de", "contact_phone": "+49 40 21994029", "contact_email": "jagd@gruener-jaeger-stpauli.de", "status": 1, "source_type": 1, "numberReviews": 5}, {"name": "Aivy Ca Phe", "type": "restaurant", "image": "https://dynamic-media-cdn.tripadvisor.com/media/photo-o/1c/39/be/27/img-20200920-160217-largejpg.jpg?w=1000&s=1", "address": "Jenfelder Allee 55, 22043 Hamburg Germany", "lat": 53.580765, "lng": 10.127464, "ref_id": 10887971, "rating": 5, "num_reviews": 0, "website": "https://www.facebook.com/919941901349872", "contact_phone": "+4917637000370", "contact_email": "aivycaphe@gmail.com", "status": 1, "source_type": 1, "numberReviews": 7}, {"name": "Merrano", "type": "restaurant", "image": "https://dynamic-media-cdn.tripadvisor.com/media/photo-o/13/b2/77/90/photo0jpg.jpg?w=1000&s=1", "address": "Cuxhavener Str. 292, 21149 Hamburg Germany", "lat": 53.471508, "lng": 9.863124, "ref_id": 10811074, "rating": 4, "num_reviews": 0, "website": "http://Www.merrano.de", "contact_phone": "+49 40 70201001", "contact_email": null, "status": 1, "source_type": 1, "numberReviews": 27}, {"name": "Die Pizzeria K\u00f6nig", "type": "restaurant", "image": "https://dynamic-media-cdn.tripadvisor.com/media/photo-o/18/65/3b/a7/photo0jpg.jpg?w=1000&s=1", "address": "Bahrenfelder Str. 98 Nahe Spritzenplatz, 22765 Hamburg Germany", "lat": 53.55109, "lng": 9.93028, "ref_id": 15017672, "rating": 5, "num_reviews": 0, "website": "http://www.diepizzeriakoenig.de", "contact_phone": "+49 40 41358877", "contact_email": "ml@diepizzeriakoenig.de", "status": 1, "source_type": 1, "numberReviews": 13}, {"name": "H\u00e0 D\u0103ng", "type": "restaurant", "image": "https://dynamic-media-cdn.tripadvisor.com/media/photo-o/1b/1b/0d/6b/photo0jpg.jpg?w=1000&s=1", "address": "Bergedorfer Stra\u00dfe 152, 21029 Hamburg Germany", "lat": 53.48591, "lng": 10.21481, "ref_id": 18961341, "rating": 5, "num_reviews": 0, "website": "https://www.facebook.com/332973440617310", "contact_phone": "+494072105999", "contact_email": null, "status": 1, "source_type": 1, "numberReviews": 14}, {"name": "La Serenissima", "type": "restaurant", "image": "https://dynamic-media-cdn.tripadvisor.com/media/photo-o/11/ff/bd/c6/photo2jpg.jpg?w=1000&s=1", "address": "Ifflandstr. 92, 22087 Hamburg Germany", "lat": 53.563828, "lng": 10.024197, "ref_id": 1039207, "rating": 4, "num_reviews": 0, "website": "https://www.facebook.com/pages/La-Serenissima/106721206057369", "contact_phone": "+49 40 2204908", "contact_email": "hallo@laserenissima.hamburg", "status": 1, "source_type": 1, "numberReviews": 52}, {"name": "UeberQuell Brauwerkstaetten", "type": "restaurant", "image": "https://dynamic-media-cdn.tripadvisor.com/media/photo-o/1c/ac/3f/4d/uberquell-brewpub.jpg?w=1000&s=1", "address": "St. Pauli Fischmarkt 28-32 Riverkasematten, 20359 Hamburg Germany", "lat": 53.54627, "lng": 9.958573, "ref_id": 12455776, "rating": 3.5, "num_reviews": 0, "website": "http://www.ueberquell.com", "contact_phone": "+49 40 334421260", "contact_email": "hello@ueberquell.com", "status": 1, "source_type": 1, "numberReviews": 127}, {"name": "Doris' Diner", "type": "restaurant", "image": "https://dynamic-media-cdn.tripadvisor.com/media/photo-o/1c/57/f1/08/doris-diner.jpg?w=1000&s=1", "address": "Grindelhof 43, 20146 Hamburg Germany", "lat": 53.569077, "lng": 9.983576, "ref_id": 954504, "rating": 4, "num_reviews": 0, "website": "http://www.doris-diner.de/", "contact_phone": "+49 40 440278", "contact_email": "", "status": 1, "source_type": 1, "numberReviews": 91}, {"name": "Achilleon", "type": "restaurant", "image": "https://dynamic-media-cdn.tripadvisor.com/media/photo-o/10/73/0e/be/img-20170827-214719-138.jpg?w=1000&s=1", "address": "Holtenklinker Str. 74, 21029 Hamburg Germany", "lat": 53.48303, "lng": 10.22173, "ref_id": 1038878, "rating": 4.5, "num_reviews": 0, "website": "https://achilleon-restaurant.de/", "contact_phone": "+49 40 72693667", "contact_email": "", "status": 1, "source_type": 1, "numberReviews": 29}, {"name": "No Ne Bistro", "type": "restaurant", "image": "https://dynamic-media-cdn.tripadvisor.com/media/photo-o/12/df/8e/85/photo1jpg.jpg?w=1000&s=1", "address": "Hofweg 41, 22085 Hamburg Germany", "lat": 53.57128, "lng": 10.01603, "ref_id": 6872103, "rating": 4.5, "num_reviews": 0, "website": "https://www.facebook.com/1480711558835862", "contact_phone": "+49 40 225090", "contact_email": null, "status": 1, "source_type": 1, "numberReviews": 28}, {"name": "The Lisbeth", "type": "restaurant", "image": "https://dynamic-media-cdn.tripadvisor.com/media/photo-o/29/03/d6/21/the-lisbeth.jpg?w=1000&s=1", "address": "Deichstra\u00dfe 32, 20459 Hamburg Germany", "lat": 53.546215, "lng": 9.987149, "ref_id": 23446171, "rating": 4, "num_reviews": 0, "website": "http://www.cantinepapalisbeth.de/", "contact_phone": "+49 40 36096767", "contact_email": "andre@cplisbeth.de", "status": 1, "source_type": 1, "numberReviews": 32}, {"name": "Restaurant La Prego", "type": "restaurant", "image": "https://dynamic-media-cdn.tripadvisor.com/media/photo-o/19/35/63/cc/photo1jpg.jpg?w=1000&s=1", "address": "Gerhofstr. 32, 20354 Hamburg Germany", "lat": 53.554382, "lng": 9.989181, "ref_id": 1344512, "rating": 3.5, "num_reviews": 0, "website": "http://laprego-hh.de/", "contact_phone": "+49 40 35719310", "contact_email": "", "status": 1, "source_type": 1, "numberReviews": 176}, {"name": "Hej Papa Kitchen and Coffee", "type": "restaurant", "image": "https://dynamic-media-cdn.tripadvisor.com/media/photo-o/12/7d/9b/b1/hausgemachter-vanille.jpg?w=1000&s=1", "address": "Poolstr. 32, 20355 Hamburg Germany", "lat": 53.554256, "lng": 9.979841, "ref_id": 8006288, "rating": 4, "num_reviews": 0, "website": "http://hej-papa.de", "contact_phone": "+49 40 66872742", "contact_email": "kontakt@hejpapa.de", "status": 1, "source_type": 1, "numberReviews": 73}, {"name": "Neshan Persische K\u00fcche", "type": "restaurant", "image": "https://dynamic-media-cdn.tripadvisor.com/media/photo-o/29/3c/3c/e4/caption.jpg?w=1000&s=1", "address": "Berlinertordamm 4, 20099 Hamburg, 20099 Hamburg Germany", "lat": 53.55392, "lng": 10.024887, "ref_id": 23512559, "rating": 4.5, "num_reviews": 0, "website": "http://neshan-restaurant.de", "contact_phone": "+49 40 28007816", "contact_email": null, "status": 1, "source_type": 1, "numberReviews": 22}, {"name": "Mahajivan", "type": "restaurant", "image": "https://dynamic-media-cdn.tripadvisor.com/media/photo-o/29/57/48/05/mahajivan.jpg?w=1000&s=1", "address": "Hein-hoyer-stra\u00dfe 10, 20359 Hamburg Germany", "lat": 53.55011, "lng": 9.9624, "ref_id": 23742571, "rating": 5, "num_reviews": 0, "website": "https://www.facebook.com/Mahajivan-Restaurant-107096061663973/", "contact_phone": "+494031182226", "contact_email": null, "status": 1, "source_type": 1, "numberReviews": 12}, {"name": "Hokkai Sushi", "type": "restaurant", "image": "https://dynamic-media-cdn.tripadvisor.com/media/photo-o/14/b9/8d/98/photo1jpg.jpg?w=1000&s=1", "address": "Valentinskamp 18, 20354 Hamburg Germany", "lat": 53.55547, "lng": 9.9862, "ref_id": 966303, "rating": 4.5, "num_reviews": 0, "website": "http://www.hokkai-sushi.de/", "contact_phone": "+49 40 36913436", "contact_email": "", "status": 1, "source_type": 1, "numberReviews": 32}, {"name": "SuChi", "type": "restaurant", "image": "https://dynamic-media-cdn.tripadvisor.com/media/photo-o/0f/45/04/68/freestyle-18er-variation.jpg?w=1000&s=1", "address": "Veringstra\u00dfe 28 21107 Hamburg, 21107 Hamburg Germany", "lat": 53.516018, "lng": 9.987547, "ref_id": 8272070, "rating": 4.5, "num_reviews": 0, "website": "http://www.facebook.de/SuChi.de", "contact_phone": "+49 40 60859061", "contact_email": "reservierung@su-chi.de", "status": 1, "source_type": 1, "numberReviews": 51}, {"name": "Kyodai", "type": "restaurant", "image": "https://dynamic-media-cdn.tripadvisor.com/media/photo-o/12/94/d8/1e/photo0jpg.jpg?w=1000&s=1", "address": "Ludolfstr. 60, 20249 Hamburg Germany", "lat": 53.59247, "lng": 9.99229, "ref_id": 7933099, "rating": 4.5, "num_reviews": 0, "website": "http://sushi-kyodai-hamburg.de", "contact_phone": "+49 40 36035333", "contact_email": null, "status": 1, "source_type": 1, "numberReviews": 34}, {"name": "Ristorante Leon", "type": "restaurant", "image": "https://dynamic-media-cdn.tripadvisor.com/media/photo-o/1b/b9/05/ca/20200807-201238-largejpg.jpg?w=1000&s=1", "address": "Koppel 1, 20099 Hamburg Germany", "lat": 53.556576, "lng": 10.008264, "ref_id": 3255344, "rating": 4, "num_reviews": 0, "website": "https://www.facebook.com/Restaurant-Leon-502136519847287/", "contact_phone": "+49 40 28004790", "contact_email": null, "status": 1, "source_type": 1, "numberReviews": 53}, {"name": "Gran Sasso", "type": "restaurant", "image": "https://dynamic-media-cdn.tripadvisor.com/media/photo-o/1b/ab/b0/17/gran-sasso.jpg?w=1000&s=1", "address": "Schlueterstr. 12, 20146 Hamburg Germany", "lat": 53.56504, "lng": 9.98696, "ref_id": 7727852, "rating": 4, "num_reviews": 0, "website": "http://www.ristorante-gran-sasso.de", "contact_phone": "+49 40 446743", "contact_email": null, "status": 1, "source_type": 1, "numberReviews": 42}, {"name": "Restaurant Jannis", "type": "restaurant", "image": "https://dynamic-media-cdn.tripadvisor.com/media/photo-o/18/a2/f1/3d/gegrillte-garnelen.jpg?w=1000&s=1", "address": "Waldd\u00f6rferstrasse 115, 22047 Hamburg Germany", "lat": 53.57974, "lng": 10.08165, "ref_id": 1039351, "rating": 4.5, "num_reviews": 0, "website": "http://www.jannis-wandsbek.de/", "contact_phone": "+49 40 28058260", "contact_email": "", "status": 1, "source_type": 1, "numberReviews": 40}, {"name": "Henny's Restaurant & Events", "type": "restaurant", "image": "https://dynamic-media-cdn.tripadvisor.com/media/photo-o/17/5c/5b/07/photo1jpg.jpg?w=1000&s=1", "address": "Hans-henny-jahnn-weg 1, 22085 Hamburg Germany", "lat": 53.57911, "lng": 10.013699, "ref_id": 7853776, "rating": 3.5, "num_reviews": 0, "website": "https://hennys-hamburg.de", "contact_phone": "+49 40 20769950", "contact_email": "info@hennys-hamburg.de", "status": 1, "source_type": 1, "numberReviews": 315}, {"name": "Cap San Diego", "type": "restaurant", "image": "https://dynamic-media-cdn.tripadvisor.com/media/photo-o/11/18/e0/48/photo1jpg.jpg?w=1000&s=1", "address": "Uberseebrucke, 20459 Hamburg Germany", "lat": 53.543182, "lng": 9.976586, "ref_id": 1039082, "rating": 4, "num_reviews": 0, "website": "http://www.capsandiego.de", "contact_phone": "+49 40 37501182", "contact_email": "", "status": 1, "source_type": 1, "numberReviews": 76}, {"name": "Ristorante Salentino", "type": "restaurant", "image": "https://dynamic-media-cdn.tripadvisor.com/media/photo-o/08/d5/99/30/ristorante-salentino.jpg?w=1000&s=1", "address": "Poelchaukamp 1, 22301 Hamburg Germany", "lat": 53.58166, "lng": 10.0108, "ref_id": 1898096, "rating": 4.5, "num_reviews": 0, "website": "http://www.ristorante-salentino.de", "contact_phone": "+49 40 68991808", "contact_email": "", "status": 1, "source_type": 1, "numberReviews": 33}, {"name": "Dubrovnik Ei\u00dfendorf", "type": "restaurant", "image": "https://dynamic-media-cdn.tripadvisor.com/media/photo-o/2b/2e/e7/90/planen-sie-jetzt-im-dubrovnik.jpg?w=1000&s=1", "address": "Hainholzweg 69, 21077 Hamburg Germany", "lat": 53.47299, "lng": 10.22989, "ref_id": 857894, "rating": 4.5, "num_reviews": 0, "website": "http://www.dubrovnik-hamburg-harburg.de", "contact_phone": "+49 40 79142842", "contact_email": "info@dubrovnik-hamburg-harburg.de", "status": 1, "source_type": 1, "numberReviews": 44}, {"name": "Meram Restaurant", "type": "restaurant", "image": "https://dynamic-media-cdn.tripadvisor.com/media/photo-o/06/c6/ae/d5/meram-restaurant.jpg?w=1000&s=1", "address": "Billstedter Hauptstr. 47, 22111 Hamburg Germany", "lat": 53.5404, "lng": 10.102024, "ref_id": 1039059, "rating": 4.5, "num_reviews": 0, "website": "http://www.meram.de/", "contact_phone": "+49 40 7314656", "contact_email": "", "status": 1, "source_type": 1, "numberReviews": 56}, {"name": "Rio The Grillbar", "type": "restaurant", "image": "https://dynamic-media-cdn.tripadvisor.com/media/photo-o/0e/91/ad/2d/photo1jpg.jpg?w=1000&s=1", "address": "Fuhlsbuettler Str. 666, 22337 Hamburg Germany", "lat": 53.615017, "lng": 10.0354, "ref_id": 11847648, "rating": 4, "num_reviews": 0, "website": "http://rio-grillbar.com", "contact_phone": "+49 40 6317979", "contact_email": null, "status": 1, "source_type": 1, "numberReviews": 36}, {"name": "Stammtisch GmbH", "type": "restaurant", "image": "https://dynamic-media-cdn.tripadvisor.com/media/photo-o/2a/8d/59/1e/brombeer-tarte-hausgemachtes.jpg?w=1000&s=1", "address": "Mu\u0308hlenkamp 54, 22303 Hamburg Germany", "lat": 53.58347, "lng": 10.010004, "ref_id": 24041106, "rating": 5, "num_reviews": 0, "website": "http://stammtisch-restaurant.de", "contact_phone": "+49 40 30953030", "contact_email": "info@stammtisch-restaurant.de", "status": 1, "source_type": 1, "numberReviews": 11}, {"name": "HANS IM GLUECK Burgergrill & Bar", "type": "restaurant", "image": "https://dynamic-media-cdn.tripadvisor.com/media/photo-o/17/69/4a/dd/interieur-du-restaurant.jpg?w=1000&s=1", "address": "Boersenbruecke 10 / Ecke Trostbruecke 4 - 6 Trostbruecke, 20457 Hamburg Germany", "lat": 53.548626, "lng": 9.992613, "ref_id": 13424653, "rating": 3.5, "num_reviews": 0, "website": "https://hansimglueck-burgergrill.de/burger-restaurant/hamburg-altes-rathaus/?utm_source=extnet&utm_medium=yext&utm_campaign=43", "contact_phone": "+49 40 52472592", "contact_email": "altesrathaus@hansimglueck-burgergrill.de", "status": 1, "source_type": 1, "numberReviews": 130}, {"name": "Balutschi", "type": "restaurant", "image": "https://dynamic-media-cdn.tripadvisor.com/media/photo-o/1a/3b/c9/f7/photo0jpg.jpg?w=1000&s=1", "address": "Grindelallee 31, 20146 Hamburg Germany", "lat": 53.56573, "lng": 9.98225, "ref_id": 3786355, "rating": 4.5, "num_reviews": 0, "website": "http://www.balutschi.com/", "contact_phone": "+49 40 452479", "contact_email": "info@balutschi.com", "status": 1, "source_type": 1, "numberReviews": 34}, {"name": "La Maison d'Avignon Chez Mathias Mercier", "type": "restaurant", "image": "https://dynamic-media-cdn.tripadvisor.com/media/photo-o/2b/30/c7/8c/caption.jpg?w=1000&s=1", "address": "ArnoldstraBe 2, 22765 Hamburg Germany", "lat": 53.54969, "lng": 9.93039, "ref_id": 27124109, "rating": 5, "num_reviews": 0, "website": "lamaisonavignon.de", "contact_phone": "+49 40 28806512", "contact_email": "info@lamaisonavignon.de", "status": 1, "source_type": 1, "numberReviews": 9}, {"name": "Restaurant Opatija", "type": "restaurant", "image": "https://dynamic-media-cdn.tripadvisor.com/media/photo-o/11/65/49/32/20171126-201546-largejpg.jpg?w=1000&s=1", "address": "Am Sportplatz 98, 21509 Glinde, Schleswig-Holstein Germany", "lat": 53.548893, "lng": 10.218343, "ref_id": 2434858, "rating": 4.5, "num_reviews": 0, "website": "http://www.opatija.tsv-glinde.de/", "contact_phone": "+49 40 7108388", "contact_email": "", "status": 1, "source_type": 1, "numberReviews": 37}, {"name": "Favoloso", "type": "restaurant", "image": "https://dynamic-media-cdn.tripadvisor.com/media/photo-o/28/78/cc/e8/favoloso-restaurant.jpg?w=1000&s=1", "address": "Dammtorstr. 25, 20354 Hamburg Germany", "lat": 53.557228, "lng": 9.988718, "ref_id": 9786605, "rating": 4, "num_reviews": 0, "website": "http://www.favoloso.de/", "contact_phone": "+49 40 35018960", "contact_email": null, "status": 1, "source_type": 1, "numberReviews": 102}, {"name": "Rissener D\u00f6ner Pavillion", "type": "restaurant", "image": null, "address": "Wedeler Landstr. 53e, 22559 Hamburg Germany", "lat": 53.5817, "lng": 9.75465, "ref_id": 21338463, "rating": 5, "num_reviews": 0, "website": "http://rissenerd\u00f6ner.de", "contact_phone": "+49 40 81956329", "contact_email": null, "status": 1, "source_type": 1, "numberReviews": 5}, {"name": "Restaurant River View", "type": "restaurant", "image": "https://dynamic-media-cdn.tripadvisor.com/media/photo-o/10/1c/09/6c/restaurant-river-view.jpg?w=1000&s=1", "address": "Hein-Sa\u00df-Weg 40 The Rilano Hotel Hamburg, 21129 Hamburg Germany", "lat": 53.5408, "lng": 9.86243, "ref_id": 1039066, "rating": 4, "num_reviews": 0, "website": "https://www.elaya-hotels.com/hamburg-finkenwerder/restaurant-und-bar/restaurant/", "contact_phone": "+49 40 300849691", "contact_email": "fb-hamburg@rilano.com", "status": 1, "source_type": 1, "numberReviews": 32}, {"name": "Feuervogel", "type": "restaurant", "image": "https://dynamic-media-cdn.tripadvisor.com/media/photo-o/0d/c9/33/b0/feurvogel-restaurant.jpg?w=1000&s=1", "address": "Wandsbeker Chaussee 303, 22089 Hamburg Germany", "lat": 53.57, "lng": 10.057778, "ref_id": 10902871, "rating": 3.5, "num_reviews": 0, "website": "http://www.restaurant-feuervogel.de/home/", "contact_phone": "+49 40 201129", "contact_email": null, "status": 1, "source_type": 1, "numberReviews": 45}, {"name": "Restaurant Naoussa", "type": "restaurant", "image": "https://dynamic-media-cdn.tripadvisor.com/media/photo-o/2b/f2/de/49/caption.jpg?w=1000&s=1", "address": "Paul-Sorge-Str. 142 A U-Bahn Schippelsweg, 22455 Hamburg Germany", "lat": 53.634865, "lng": 9.953595, "ref_id": 26556079, "rating": 5, "num_reviews": 0, "website": "https://www.naoussa-restaurant.de", "contact_phone": "+49 40 5514557", "contact_email": "info@naoussa-restaurant.de", "status": 1, "source_type": 1, "numberReviews": 4}, {"name": "Doner Queen", "type": "restaurant", "image": "https://dynamic-media-cdn.tripadvisor.com/media/photo-o/16/08/73/27/vegetarian.jpg?w=1000&s=1", "address": "Jarrestr. 57, 22303 Hamburg Germany", "lat": 53.585396, "lng": 10.026561, "ref_id": 5531758, "rating": 4.5, "num_reviews": 0, "website": "http://doenerqueen.com", "contact_phone": "+49 40 60008905", "contact_email": "info@donerqueen.com", "status": 1, "source_type": 1, "numberReviews": 19}, {"name": "Kumpir Altona", "type": "restaurant", "image": "https://dynamic-media-cdn.tripadvisor.com/media/photo-o/0a/77/35/5c/kumpir-altona.jpg?w=1000&s=1", "address": "Bahrenfelder Str. 168, 22765 Hamburg Germany", "lat": 53.5542, "lng": 9.9288, "ref_id": 5827106, "rating": 4, "num_reviews": 0, "website": "http://www.kumpir-altona.de", "contact_phone": "+49 40 63655200", "contact_email": null, "status": 1, "source_type": 1, "numberReviews": 20}, {"name": "Mr. Hoh", "type": "restaurant", "image": "https://dynamic-media-cdn.tripadvisor.com/media/photo-o/0f/3e/aa/b1/photo0jpg.jpg?w=1000&s=1", "address": "Lornsenstrasse 122, 22869 Schenefeld, Schleswig-Holstein Germany", "lat": 53.60809, "lng": 9.84038, "ref_id": 1364405, "rating": 3.5, "num_reviews": 0, "website": null, "contact_phone": "+49 40 8304990", "contact_email": "", "status": 1, "source_type": 1, "numberReviews": 34}, {"name": "Rucola e Parma", "type": "restaurant", "image": "https://dynamic-media-cdn.tripadvisor.com/media/photo-o/0c/4a/96/73/hier-fuhlt-man-sich-wohl.jpg?w=1000&s=1", "address": "Beim Schlump 27, 20144 Hamburg Germany", "lat": 53.57007, "lng": 9.97537, "ref_id": 5506140, "rating": 4.5, "num_reviews": 0, "website": "https://www.facebook.com/Rucolaeparmaschlump/", "contact_phone": "+49 40 45069988", "contact_email": "METHFESSEL@RUCOLAEPARMA.DE", "status": 1, "source_type": 1, "numberReviews": 15}, {"name": "Elbperle", "type": "restaurant", "image": "https://dynamic-media-cdn.tripadvisor.com/media/photo-o/13/99/d7/ef/20180707-154055-largejpg.jpg?w=1000&s=1", "address": "Grosse Elbstrasse 6 - 8, 22767 Hamburg Germany", "lat": 53.54528, "lng": 9.95197, "ref_id": 1373175, "rating": 4, "num_reviews": 0, "website": "http://www.elb-perle.de", "contact_phone": "+49 40 33398981", "contact_email": "", "status": 1, "source_type": 1, "numberReviews": 26}, {"name": "Country Kitchen", "type": "restaurant", "image": "https://dynamic-media-cdn.tripadvisor.com/media/photo-o/15/a5/3f/41/ambiente.jpg?w=1000&s=1", "address": "Hemmingstedter Weg 2, 22607 Hamburg Germany", "lat": 53.565224, "lng": 9.870846, "ref_id": 2156587, "rating": 3.5, "num_reviews": 0, "website": "http://www.countrykitchen.de/", "contact_phone": "+49 40 85197778", "contact_email": "", "status": 1, "source_type": 1, "numberReviews": 64}, {"name": "Se\u00f1or Loco", "type": "restaurant", "image": "https://dynamic-media-cdn.tripadvisor.com/media/photo-o/2a/9e/02/f5/caption.jpg?w=1000&s=1", "address": "Grossneumarkt, 54, 20459 Hamburg Germany", "lat": 53.55015, "lng": 9.98071, "ref_id": 23677718, "rating": 4.5, "num_reviews": 0, "website": "https://senorloco.de/", "contact_phone": "+49 40 42916266", "contact_email": "hallo@senorloco.de", "status": 1, "source_type": 1, "numberReviews": 6}, {"name": "Lezzet", "type": "restaurant", "image": "https://dynamic-media-cdn.tripadvisor.com/media/photo-o/1a/02/03/19/photo0jpg.jpg?w=1000&s=1", "address": "Fuhlsb\u00fcttler Str. 173, 22307, 22307 Hamburg Germany", "lat": 53.59422, "lng": 10.04382, "ref_id": 19315697, "rating": 5, "num_reviews": 0, "website": null, "contact_phone": "+49 40 21076480", "contact_email": null, "status": 1, "source_type": 1, "numberReviews": 5}, {"name": "Gloria", "type": "restaurant", "image": "https://dynamic-media-cdn.tripadvisor.com/media/photo-o/14/33/f6/55/photo2jpg.jpg?w=1000&s=1", "address": "Bellealliancestr. 31-33, 20259 Hamburg Germany", "lat": 53.567844, "lng": 9.959544, "ref_id": 7392415, "rating": 3.5, "num_reviews": 0, "website": "http://www.gloriabar.de", "contact_phone": "+49 40 43290464", "contact_email": "info@gloriabar.de", "status": 1, "source_type": 1, "numberReviews": 37}, {"name": "Landhaus Ohlstedt", "type": "restaurant", "image": "https://dynamic-media-cdn.tripadvisor.com/media/photo-o/02/38/0d/58/bauernfrustuck.jpg?w=1000&s=1", "address": "Alte Dorfstr. 5, 22397 Hamburg Germany", "lat": 53.69562, "lng": 10.13842, "ref_id": 1006787, "rating": 4, "num_reviews": 0, "website": "http://www.landhaus-ohlstedt.de", "contact_phone": "+49 40 6056700", "contact_email": "", "status": 1, "source_type": 1, "numberReviews": 25}, {"name": "Del", "type": "restaurant", "image": "https://dynamic-media-cdn.tripadvisor.com/media/photo-o/0d/4d/b5/09/photo1jpg.jpg?w=1000&s=1", "address": "Poppenbuettler Landstr. 1, 22391 Hamburg Germany", "lat": 53.647152, "lng": 10.087764, "ref_id": 2351403, "rating": 4, "num_reviews": 0, "website": "http://www.del-restaurant.de/", "contact_phone": "+49 40 6027061", "contact_email": "info@del-restaurant.de", "status": 1, "source_type": 1, "numberReviews": 60}, {"name": "Ristorante Dolcetto", "type": "restaurant", "image": "https://dynamic-media-cdn.tripadvisor.com/media/photo-o/26/0c/ad/59/ristorante-dolcetto.jpg?w=1000&s=1", "address": "Gro\u00dfe B\u00e4ckerstr. 2, 20095 Hamburg Germany", "lat": 53.54896, "lng": 9.992595, "ref_id": 23902662, "rating": 4, "num_reviews": 0, "website": "http://www.dolcetto-hamburg.de", "contact_phone": "+49 40 378220", "contact_email": "info@dolcetto-hamburg.de", "status": 1, "source_type": 1, "numberReviews": 23}, {"name": "Kaiserperle", "type": "restaurant", "image": "https://dynamic-media-cdn.tripadvisor.com/media/photo-o/0c/5f/39/2e/zwischen-elbphilharmonie.jpg?w=1000&s=1", "address": "Am Kaiserkai Hafencity, 20457 Hamburg Germany", "lat": 53.540695, "lng": 9.987428, "ref_id": 1924269, "rating": 3.5, "num_reviews": 0, "website": "http://www.kaiserperle.eu", "contact_phone": "+49 40 30068895", "contact_email": "", "status": 1, "source_type": 1, "numberReviews": 48}, {"name": "Olympia Grill", "type": "restaurant", "image": "https://dynamic-media-cdn.tripadvisor.com/media/photo-o/19/db/5c/db/grillteller.jpg?w=1000&s=1", "address": "Caspar-voght-stra\u00dfe 71, 20535 Hamburg Germany", "lat": 53.56297, "lng": 10.05906, "ref_id": 12338193, "rating": 4.5, "num_reviews": 0, "website": "http://olympiagrill-hamburg.com", "contact_phone": "+494020976251", "contact_email": "olympiagrillhamburg@gmail.com", "status": 1, "source_type": 1, "numberReviews": 8}, {"name": "Rio Grande", "type": "restaurant", "image": "https://dynamic-media-cdn.tripadvisor.com/media/photo-o/0f/9c/25/69/20170618-192832-largejpg.jpg?w=1000&s=1", "address": "Schmiedestr. 2, 25462 Rellingen, Schleswig-Holstein Germany", "lat": 53.65004, "lng": 9.83047, "ref_id": 1960166, "rating": 3.5, "num_reviews": 0, "website": "http://rio-grande.de.com/", "contact_phone": "+49 4101 599855", "contact_email": "", "status": 1, "source_type": 1, "numberReviews": 58}, {"name": "\u0102nici", "type": "restaurant", "image": "https://dynamic-media-cdn.tripadvisor.com/media/photo-o/1c/47/f0/3b/photo0jpg.jpg?w=1000&s=1", "address": "Emilienstr. 22 - 24, 20259 Hamburg Germany", "lat": 53.5757, "lng": 9.9553, "ref_id": 19984660, "rating": 5, "num_reviews": 0, "website": "http://anici.de/", "contact_phone": "+49 40 82312500", "contact_email": "info@anici.de", "status": 1, "source_type": 1, "numberReviews": 4}, {"name": "Piazza Sicilia", "type": "restaurant", "image": "https://dynamic-media-cdn.tripadvisor.com/media/photo-o/27/00/00/71/pizza-prosciutto-funghi.jpg?w=1000&s=1", "address": "Zehlendorfer Weg 2 Nahe Berliner Platz, 22045 Hamburg Germany", "lat": 53.58468, "lng": 10.137271, "ref_id": 25004447, "rating": 5, "num_reviews": 0, "website": "www.piazza-sicilia.de", "contact_phone": "+49 40 56120287", "contact_email": "info@piazza-sicilia.de", "status": 1, "source_type": 1, "numberReviews": 4}, {"name": "Just Green Coffee", "type": "restaurant", "image": "https://dynamic-media-cdn.tripadvisor.com/media/photo-o/1c/aa/4f/ae/eine-unserer-leckeren.jpg?w=1000&s=1", "address": "Beethovenstr. 13, 22083 Hamburg Germany", "lat": 53.57639, "lng": 10.023765, "ref_id": 19381911, "rating": 4.5, "num_reviews": 0, "website": "http://www.justgreencoffee.com", "contact_phone": "+49 178 5365700", "contact_email": "justgreencoffee@web.de", "status": 1, "source_type": 1, "numberReviews": 8}, {"name": "Restaurant Olive", "type": "restaurant", "image": "https://dynamic-media-cdn.tripadvisor.com/media/photo-o/14/d1/ab/1f/img-20180926-193330-largejpg.jpg?w=1000&s=1", "address": "Eulenkrugstr. 66, 22359 Hamburg Germany", "lat": 53.64751, "lng": 10.169058, "ref_id": 1039339, "rating": 3.5, "num_reviews": 0, "website": "http://www.olive-hamburg.de", "contact_phone": "+49 40 64532649", "contact_email": "", "status": 1, "source_type": 1, "numberReviews": 29}, {"name": "Duckdalben", "type": "restaurant", "image": "https://dynamic-media-cdn.tripadvisor.com/media/photo-o/13/80/77/ff/gebetsraum.jpg?w=1000&s=1", "address": "Zellmannstr. 16, 21129 Hamburg Germany", "lat": 53.52042, "lng": 9.92138, "ref_id": 9819609, "rating": 5, "num_reviews": 0, "website": "http://duckdalben.de/", "contact_phone": "+49 40 7401661", "contact_email": null, "status": 1, "source_type": 1, "numberReviews": 8}, {"name": "Yorma`s AG", "type": "restaurant", "image": "https://dynamic-media-cdn.tripadvisor.com/media/photo-o/08/e0/5b/03/yorma-s.jpg?w=1000&s=1", "address": "Hachmannplatz, 20099 Hamburg Germany", "lat": 53.553497, "lng": 10.006878, "ref_id": 1341233, "rating": 4, "num_reviews": 0, "website": "https://www.yormas.de/", "contact_phone": "+49 40 324993", "contact_email": "", "status": 1, "source_type": 1, "numberReviews": 23}, {"name": "Trattoria Salento", "type": "restaurant", "image": "https://dynamic-media-cdn.tripadvisor.com/media/photo-o/11/d3/10/37/photo0jpg.jpg?w=1000&s=1", "address": "Osterstr. 52, 20259 Hamburg Germany", "lat": 53.57513, "lng": 9.956966, "ref_id": 1349275, "rating": 3.5, "num_reviews": 0, "website": "http://trattoriasalento.de/", "contact_phone": "+49 40 28514005", "contact_email": "mirco@trattoria-salento.com", "status": 1, "source_type": 1, "numberReviews": 57}, {"name": "Balutschistan", "type": "restaurant", "image": "https://dynamic-media-cdn.tripadvisor.com/media/photo-o/13/ce/e3/b1/img-20180722-wa0041-largejpg.jpg?w=1000&s=1", "address": "Schulterblatt 88, 20357 Hamburg Germany", "lat": 53.562687, "lng": 9.961389, "ref_id": 2144152, "rating": 3.5, "num_reviews": 0, "website": "https://www.balutschistan.de", "contact_phone": "+4940433661", "contact_email": "", "status": 1, "source_type": 1, "numberReviews": 44}, {"name": "Mo Grill", "type": "restaurant", "image": "https://dynamic-media-cdn.tripadvisor.com/media/photo-o/2a/a4/97/db/krakauer.jpg?w=1000&s=1", "address": "Barkhof 3, 20095 Hamburg Germany", "lat": 53.55137, "lng": 10.00111, "ref_id": 14109660, "rating": 5, "num_reviews": 0, "website": null, "contact_phone": null, "contact_email": null, "status": 1, "source_type": 1, "numberReviews": 6}, {"name": "China Shudu Hamburg", "type": "restaurant", "image": "https://dynamic-media-cdn.tripadvisor.com/media/photo-o/23/1a/14/54/authentic-kong-bao-chicken.jpg?w=1000&s=1", "address": "Steintorwall 4, 20095 Hamburg Germany", "lat": 53.552273, "lng": 10.005589, "ref_id": 1841831, "rating": 3.5, "num_reviews": 0, "website": "http://www.facebook.com/restaurantshudu", "contact_phone": "+49 40 86693266", "contact_email": "shudu.gmbh@gmail.com", "status": 1, "source_type": 1, "numberReviews": 76}, {"name": "The Special Connection", "type": "restaurant", "image": "https://dynamic-media-cdn.tripadvisor.com/media/photo-o/1a/fb/89/70/leckerer-ziegenkasesalat.jpg?w=1000&s=1", "address": "Fischmarkt 11, 22767 Hamburg Germany", "lat": 53.54581, "lng": 9.952264, "ref_id": 20096382, "rating": 4.5, "num_reviews": 0, "website": "http://the-special-connection.de/", "contact_phone": "+49 40 67997444", "contact_email": "contact@the-special-connection.de", "status": 1, "source_type": 1, "numberReviews": 18}, {"name": "Kleinhuis Cafe und Weinstube", "type": "restaurant", "image": "https://dynamic-media-cdn.tripadvisor.com/media/photo-o/09/78/cc/25/kleinhuis-cafe-und-weinstube.jpg?w=1000&s=1", "address": "Neanderstr. 27, 20459 Hamburg Germany", "lat": 53.551315, "lng": 9.977433, "ref_id": 8448796, "rating": 4.5, "num_reviews": 0, "website": "http://www.kleinhuis-weinstube.de/", "contact_phone": "+49 40 353366", "contact_email": "info@kleinhuis-weinstube.de", "status": 1, "source_type": 1, "numberReviews": 41}, {"name": "Der Gyros-Spezialist", "type": "restaurant", "image": "https://dynamic-media-cdn.tripadvisor.com/media/photo-o/12/a0/92/b4/20180405-192516-largejpg.jpg?w=1000&s=1", "address": "Pezolddamm 45, 22175 Hamburg Germany", "lat": 53.62113, "lng": 10.10274, "ref_id": 4167416, "rating": 5, "num_reviews": 0, "website": "https://www.gyros-spezialist.de", "contact_phone": "+49 40 6434946", "contact_email": null, "status": 1, "source_type": 1, "numberReviews": 30}, {"name": "Kuchenfreunde", "type": "restaurant", "image": "https://dynamic-media-cdn.tripadvisor.com/media/photo-o/15/9e/cd/84/aussenansicht.jpg?w=1000&s=1", "address": "Lehmweg 30, 20251 Hamburg Germany", "lat": 53.58223, "lng": 9.97953, "ref_id": 11850318, "rating": 4, "num_reviews": 0, "website": "http://www.kuechenfreunde.net/lehmweg/", "contact_phone": "+49 40 49021965", "contact_email": "lehmweg@kuechenfreunde.net", "status": 1, "source_type": 1, "numberReviews": 73}, {"name": "Cafe Klatsch", "type": "restaurant", "image": "https://dynamic-media-cdn.tripadvisor.com/media/photo-o/1a/59/f3/5d/photo0jpg.jpg?w=1000&s=1", "address": "Glashuettenstr. 17, 20357 Hamburg Germany", "lat": 53.5586, "lng": 9.972751, "ref_id": 1039142, "rating": 4, "num_reviews": 0, "website": "http://www.cafe-klatsch-hamburg.de", "contact_phone": "+49 40 4390443", "contact_email": "", "status": 1, "source_type": 1, "numberReviews": 65}, {"name": "Hamburger Deel", "type": "restaurant", "image": "https://dynamic-media-cdn.tripadvisor.com/media/photo-o/12/4b/b9/e0/bar-inside.jpg?w=1000&s=1", "address": "Grosse Baeckerstr. 6, 20095 Hamburg Germany", "lat": 53.54891, "lng": 9.99299, "ref_id": 5529214, "rating": 4.5, "num_reviews": 0, "website": "http://hamburger-deel.de/", "contact_phone": "+49 40 364062", "contact_email": null, "status": 1, "source_type": 1, "numberReviews": 39}, {"name": "Le Cochinchine", "type": "restaurant", "image": "https://dynamic-media-cdn.tripadvisor.com/media/photo-o/16/dd/4e/e1/photo0jpg.jpg?w=1000&s=1", "address": "Eppendorfer Weg 278, 20251 Hamburg Germany", "lat": 53.584595, "lng": 9.980056, "ref_id": 12125766, "rating": 4.5, "num_reviews": 0, "website": "http://cochinchine.de/", "contact_phone": "+49 40 98761816", "contact_email": "info@cochinchine.de", "status": 1, "source_type": 1, "numberReviews": 39}, {"name": "Al Limone", "type": "restaurant", "image": "https://dynamic-media-cdn.tripadvisor.com/media/photo-o/06/43/d1/e5/shrimp-salad-to-die-for.jpg?w=1000&s=1", "address": "Laemmertwiete 12, 21073 Hamburg Germany", "lat": 53.46367, "lng": 9.980833, "ref_id": 1039004, "rating": 4, "num_reviews": 0, "website": "http://www.allimone.de", "contact_phone": "+49 40 7679032", "contact_email": "", "status": 1, "source_type": 1, "numberReviews": 76}, {"name": "Piccobello", "type": "restaurant", "image": "https://dynamic-media-cdn.tripadvisor.com/media/photo-o/19/2d/61/e5/photo0jpg.jpg?w=1000&s=1", "address": "Schenkendorfstr. 30, 22085 Hamburg Germany", "lat": 53.57687, "lng": 10.01897, "ref_id": 1039232, "rating": 4.5, "num_reviews": 0, "website": "http://www.ristorante-piccobello.com", "contact_phone": "+49 40 222536", "contact_email": "", "status": 1, "source_type": 1, "numberReviews": 55}, {"name": "Der Chinese am Fleet", "type": "restaurant", "image": "https://dynamic-media-cdn.tripadvisor.com/media/photo-o/16/11/20/dc/img-20190112-135900-largejpg.jpg?w=1000&s=1", "address": "Borstelmannsweg 77, 20537 Hamburg Germany", "lat": 53.551098, "lng": 10.053693, "ref_id": 3848183, "rating": 4, "num_reviews": 0, "website": "https://www.facebook.com/pages/Der-Chinese-am-Fleet/105171442901816", "contact_phone": "+49 40 21909991", "contact_email": null, "status": 1, "source_type": 1, "numberReviews": 97}, {"name": "Rickmer Rickmers Gastronomie", "type": "restaurant", "image": "https://dynamic-media-cdn.tripadvisor.com/media/photo-o/12/21/6c/48/rickmer-rickmers-gastronomie.jpg?w=1000&s=1", "address": "Bei den St. Pauli Landungsbrucken, Brucke 1, Ponton 1a, 20359 Hamburg Germany", "lat": 53.544567, "lng": 9.972487, "ref_id": 1350546, "rating": 4, "num_reviews": 0, "website": "http://www.rickmer-rickmers-gastronomie.de/", "contact_phone": "+49 40 3196373", "contact_email": "reservierung@rickmer-rickmers-gastronomie.de", "status": 1, "source_type": 1, "numberReviews": 64}, {"name": "Mitri Saliba", "type": "restaurant", "image": "https://dynamic-media-cdn.tripadvisor.com/media/photo-o/0d/8a/28/d1/es-war-alles-ausgezeichnet.jpg?w=1000&s=1", "address": "Springeltwiete 7, 20095 Hamburg Germany", "lat": 53.553055, "lng": 9.999818, "ref_id": 5509100, "rating": 5, "num_reviews": 0, "website": "http://mitri-saliba.de", "contact_phone": "+49 40 76793759", "contact_email": null, "status": 1, "source_type": 1, "numberReviews": 27}, {"name": "Altamira", "type": "restaurant", "image": "https://dynamic-media-cdn.tripadvisor.com/media/photo-o/0a/b8/dd/ae/20160327-183547-largejpg.jpg?w=1000&s=1", "address": "Bahrenfelder Str. 331, 22765 Hamburg Germany", "lat": 53.56, "lng": 9.927174, "ref_id": 1038855, "rating": 4, "num_reviews": 0, "website": "http://www.cafealtamira.de/", "contact_phone": "+49 40 85371600", "contact_email": "", "status": 1, "source_type": 1, "numberReviews": 215}, {"name": "Farina Meets Mehl", "type": "restaurant", "image": "https://dynamic-media-cdn.tripadvisor.com/media/photo-o/29/03/70/33/caption.jpg?w=1000&s=1", "address": "Gaubstrabe 190, 22765 Hamburg Germany", "lat": 53.55919, "lng": 9.92555, "ref_id": 20373344, "rating": 4.5, "num_reviews": 0, "website": "http://www.farina.pizza", "contact_phone": "+49 176 23758432", "contact_email": null, "status": 1, "source_type": 1, "numberReviews": 20}, {"name": "Titanic Irish Pub", "type": "restaurant", "image": "https://dynamic-media-cdn.tripadvisor.com/media/photo-o/11/d3/6e/0f/photo0jpg.jpg?w=1000&s=1", "address": "Stresemannstr. 320, 22761 Hamburg Germany", "lat": 53.563377, "lng": 9.929351, "ref_id": 1038823, "rating": 4.5, "num_reviews": 0, "website": null, "contact_phone": "+49 40 8501424", "contact_email": "", "status": 1, "source_type": 1, "numberReviews": 47}, {"name": "Hindukusch", "type": "restaurant", "image": "https://dynamic-media-cdn.tripadvisor.com/media/photo-o/08/59/2f/50/lamm-mit-reis-und-gebratenen.jpg?w=1000&s=1", "address": "Grindelhof 15, 20146 Hamburg Germany", "lat": 53.56778, "lng": 9.981778, "ref_id": 1340181, "rating": 4, "num_reviews": 0, "website": "http://hindukusch-hamburg.jimdo.com/", "contact_phone": "+49 40 418164", "contact_email": "ghischtallei@gmail.com", "status": 1, "source_type": 1, "numberReviews": 66}, {"name": "Claudio's Restaurant & Bar", "type": "restaurant", "image": "https://dynamic-media-cdn.tripadvisor.com/media/photo-o/0f/3e/a3/81/caption.jpg?w=1000&s=1", "address": "Tschaikowskyplatz 2, 20355 Hamburg Germany", "lat": 53.55803, "lng": 9.975818, "ref_id": 9784854, "rating": 4, "num_reviews": 0, "website": "http://www.claudios.hamburg/", "contact_phone": "+49 40 35004422", "contact_email": null, "status": 1, "source_type": 1, "numberReviews": 140}, {"name": "Wallter\u00b4s Wine & Beef Kontor", "type": "restaurant", "image": "https://dynamic-media-cdn.tripadvisor.com/media/photo-o/28/98/fe/d8/caption.jpg?w=1000&s=1", "address": "Alter Wall 12, 20457 Hamburg Germany", "lat": 53.550987, "lng": 9.990948, "ref_id": 23677697, "rating": 4.5, "num_reviews": 0, "website": "http://www.wallters.de", "contact_phone": "+49 40 38037831", "contact_email": "hamburg@wallters.de", "status": 1, "source_type": 1, "numberReviews": 22}, {"name": "La Classe Capanna", "type": "restaurant", "image": "https://dynamic-media-cdn.tripadvisor.com/media/photo-o/0b/9f/ef/a8/img-20160614-wa0008-largejpg.jpg?w=1000&s=1", "address": "Langenfelder Damm 86b, 22525 Hamburg Germany", "lat": 53.582603, "lng": 9.935565, "ref_id": 7196999, "rating": 4.5, "num_reviews": 0, "website": "http://laclassecapanna.de/", "contact_phone": "+49 40 56060540", "contact_email": null, "status": 1, "source_type": 1, "numberReviews": 42}, {"name": "Veddeler Fischgaststatte", "type": "restaurant", "image": "https://dynamic-media-cdn.tripadvisor.com/media/photo-o/1d/5a/1d/8a/scholle.jpg?w=1000&s=1", "address": "Tunnelstr. 70, 20539 Hamburg Germany", "lat": 53.52904, "lng": 10.020403, "ref_id": 1340452, "rating": 4, "num_reviews": 0, "website": "http://www.veddeler-fischgaststaette.de/de/110596-Speisekarte", "contact_phone": "+49 40 786389", "contact_email": "", "status": 1, "source_type": 1, "numberReviews": 106}, {"name": "Watzmann Wirtshaus", "type": "restaurant", "image": "https://dynamic-media-cdn.tripadvisor.com/media/photo-o/19/1d/6d/f5/photo0jpg.jpg?w=1000&s=1", "address": "Saseler Chaussee 166, 22393 Hamburg Germany", "lat": 53.651917, "lng": 10.106042, "ref_id": 1039324, "rating": 4, "num_reviews": 0, "website": "http://www.wirtshaus-watzmann.de", "contact_phone": "+49 40 6003589", "contact_email": "", "status": 1, "source_type": 1, "numberReviews": 82}, {"name": "Ky Lan", "type": "restaurant", "image": "https://dynamic-media-cdn.tripadvisor.com/media/photo-o/1b/df/65/8f/photo1jpg.jpg?w=1000&s=1", "address": "Dorotheenstr. 186, 22299 Hamburg Germany", "lat": 53.592175, "lng": 10.002029, "ref_id": 7007147, "rating": 4.5, "num_reviews": 0, "website": "https://www.facebook.com/pages/category/Vietnamese-Restaurant/K%E1%BB%B3-L%C3%A2n-Restaurant-425096197561870/", "contact_phone": "+49 40 46776993", "contact_email": null, "status": 1, "source_type": 1, "numberReviews": 36},