[{"name": "Historisches Rathaus - Maintal", "type": "attraction", "image": null, "address": "Am Rathaus 1, 63477 Maintal, Hesse Germany", "lat": 50.15317, "lng": 8.83373, "ref_id": 16652411, "rating": 0, "num_reviews": 0, "website": "http://www.maintal.de/seite/129276/ausstellungen-historisches-rathaus.html", "contact_phone": null, "contact_email": null, "status": 1, "source_type": 1}, {"name": "Evangelische Waldenserkirche Dornholzhausen", "type": "attraction", "image": null, "address": "Dornholzhaeuser Str. 12, 61350 Bad Homburg, Hesse Germany", "lat": 50.24103, "lng": 8.5872, "ref_id": 16655844, "rating": 0, "num_reviews": 0, "website": "http://taunus.info/angebote/kultur-und-geschichte/kirchen/evangelische-waldenserkirche-dornholzhausen/1005/", "contact_phone": null, "contact_email": null, "status": 1, "source_type": 1}, {"name": "Kultur123", "type": "attraction", "image": null, "address": "Am Treff 1, 65428 Ruesselsheim, Hesse Germany", "lat": 49.99177, "lng": 8.42515, "ref_id": 16657711, "rating": 0, "num_reviews": 0, "website": "http://www.ruesselsheim.de/theater.html", "contact_phone": "+49 6142 832630", "contact_email": "kultur123@kultur123ruesselsheim.de", "status": 1, "source_type": 1}, {"name": "Aesthetic Concepts", "type": "attraction", "image": "https://dynamic-media-cdn.tripadvisor.com/media/photo-o/19/72/44/3c/caption.jpg?w=1000&s=1", "address": "Untermarkt 19 1. Og, 65589 Hadamar, Hesse Germany", "lat": 50.4483, "lng": 8.04649, "ref_id": 19100928, "rating": 0, "num_reviews": 0, "website": "http://www.aesthetic-concepts.com", "contact_phone": "+49 6433 9349255", "contact_email": "info@aesthetic-concepts.com", "status": 1, "source_type": 1}, {"name": "Primark", "type": "attraction", "image": null, "address": "Gutenbergstrasse 5 Loop 5, 64331 Weiterstadt, Hesse Germany", "lat": 49.89368, "lng": 8.60791, "ref_id": 19378240, "rating": 0, "num_reviews": 0, "website": "https://stores.primark.com/pt_pt/alemanha/weiterstadt/gutenbergstr-5", "contact_phone": "+49 6151 9574652", "contact_email": null, "status": 1, "source_type": 1}, {"name": "Laderach Frankfurt Zeil", "type": "attraction", "image": null, "address": "Zeil 72-82, 60313 Frankfurt, Hesse Germany", "lat": 50.11487, "lng": 8.68596, "ref_id": 20170129, "rating": 0, "num_reviews": 0, "website": "https://www.laderach.com/en/locations/location-details/frankfurt-zeil-frankfurt", "contact_phone": "+49 69 92884990", "contact_email": null, "status": 1, "source_type": 1}, {"name": "Polittan Frankfurt", "type": "attraction", "image": "https://dynamic-media-cdn.tripadvisor.com/media/photo-o/1b/08/c1/1e/caption.jpg?w=1000&s=1", "address": "cll 118 # 19-09 Of 503, 110131 Frankfurt, Hesse Germany", "lat": null, "lng": null, "ref_id": 20344451, "rating": 0, "num_reviews": 0, "website": "www.polittan.com", "contact_phone": "+1 786-840-0703", "contact_email": "info@polittan.com", "status": 1, "source_type": 1}, {"name": "Rosotravel - Frankfurt Tours", "type": "attraction", "image": "https://dynamic-media-cdn.tripadvisor.com/media/photo-o/1b/b2/c9/4c/caption.jpg?w=1000&s=1", "address": "Edwarda Stachury, 80-280 Frankfurt, Hesse Germany", "lat": null, "lng": null, "ref_id": 21198229, "rating": 0, "num_reviews": 0, "website": "http://rosotravel.de/city/frankfurt-tours/", "contact_phone": "+48 515 192 730", "contact_email": "frankfurt@rosotravel.de", "status": 1, "source_type": 1}, {"name": "Saint Bartholomew Church", "type": "attraction", "image": null, "address": "Freigericht, Freigericht, Hesse Germany", "lat": 50.14211, "lng": 9.111883, "ref_id": 21377346, "rating": 0, "num_reviews": 0, "website": "http://www.katholische-kirche-bernbach.de/bernbach/index.php", "contact_phone": null, "contact_email": null, "status": 1, "source_type": 1}, {"name": "Escape Room Alsfeld", "type": "attraction", "image": "https://dynamic-media-cdn.tripadvisor.com/media/photo-o/1c/4b/ab/e2/verlschliess-die-tur.jpg?w=1000&s=1", "address": "Im Grund 3, 36304 Alsfeld, Hesse Germany", "lat": 50.75288, "lng": 9.27007, "ref_id": 21357821, "rating": 0, "num_reviews": 0, "website": "http://escaperoom-alsfeld.de", "contact_phone": "+49 6631 7882663", "contact_email": "buchung@escaperoom-alsfeld.de", "status": 1, "source_type": 1}, {"name": "Primark", "type": "attraction", "image": null, "address": "Limescorso 15 Nordwestzentrum, 60439 Frankfurt, Hesse Germany", "lat": 50.15731, "lng": 8.63253, "ref_id": 19366387, "rating": 0, "num_reviews": 0, "website": "http://www.primark.com/", "contact_phone": "+49 69 57003738", "contact_email": null, "status": 1, "source_type": 1}, {"name": "Kunstforum der TU Darmstadt", "type": "attraction", "image": "https://dynamic-media-cdn.tripadvisor.com/media/photo-o/1a/19/be/6d/ausstellung-susannah.jpg?w=1000&s=1", "address": "Hochschulstr. 1, 64289 Darmstadt, Hesse Germany", "lat": 49.87721, "lng": 8.6563, "ref_id": 19438853, "rating": 0, "num_reviews": 0, "website": "http://www.tu-darmstadt.de/kunstforum", "contact_phone": "+49 6151 1620528", "contact_email": null, "status": 1, "source_type": 1}, {"name": "Balades \u00e0 Francfort", "type": "attraction", "image": "https://dynamic-media-cdn.tripadvisor.com/media/photo-o/1a/87/15/60/caption.jpg?w=1000&s=1", "address": "Frankfurt, Hesse Germany", "lat": null, "lng": null, "ref_id": 19844956, "rating": 0, "num_reviews": 0, "website": "www.baladesafrancfort.com", "contact_phone": null, "contact_email": null, "status": 1, "source_type": 1}, {"name": "Sporthalle Europaviertel", "type": "attraction", "image": null, "address": "Willy-Brandt-Allee 17, 65197 Wiesbaden, Hesse Germany", "lat": 50.07243, "lng": 8.22194, "ref_id": 21072275, "rating": 0, "num_reviews": 0, "website": "http://www.wiesbaden.de/sport/sportanlagen/sporthallen/index.php", "contact_phone": null, "contact_email": null, "status": 1, "source_type": 1}, {"name": "Galerie Kunsthaus Weinstock", "type": "attraction", "image": "https://dynamic-media-cdn.tripadvisor.com/media/photo-o/1c/a7/d8/33/logo-galerie-kunsthaus.jpg?w=1000&s=1", "address": "Lahnstra\u00dfe 2, 65195 Wiesbaden, Hesse Germany", "lat": 50.085415, "lng": 8.224979, "ref_id": 23154500, "rating": 0, "num_reviews": 0, "website": "http://kunsthaus-weinstock.de/", "contact_phone": "+49 177 4622875", "contact_email": "info@kunsthaus-weinstock.de", "status": 1, "source_type": 1}, {"name": "Sportsbar Upperdeck", "type": "attraction", "image": null, "address": "Wiesbadener Str. 173, 61462 K\u00f6nigstein im Taunus, Hesse Germany", "lat": 50.17153, "lng": 8.45522, "ref_id": 19410842, "rating": 0, "num_reviews": 0, "website": "https://www.facebook.com/Upperdeck-K%C3%B6nigstein-379573055452164/", "contact_phone": "+49 6174 23375", "contact_email": "upperdeck@hotmail.de", "status": 1, "source_type": 1}, {"name": "Neidclub Fulda", "type": "attraction", "image": null, "address": "Jesuitenplatz 2, 36037, Fulda, Hesse Germany", "lat": 50.55149, "lng": 9.6787, "ref_id": 2524076, "rating": 4, "num_reviews": 0, "website": "http://www.neidclub.net/", "contact_phone": "", "contact_email": "", "status": 1, "source_type": 1, "numberReviews": "1"}, {"name": "The Tasting Room", "type": "attraction", "image": "https://dynamic-media-cdn.tripadvisor.com/media/photo-o/08/d7/88/ef/the-tasting-room.jpg?w=1000&s=1", "address": "Merckstr. 1-3, 64283 Darmstadt, Hesse Germany", "lat": 49.87527, "lng": 8.66121, "ref_id": 8586527, "rating": 4, "num_reviews": 0, "website": "http://the-tasting-room.de/", "contact_phone": "+49 6151 39219691", "contact_email": null, "status": 1, "source_type": 1, "numberReviews": "4"}, {"name": "Taxi2Airport Frankfurt", "type": "attraction", "image": "https://dynamic-media-cdn.tripadvisor.com/media/photo-o/1b/63/88/b5/caption.jpg?w=1000&s=1", "address": "Weteringschans 28, 1017 SG Frankfurt, Hesse Germany", "lat": 50.12014, "lng": 8.67361, "ref_id": 20046924, "rating": 3.5, "num_reviews": 0, "website": "https://www.taxi2airport.com", "contact_phone": "+31 88 318 8344", "contact_email": "support@taxi2airport.com", "status": 1, "source_type": 1, "numberReviews": "3"}, {"name": "Gewuerz- und Teehaus Schnorr", "type": "attraction", "image": "https://dynamic-media-cdn.tripadvisor.com/media/photo-o/10/43/53/f2/welcome-to-our-litte.jpg?w=1000&s=1", "address": "Neue Kraeme 28 Ecke Berliner Str. / Neue Kr\u00e4me, 60311 Frankfurt, Hesse Germany", "lat": 50.11201, "lng": 8.6816, "ref_id": 12251681, "rating": 3, "num_reviews": 0, "website": "http://www.teeshop.de", "contact_phone": "+49 69 284717", "contact_email": "info@teeshop.de", "status": 1, "source_type": 1, "numberReviews": "8"}, {"name": "House Running in Frankfurt", "type": "attraction", "image": "https://dynamic-media-cdn.tripadvisor.com/media/photo-o/0b/32/eb/e1/getlstd-property-photo.jpg?w=1000&s=1", "address": "Mailaender Str. 1 Leonardo Royal Hotel Frankfurt, 60598 Frankfurt, Hesse Germany", "lat": 50.09155, "lng": 8.69079, "ref_id": 10291578, "rating": 3.5, "num_reviews": 0, "website": "http://www.house-running.de/houserunning-frankfurt.html?utm_source=tripadvisor&utm_medium=listing&utm_campaign=tripadvisor", "contact_phone": "+49 89 70809010", "contact_email": "info@vertical-sports-events.de", "status": 1, "source_type": 1, "numberReviews": "7"}, {"name": "Xplori", "type": "attraction", "image": "https://dynamic-media-cdn.tripadvisor.com/media/photo-o/29/3c/61/1d/caption.jpg?w=1000&s=1", "address": "38 Lok Ku Road, NA Frankfurt, Hesse Germany", "lat": null, "lng": null, "ref_id": 25904501, "rating": 3, "num_reviews": 0, "website": "https://xplori.world", "contact_phone": "+852 9809 9327", "contact_email": "listen@xplori.world", "status": 1, "source_type": 1, "numberReviews": "2"}, {"name": "Cinestar", "type": "attraction", "image": "https://dynamic-media-cdn.tripadvisor.com/media/photo-o/21/d2/36/5a/cinestar.jpg?w=1000&s=1", "address": "Mainzer Landstr. 681, 65933 Frankfurt, Hesse Germany", "lat": 50.09979, "lng": 8.58907, "ref_id": 2272152, "rating": 3, "num_reviews": 0, "website": "", "contact_phone": "", "contact_email": "", "status": 1, "source_type": 1, "numberReviews": "9"}, {"name": "Morticus Ghosttours", "type": "attraction", "image": null, "address": "61273 Wehrheim, Hesse Germany", "lat": null, "lng": null, "ref_id": 14171095, "rating": 3, "num_reviews": 0, "website": "http://www.morticus.info", "contact_phone": "+49 6081 5874638", "contact_email": "info@morticus.info", "status": 1, "source_type": 1, "numberReviews": "1"}, {"name": "Tourist Information im Bahnhof Wilhelmsh\u00f6he", "type": "attraction", "image": "https://dynamic-media-cdn.tripadvisor.com/media/photo-o/1b/81/92/58/das-kann-man-auf-einen.jpg?w=1000&s=1", "address": "Willy-Brandt-Platz 1 Bahnhof Wilhelmsh\u00f6he, 34131 Kassel, Hesse Germany", "lat": 51.312748, "lng": 9.446971, "ref_id": 21088514, "rating": 3, "num_reviews": 0, "website": "https://kassel-marketing.de/", "contact_phone": "+49 561 34054", "contact_email": "info@kassel-marketing.de", "status": 1, "source_type": 1, "numberReviews": "1"}, {"name": "Textorbad", "type": "attraction", "image": "https://dynamic-media-cdn.tripadvisor.com/media/photo-o/23/5f/76/ac/textorbad.jpg?w=1000&s=1", "address": "Textorstrasse 42, 60594 Frankfurt, Hesse Germany", "lat": 50.1014, "lng": 8.685556, "ref_id": 19910512, "rating": 3, "num_reviews": 0, "website": "https://www.frankfurter-baeder.de/schwimmhalle-textorbad/", "contact_phone": "+49 69 2710891500", "contact_email": null, "status": 1, "source_type": 1, "numberReviews": "1"}, {"name": "Oetinger Villa", "type": "attraction", "image": "https://dynamic-media-cdn.tripadvisor.com/media/photo-o/0a/75/fe/22/getlstd-property-photo.jpg?w=1000&s=1", "address": "Kranichsteiner Str. 81, 64289 Darmstadt, Hesse Germany", "lat": 49.882, "lng": 8.666601, "ref_id": 9997938, "rating": 3, "num_reviews": 0, "website": "http://www.oetingervilla.de", "contact_phone": "+49 6151 711036", "contact_email": "info@oetingervilla.de", "status": 1, "source_type": 1, "numberReviews": "1"}, {"name": "Ladengalerie im Rathaus Bad Homburg", "type": "attraction", "image": "https://dynamic-media-cdn.tripadvisor.com/media/photo-o/22/72/98/1a/ladengalerie-im-rathaus.jpg?w=1000&s=1", "address": "Rathauspl 1, 61348 Bad Homburg, Hesse Germany", "lat": 50.224064, "lng": 8.622218, "ref_id": 16656019, "rating": 3, "num_reviews": 0, "website": "http://ladengalerie-im-rathaus.de/", "contact_phone": "+49 6172 9213588", "contact_email": null, "status": 1, "source_type": 1, "numberReviews": "2"}, {"name": "J\u00fcdischer Friedhof", "type": "attraction", "image": "https://dynamic-media-cdn.tripadvisor.com/media/photo-o/22/72/95/bf/judischer-friedhof.jpg?w=1000&s=1", "address": "Gluckensteinweg 52, 61350 Bad Homburg, Hesse Germany", "lat": 50.2364, "lng": 8.60459, "ref_id": 16658014, "rating": 3, "num_reviews": 0, "website": "", "contact_phone": null, "contact_email": null, "status": 1, "source_type": 1, "numberReviews": "1"}, {"name": "Viseum Wetzlar", "type": "attraction", "image": null, "address": "Lottestrasse 8-10, 35578 Wetzlar, Hesse Germany", "lat": 50.55508, "lng": 8.50424, "ref_id": 16668745, "rating": 3, "num_reviews": 0, "website": "https://www.viseum-wetzlar.de", "contact_phone": "+49 6441 994140", "contact_email": "info@viseum-wetzlar.de", "status": 1, "source_type": 1, "numberReviews": "1"}, {"name": "Arcade", "type": "attraction", "image": "https://dynamic-media-cdn.tripadvisor.com/media/photo-o/1b/9f/5c/74/die-arcade-ist-ein-kleines.jpg?w=1000&s=1", "address": "Wilhelmstr. 38, 65183 Wiesbaden, Hesse Germany", "lat": 50.082428, "lng": 8.244353, "ref_id": 21064336, "rating": 3, "num_reviews": 0, "website": "", "contact_phone": "", "contact_email": null, "status": 1, "source_type": 1, "numberReviews": "1"}, {"name": "Duty Free & Travel Value", "type": "attraction", "image": "https://dynamic-media-cdn.tripadvisor.com/media/photo-o/25/ee/1f/69/duty-free-travel-value.jpg?w=1000&s=1", "address": "Airportring 24 Terminal 1, Area A, Level 2, Gate A-16, 60549 Frankfurt, Hesse Germany", "lat": 50.038086, "lng": 8.562172, "ref_id": 10471348, "rating": 3, "num_reviews": 0, "website": null, "contact_phone": null, "contact_email": null, "status": 1, "source_type": 1, "numberReviews": "1"}, {"name": "Duty Free & Travel Value Shops", "type": "attraction", "image": "https://dynamic-media-cdn.tripadvisor.com/media/photo-o/1b/fe/7d/c1/duty-free-travel-value.jpg?w=1000&s=1", "address": "Hugo-Eckener-Ring 1-507 Terminal 1, Area A, Level 2, 60549 Frankfurt, Hesse Germany", "lat": 50.038086, "lng": 8.562172, "ref_id": 10515783, "rating": 3, "num_reviews": 0, "website": "https://www.frankfurt-airport.com/de/lokationen/h/heinemann/heinemann-terminal-1-area-a-schengen.html", "contact_phone": null, "contact_email": "service@frankfurt-airport-retail.de", "status": 1, "source_type": 1, "numberReviews": "1"}, {"name": "Escape Rhein-Main", "type": "attraction", "image": "https://dynamic-media-cdn.tripadvisor.com/media/photo-o/14/b8/73/d2/haupteingang.jpg?w=1000&s=1", "address": "Riedstra\u00dfe 2 nach Haupteingang rechts im 2Redline Business Center, 64295 Darmstadt, Hesse Germany", "lat": 49.858364, "lng": 8.633228, "ref_id": 14142269, "rating": 3, "num_reviews": 0, "website": "http://www.escaperheinmain.de", "contact_phone": "+49 171 7555601", "contact_email": "christian@escaperheinmain.de", "status": 1, "source_type": 1, "numberReviews": "1"}, {"name": "Kirche St. Johannes - Bad Homburg v.d. H\u00f6he", "type": "attraction", "image": "https://dynamic-media-cdn.tripadvisor.com/media/photo-o/22/76/72/af/kirche-st-johannes-bad.jpg?w=1000&s=1", "address": "Am Kirchberg 2, Kirdorf, 61350 Bad Homburg, Hesse Germany", "lat": 50.24133, "lng": 8.61008, "ref_id": 16655842, "rating": 3, "num_reviews": 0, "website": "http://taunus.info/angebote/kultur-und-geschichte/kirchen/kirche-st-johannes/438/", "contact_phone": "+49 6172 1770450", "contact_email": null, "status": 1, "source_type": 1, "numberReviews": "1"}, {"name": "Galgenanlage M\u00fcnzenberg", "type": "attraction", "image": "https://dynamic-media-cdn.tripadvisor.com/media/photo-o/1b/95/6d/20/der-galgen-von-munzenberg.jpg?w=1000&s=1", "address": "Hattsteiner Hof, 35516 Muenzenberg, Hesse Germany", "lat": null, "lng": null, "ref_id": 20975274, "rating": 3, "num_reviews": 0, "website": "http://freundeskreis-muenzenberg.de/galgenanlage/", "contact_phone": null, "contact_email": null, "status": 1, "source_type": 1, "numberReviews": "1"}, {"name": "Marmorstatue Von Kaiser Wilhelm I", "type": "attraction", "image": "https://dynamic-media-cdn.tripadvisor.com/media/photo-o/27/e2/fa/e1/wiesbaden-kaiser-wilhelm.jpg?w=1000&s=1", "address": "Am Warmer Damm, 65205 Wiesbaden, Hesse Germany", "lat": 50.08307, "lng": 8.24603, "ref_id": 21065162, "rating": 3, "num_reviews": 0, "website": "http://vanderkrogt.net/statues/object.php?webpage=ST&record=dehs017", "contact_phone": "", "contact_email": null, "status": 1, "source_type": 1, "numberReviews": "2"}, {"name": "Hunburgturm", "type": "attraction", "image": "https://dynamic-media-cdn.tripadvisor.com/media/photo-o/1b/63/23/19/die-aussicht.jpg?w=1000&s=1", "address": "Turmstra\u00dfe , 35274 Kirchhain, 35274 Kirchhain, Hesse Germany", "lat": 50.87197, "lng": 8.948467, "ref_id": 20986523, "rating": 3, "num_reviews": 0, "website": "http://www.unser-burgholz.de/", "contact_phone": "", "contact_email": null, "status": 1, "source_type": 1, "numberReviews": "1"}, {"name": "Stolpersteine in Wiesbaden", "type": "attraction", "image": "https://dynamic-media-cdn.tripadvisor.com/media/photo-o/25/1b/4a/8c/stolpersteine-in-wiesbaden.jpg?w=1000&s=1", "address": "Bahnhofstr. 46, 65185 Wiesbaden, Hesse Germany", "lat": 50.07519, "lng": 8.24298, "ref_id": 21065193, "rating": 3, "num_reviews": 0, "website": "http://www.wiesbaden.de/kultur/stadtgeschichte/gedenkorte/errinnerungsprojekt-stolpersteine.php", "contact_phone": null, "contact_email": null, "status": 1, "source_type": 1, "numberReviews": "1"}, {"name": "Evangelischer Friedhof", "type": "attraction", "image": "https://dynamic-media-cdn.tripadvisor.com/media/photo-o/22/72/8f/69/evangelischer-friedhof.jpg?w=1000&s=1", "address": "Saalburgstr. 2, 61350 Bad Homburg, Hesse Germany", "lat": 50.23248, "lng": 8.60436, "ref_id": 21494946, "rating": 3, "num_reviews": 0, "website": "http://friedhof-badhomburg.de/friedhof/evangelischer-friedhof-in-bad-homburg/", "contact_phone": "", "contact_email": null, "status": 1, "source_type": 1, "numberReviews": "1"}, {"name": "Wohnhaus Von Theodor W. Adorno", "type": "attraction", "image": "https://dynamic-media-cdn.tripadvisor.com/media/photo-o/23/7b/47/5f/wohnhaus-von-theodor.jpg?w=1000&s=1", "address": "Kettenhofweg 123, 60325 Frankfurt, Hesse Germany", "lat": 50.116276, "lng": 8.655338, "ref_id": 23481047, "rating": 3, "num_reviews": 0, "website": "", "contact_phone": null, "contact_email": null, "status": 1, "source_type": 1, "numberReviews": "1"}, {"name": "Volkspark Niddatal", "type": "attraction", "image": "https://dynamic-media-cdn.tripadvisor.com/media/photo-o/1d/7d/92/07/parkanlage.jpg?w=1000&s=1", "address": "Am Ginnheimer Waeldchen 6, 60431 Frankfurt, Hesse Germany", "lat": 50.14021, "lng": 8.63497, "ref_id": 23041107, "rating": 3, "num_reviews": 0, "website": null, "contact_phone": null, "contact_email": null, "status": 1, "source_type": 1, "numberReviews": "1"}, {"name": "Arthur Schopenhauers Grab", "type": "attraction", "image": "https://dynamic-media-cdn.tripadvisor.com/media/photo-o/23/66/88/c5/arthur-schopenhauers.jpg?w=1000&s=1", "address": "Eckenheimer Landstr. 194, 60320 Frankfurt, Hesse Germany", "lat": 50.13569, "lng": 8.68504, "ref_id": 23155458, "rating": 3, "num_reviews": 0, "website": "http://friedhof-frankfurt.de/friedhoefe/staedtische-friedhoefe/hauptfriedhof/", "contact_phone": "", "contact_email": null, "status": 1, "source_type": 1, "numberReviews": "1"}, {"name": "Skulptur \"betty\"", "type": "attraction", "image": "https://dynamic-media-cdn.tripadvisor.com/media/photo-o/23/14/db/de/skulptur-betty.jpg?w=1000&s=1", "address": "Eschenheimer Anlage, Frankfurt, Hesse Germany", "lat": 50.107586, "lng": 8.675079, "ref_id": 23519803, "rating": 3, "num_reviews": 0, "website": "http://www.kunst-im-oeffentlichen-raum-frankfurt.de/de/page28.html?id=31", "contact_phone": null, "contact_email": null, "status": 1, "source_type": 1, "numberReviews": "1"}, {"name": "Skulptur \"br\u00fcckenschlag\"", "type": "attraction", "image": "https://dynamic-media-cdn.tripadvisor.com/media/photo-o/23/7b/45/72/bruckenschlag.jpg?w=1000&s=1", "address": "Bockenheimer Landstra\u00dfe Neben Der Oddo Bhf Bank, Frankfurt, Hesse Germany", "lat": 50.11854, "lng": 8.661689, "ref_id": 23535209, "rating": 3, "num_reviews": 0, "website": "http://www.kunst-im-oeffentlichen-raum-frankfurt.de/de/page28.html?id=228", "contact_phone": null, "contact_email": null, "status": 1, "source_type": 1, "numberReviews": "1"}, {"name": "Resales", "type": "attraction", "image": "https://dynamic-media-cdn.tripadvisor.com/media/photo-o/23/48/d5/9a/resales.jpg?w=1000&s=1", "address": "Elisabethenstr. 14, 60594 Frankfurt, Hesse Germany", "lat": 50.106, "lng": 8.688302, "ref_id": 23705340, "rating": 3, "num_reviews": 0, "website": "", "contact_phone": null, "contact_email": null, "status": 1, "source_type": 1, "numberReviews": "1"}, {"name": "Goethe Museum", "type": "attraction", "image": "https://dynamic-media-cdn.tripadvisor.com/media/photo-o/09/93/52/7d/goethe-museum.jpg?w=1000&s=1", "address": "Frankfurt, Hesse Germany", "lat": 50.11141, "lng": 8.67775, "ref_id": 190226, "rating": 4, "num_reviews": 0, "website": "http://www.goethehaus-frankfurt.de/goethe-museum", "contact_phone": "+49 69 138800", "contact_email": "", "status": 1, "source_type": 1, "numberReviews": "154"}, {"name": "Tigerpalast Variete Theater", "type": "attraction", "image": "https://dynamic-media-cdn.tripadvisor.com/media/photo-o/17/45/e2/47/saal.jpg?w=1000&s=1", "address": "Heiligkreuzgasse 16-20, 60313 Frankfurt, Hesse Germany", "lat": 50.115555, "lng": 8.691511, "ref_id": 2315923, "rating": 4, "num_reviews": 0, "website": "http://www.tigerpalast.de", "contact_phone": "+49 69 9200220", "contact_email": "info@tigerpalast.de", "status": 1, "source_type": 1, "numberReviews": "200"}, {"name": "Sommerrodelbahn Willingen", "type": "attraction", "image": "https://dynamic-media-cdn.tripadvisor.com/media/photo-o/06/3b/fc/e5/sommerrodelbahn-willingen.jpg?w=1000&s=1", "address": "Am Hoppern 2a, 34508 Willingen, Hesse Germany", "lat": 51.295822, "lng": 8.595401, "ref_id": 6485848, "rating": 4, "num_reviews": 0, "website": "http://www.sommerrodelbahn-willingen.de", "contact_phone": "+49 5632 966977", "contact_email": null, "status": 1, "source_type": 1, "numberReviews": "141"}, {"name": "Hochheideturm", "type": "attraction", "image": "https://dynamic-media-cdn.tripadvisor.com/media/photo-o/0f/4a/e0/f0/hochheideturm.jpg?w=1000&s=1", "address": "Am Ettelsberg 3, 34508 Willingen, Hesse Germany", "lat": 51.278595, "lng": 8.599728, "ref_id": 12012011, "rating": 4.5, "num_reviews": 0, "website": null, "contact_phone": "+49 5632 969820", "contact_email": null, "status": 1, "source_type": 1, "numberReviews": "111"}, {"name": "Stadtschloss City Palace Fulda", "type": "attraction", "image": "https://dynamic-media-cdn.tripadvisor.com/media/photo-o/01/90/8b/0c/stadtschloss-frontansicht.jpg?w=1000&s=1", "address": "Schlossstr. 1, 36037, Fulda, Hesse Germany", "lat": 50.55376, "lng": 9.67618, "ref_id": 1830669, "rating": 4, "num_reviews": 0, "website": "www.tourismus-fulda.de", "contact_phone": "+49 661 1023210", "contact_email": null, "status": 1, "source_type": 1, "numberReviews": "163"}, {"name": "Tierpark Sababurg", "type": "attraction", "image": "https://dynamic-media-cdn.tripadvisor.com/media/photo-o/06/61/38/60/tierpark-sababurg.jpg?w=1000&s=1", "address": "Sababurg 1, 34369 Hofgeismar, Hesse Germany", "lat": 51.546066, "lng": 9.530291, "ref_id": 2168847, "rating": 4.5, "num_reviews": 0, "website": "http://www.tierpark-sababurg.de/home/", "contact_phone": "+49 5671 7664990", "contact_email": "", "status": 1, "source_type": 1, "numberReviews": "141"}, {"name": "Lohrpark", "type": "attraction", "image": "https://dynamic-media-cdn.tripadvisor.com/media/photo-o/08/ff/8c/6f/lohrpark.jpg?w=1000&s=1", "address": "Auf dem Lohr, 60389 Frankfurt, Hesse Germany", "lat": 50.15084, "lng": 8.72665, "ref_id": 591788, "rating": 4.5, "num_reviews": 0, "website": "https://www.frankfurt.de/sixcms/detail.php?id=2793&_ffmpar[_id_inhalt]=101621", "contact_phone": "+49 69 21230991", "contact_email": "", "status": 1, "source_type": 1, "numberReviews": "62"}, {"name": "Rathaus Marburg", "type": "attraction", "image": "https://dynamic-media-cdn.tripadvisor.com/media/photo-o/03/c8/e7/a4/rathaus-marburg.jpg?w=1000&s=1", "address": "Markt 15, 35037 Marburg, Hesse Germany", "lat": 50.80926, "lng": 8.77031, "ref_id": 3403841, "rating": 4.5, "num_reviews": 0, "website": "http://www.marburg.de/de/12901", "contact_phone": "+49 6421 2010", "contact_email": null, "status": 1, "source_type": 1, "numberReviews": "105"}, {"name": "B\u00f6rse Frankfurt", "type": "attraction", "image": "https://dynamic-media-cdn.tripadvisor.com/media/photo-o/14/e2/1d/a2/borse-frankfurt.jpg?w=1000&s=1", "address": "Boersenplatz 4, 60313 Frankfurt, Hesse Germany", "lat": 50.11508, "lng": 8.67771, "ref_id": 243278, "rating": 4, "num_reviews": 0, "website": "http://deutsche-boerse.com/dbg-en/about-us/services/visit-the-stock-exchange", "contact_phone": "+49 69 21111515", "contact_email": "info@deutsche-boerse.com", "status": 1, "source_type": 1, "numberReviews": "224"}, {"name": "Jewish Museum Frankfurt", "type": "attraction", "image": "https://dynamic-media-cdn.tripadvisor.com/media/photo-o/22/fa/b9/4e/blick-auf-das-neue-judische.jpg?w=1000&s=1", "address": "Bertha-Pappenheim-Platz 1, 60438 Frankfurt, Hesse Germany", "lat": 50.107147, "lng": 8.673843, "ref_id": 242528, "rating": 4, "num_reviews": 0, "website": "http://www.juedischesmuseum.de/en/", "contact_phone": "+49 69 21235000", "contact_email": "info@juedischesmuseum.de", "status": 1, "source_type": 1, "numberReviews": "131"}, {"name": "Altstadt Wetzlar", "type": "attraction", "image": "https://dynamic-media-cdn.tripadvisor.com/media/photo-o/12/35/15/c6/historische-altstadt.jpg?w=1000&s=1", "address": "Ernst-Leitz-Strasse 30, 35578 Wetzlar, Hesse Germany", "lat": 50.552364, "lng": 8.496897, "ref_id": 8652554, "rating": 4.5, "num_reviews": 0, "website": "http://www.wetzlar.de", "contact_phone": "+49 6441 115", "contact_email": null, "status": 1, "source_type": 1, "numberReviews": "115"}, {"name": "Skyline Plaza", "type": "attraction", "image": "https://dynamic-media-cdn.tripadvisor.com/media/photo-o/0d/6a/cb/7c/skyline-plaza.jpg?w=1000&s=1", "address": "Europa-Allee 6, 60327 Frankfurt, Hesse Germany", "lat": 50.109367, "lng": 8.652657, "ref_id": 4826323, "rating": 4, "num_reviews": 0, "website": "http://www.skylineplaza.de", "contact_phone": "+49 69 29728700", "contact_email": "info@skylineplazade", "status": 1, "source_type": 1, "numberReviews": "418"}, {"name": "Schloss Philippsruhe", "type": "attraction", "image": "https://dynamic-media-cdn.tripadvisor.com/media/photo-o/12/9c/8a/8f/schloss-philippsruhe.jpg?w=1000&s=1", "address": "Philippsruher Allee 45, 63454 Hanau, Hesse Germany", "lat": 50.12751, "lng": 8.89248, "ref_id": 7712188, "rating": 4.5, "num_reviews": 0, "website": "http://www.museen-hanau.de", "contact_phone": "+49 6181 2951799", "contact_email": null, "status": 1, "source_type": 1, "numberReviews": "78"}, {"name": "Hanauer Wochenmarkt", "type": "attraction", "image": "https://dynamic-media-cdn.tripadvisor.com/media/photo-o/0a/f9/5a/95/hanauer-wochenmarkt.jpg?w=1000&s=1", "address": "Am Markt, 63450 Hanau, Hesse Germany", "lat": 50.132687, "lng": 8.917092, "ref_id": 10049171, "rating": 4.5, "num_reviews": 0, "website": "http://www.wochenmarkt.hanau.de", "contact_phone": "+49 6181 4289480", "contact_email": null, "status": 1, "source_type": 1, "numberReviews": "111"}, {"name": "Freizeitpark Lochmuhle", "type": "attraction", "image": "https://dynamic-media-cdn.tripadvisor.com/media/photo-o/28/eb/8c/a4/lochmill-discoverer-freizeitpa.jpg?w=1000&s=1", "address": "Lochmuehle 1, 61273 Wehrheim, Hesse Germany", "lat": 50.283337, "lng": 8.584742, "ref_id": 1809176, "rating": 4, "num_reviews": 0, "website": "http://www.lochmuehle.de", "contact_phone": "+49 6175 790060", "contact_email": "", "status": 1, "source_type": 1, "numberReviews": "146"}, {"name": "Schloss Auerbach", "type": "attraction", "image": "https://dynamic-media-cdn.tripadvisor.com/media/photo-o/15/6a/42/1b/20181117-175407-largejpg.jpg?w=1000&s=1", "address": "Ausserhalb 2, 64625 Bensheim, Hesse Germany", "lat": 49.71764, "lng": 8.5527, "ref_id": 6698463, "rating": 4.5, "num_reviews": 0, "website": "http://www.schloss-auerbach.de/", "contact_phone": "+49 6251 72923", "contact_email": "info@schloss-auerbach.de", "status": 1, "source_type": 1, "numberReviews": "128"}, {"name": "Ebbelwei Express", "type": "attraction", "image": "https://dynamic-media-cdn.tripadvisor.com/media/photo-o/0d/fd/97/1c/20161217-141133-01-largejpg.jpg?w=1000&s=1", "address": "60311 Frankfurt, Hesse Germany", "lat": 50.11094, "lng": 8.68836, "ref_id": 1604000, "rating": 4, "num_reviews": 0, "website": "http://www.ebbelwei-express.com/", "contact_phone": "+49 69 21322425", "contact_email": "info@ebbelwei-express.com", "status": 1, "source_type": 1, "numberReviews": "297"}, {"name": "Baha'\u00ed House of Worship", "type": "attraction", "image": "https://dynamic-media-cdn.tripadvisor.com/media/photo-o/06/25/9b/16/european-baha-i-house.jpg?w=1000&s=1", "address": "Eppsteiner Str. 89, 65719 Hofheim am Taunus, Hesse Germany", "lat": 50.113148, "lng": 8.397001, "ref_id": 1154530, "rating": 5, "num_reviews": 0, "website": "http://www.bahai.de/", "contact_phone": "+49 4961 92901677", "contact_email": "biz @ bahai.de", "status": 1, "source_type": 1, "numberReviews": "46"}, {"name": "Staatspark Karlsaue", "type": "attraction", "image": "https://dynamic-media-cdn.tripadvisor.com/media/photo-o/08/d4/26/cf/staatspark-karlsaue.jpg?w=1000&s=1", "address": "Auedamm, 34121 Kassel, Hesse Germany", "lat": 51.29639, "lng": 9.49523, "ref_id": 2148576, "rating": 4.5, "num_reviews": 0, "website": "http://museum-kassel.de/de/museen-schloesser-parks/staatspark-karlsaue", "contact_phone": "+49 561 31680600", "contact_email": "info@museum-kassel.de", "status": 1, "source_type": 1, "numberReviews": "102"}, {"name": "50er-Jahre-Museum", "type": "attraction", "image": "https://dynamic-media-cdn.tripadvisor.com/media/photo-o/0d/8c/cc/61/20161106-124958-largejpg.jpg?w=1000&s=1", "address": "Auf dem Damm 3, 63654 Budingen, Hesse Germany", "lat": 50.292446, "lng": 9.116305, "ref_id": 2019177, "rating": 5, "num_reviews": 0, "website": "http://www.50er-jahre-museum.de", "contact_phone": "+49 6042 950049", "contact_email": "", "status": 1, "source_type": 1, "numberReviews": "51"}, {"name": "Marktkirche", "type": "attraction", "image": "https://dynamic-media-cdn.tripadvisor.com/media/photo-o/10/9d/16/a2/marktkirche.jpg?w=1000&s=1", "address": "Marktplatz, 65183 Wiesbaden, Hesse Germany", "lat": 50.0822, "lng": 8.24305, "ref_id": 6880853, "rating": 4.5, "num_reviews": 0, "website": "http://www.marktkirche-wiesbaden.de", "contact_phone": "+49 611 9001611", "contact_email": null, "status": 1, "source_type": 1, "numberReviews": "155"}, {"name": "Museum MMK f\u00fcr Moderne Kunst", "type": "attraction", "image": "https://dynamic-media-cdn.tripadvisor.com/media/photo-o/15/5c/bf/4a/installationsansicht.jpg?w=1000&s=1", "address": "Domstr. 10, 60311 Frankfurt, Hesse Germany", "lat": 50.11187, "lng": 8.684832, "ref_id": 243334, "rating": 4, "num_reviews": 0, "website": "http://www.mmk.art", "contact_phone": "+49 69 21230447", "contact_email": "presse.mmk@stadt-frankfurt.de", "status": 1, "source_type": 1, "numberReviews": "367"}, {"name": "Botanischer Garten", "type": "attraction", "image": "https://dynamic-media-cdn.tripadvisor.com/media/photo-s/02/77/0a/86/filename-220px-nancy.jpg?w=1000&s=1", "address": "Karl-von-Frisch-Strasse, 35032 Marburg, Hesse Germany", "lat": 50.80246, "lng": 8.80675, "ref_id": 2153453, "rating": 4.5, "num_reviews": 0, "website": "http://www.uni-marburg.de/botgart/neuer_garten", "contact_phone": "+49 4964 212821507", "contact_email": "", "status": 1, "source_type": 1, "numberReviews": "89"}, {"name": "Bad Homburg Palace (Landgraves' Castle & Castle Park)", "type": "attraction", "image": "https://dynamic-media-cdn.tripadvisor.com/media/photo-o/14/07/e4/ac/schloss-park.jpg?w=1000&s=1", "address": "Herrngasse 1, 61348 Bad Homburg, Hesse Germany", "lat": 50.22794, "lng": 8.610135, "ref_id": 534800, "rating": 4, "num_reviews": 0, "website": "http://schloesser-hessen.de/badhomburg.html", "contact_phone": "+49 6172 9262148", "contact_email": null, "status": 1, "source_type": 1, "numberReviews": "173"}, {"name": "Staatspark F\u00fcrstenlager", "type": "attraction", "image": "https://dynamic-media-cdn.tripadvisor.com/media/photo-o/08/bc/5b/d7/staatspark-furstenlager.jpg?w=1000&s=1", "address": "Staatspark F\u00fcrstenlager, Bensheim, Hesse Germany", "lat": 49.69962, "lng": 8.63544, "ref_id": 3319611, "rating": 4.5, "num_reviews": 0, "website": "http://schloesser-hessen.de/41.html", "contact_phone": null, "contact_email": null, "status": 1, "source_type": 1, "numberReviews": "86"}, {"name": "Wildtierpark Edersee", "type": "attraction", "image": "https://dynamic-media-cdn.tripadvisor.com/media/photo-o/17/c1/6c/c1/photo5jpg.jpg?w=1000&s=1", "address": "WildtierPark Edersee/Buchenhaus, Edertal, Hesse Germany", "lat": 51.18335, "lng": 9.04397, "ref_id": 6688670, "rating": 4.5, "num_reviews": 0, "website": "http://www.wildtierpark-edersee.eu", "contact_phone": "+49 5621 209040200", "contact_email": null, "status": 1, "source_type": 1, "numberReviews": "83"}, {"name": "Wetzlar Cathedral", "type": "attraction", "image": "https://dynamic-media-cdn.tripadvisor.com/media/photo-o/05/ef/63/37/wetzlar-cathedral.jpg?w=1000&s=1", "address": "Domplatz, 35573 Wetzlar, Hesse Germany", "lat": 50.55579, "lng": 8.50145, "ref_id": 3410206, "rating": 4.5, "num_reviews": 0, "website": "http://www.wetzlar.de", "contact_phone": null, "contact_email": null, "status": 1, "source_type": 1, "numberReviews": "144"}, {"name": "Bockenheimer Warte", "type": "attraction", "image": "https://dynamic-media-cdn.tripadvisor.com/media/photo-o/13/87/a7/ee/bockenheimerwarte.jpg?w=1000&s=1", "address": "Bockenheimer Landstrasse Bockenheim, 60325 Frankfurt, Hesse Germany", "lat": 50.12012, "lng": 8.650691, "ref_id": 241909, "rating": 4, "num_reviews": 0, "website": "http://www.frankfurt.de/sixcms/detail.php?id=3866&_ffmpar[_id_inhalt]=32713", "contact_phone": null, "contact_email": null, "status": 1, "source_type": 1, "numberReviews": "224"}, {"name": "Ehemalige Benediktinerabtei", "type": "attraction", "image": "https://dynamic-media-cdn.tripadvisor.com/media/photo-o/04/b7/49/6b/benedictine-abbey.jpg?w=1000&s=1", "address": "Klosterhof 2, 63500 Seligenstadt, Hesse Germany", "lat": 50.04199, "lng": 8.97857, "ref_id": 2559445, "rating": 4.5, "num_reviews": 0, "website": "http://www.schloesser-hessen.de/75.html", "contact_phone": "+49 6182 829882", "contact_email": null, "status": 1, "source_type": 1, "numberReviews": "99"}, {"name": "Historisches Museum Frankfurt", "type": "attraction", "image": "https://dynamic-media-cdn.tripadvisor.com/media/photo-o/01/3d/83/ef/caption.jpg?w=1000&s=1", "address": "Saalhof 1, 60311 Frankfurt, Hesse Germany", "lat": 50.109383, "lng": 8.682279, "ref_id": 590892, "rating": 3.5, "num_reviews": 0, "website": "http://www.historisches-museum-frankfurt.de", "contact_phone": "+49 69 21235599", "contact_email": "info.historisches-museum@stadt-frankfurt.de", "status": 1, "source_type": 1, "numberReviews": "227"}, {"name": "Lendles Kutschfahrten", "type": "attraction", "image": "https://dynamic-media-cdn.tripadvisor.com/media/photo-o/19/7b/8f/80/caption.jpg?w=1000&s=1", "address": "Tempelhoferstra\u00dfe 12, 65205 Wiesbaden, Hesse Germany", "lat": 50.05696, "lng": 8.29611, "ref_id": 19103238, "rating": 5, "num_reviews": 0, "website": "lendles-kutschfahrten.de", "contact_phone": "+49 611 761888", "contact_email": "michael@lendles-kutschfahrten.de", "status": 1, "source_type": 1, "numberReviews": "1"}, {"name": "Hochheimer Stadtf\u00fcehrer", "type": "attraction", "image": "https://dynamic-media-cdn.tripadvisor.com/media/photo-o/06/a8/75/03/hochheimer-stadtfuhrer.jpg?w=1000&s=1", "address": "Wiesbadener Str. 1 Treffpunkt am Daubh\u00e4uschen, schr\u00e4g gegen\u00fcber der Hausnummer 35, 65239 Hochheim am Main, Hesse Germany", "lat": 50.01172, "lng": 8.34719, "ref_id": 6999285, "rating": 5, "num_reviews": 0, "website": "http://www.hochheimer-stadtfuehrer.de", "contact_phone": "+49 6146 4374", "contact_email": "wg@hochheimer-stadtfuehrer.de", "status": 1, "source_type": 1, "numberReviews": "2"}, {"name": "Kinopolis", "type": "attraction", "image": "https://dynamic-media-cdn.tripadvisor.com/media/photo-o/0e/a3/d8/7b/kinopolis.jpg?w=1000&s=1", "address": "Goebelstr. 11, 64293 Darmstadt, Hesse Germany", "lat": 49.872604, "lng": 8.632818, "ref_id": 7387515, "rating": 3, "num_reviews": 0, "website": "http://www.kinopolis.de/kp", "contact_phone": "+49 6151 8705868", "contact_email": null, "status": 1, "source_type": 1, "numberReviews": "15"}, {"name": "Grune Scheune", "type": "attraction", "image": "https://dynamic-media-cdn.tripadvisor.com/media/photo-o/19/6d/31/f6/veranstaltungsort-fur.jpg?w=1000&s=1", "address": "Gerbermuhlstra\u00dfe 109, 60594 Frankfurt, Hesse Germany", "lat": 50.10559, "lng": 8.72361, "ref_id": 17694408, "rating": 5, "num_reviews": 0, "website": "https://www.facebook.com/Gr%C3%BCne-Scheune-421218731960990/", "contact_phone": "+49 69 95015542", "contact_email": "scheune@gruene-sosse-und-mehr.de", "status": 1, "source_type": 1, "numberReviews": "1"}, {"name": "Schulmuseum Kriftel", "type": "attraction", "image": null, "address": "Staufenstr. 14 In Der Weingartenschule, 65830 Kriftel, Hesse Germany", "lat": 50.086308, "lng": 8.468286, "ref_id": 24101388, "rating": 0, "num_reviews": 0, "website": "http://www.schulmuseumkriftel.de/", "contact_phone": "+49 6196 61181", "contact_email": "info@schulmuseumkriftel.de", "status": 1, "source_type": 1}, {"name": "Das Boot", "type": "attraction", "image": null, "address": "Holzweg-Passage 3-9, 61440 Oberursel (Taunus), Hesse Germany", "lat": 50.20225, "lng": 8.58114, "ref_id": 5944452, "rating": 4.5, "num_reviews": 0, "website": null, "contact_phone": null, "contact_email": null, "status": 1, "source_type": 1, "numberReviews": "2"}, {"name": "Sport und Freizeitpark Linter", "type": "attraction", "image": "https://dynamic-media-cdn.tripadvisor.com/media/photo-o/1c/93/7f/48/adventure-golf-anlage.jpg?w=1000&s=1", "address": "Am Weiher 3, 65550 Limburg, Hesse Germany", "lat": 50.37127, "lng": 8.08329, "ref_id": 16194109, "rating": 5, "num_reviews": 0, "website": "https://adventuregolf-limburg.de/", "contact_phone": "+49 6431 7799825", "contact_email": "info@sportpark-linter.de", "status": 1, "source_type": 1, "numberReviews": "1"}, {"name": "Fraport Besucherzentrum", "type": "attraction", "image": "https://dynamic-media-cdn.tripadvisor.com/media/photo-o/22/00/55/34/packende-360-grad-erlebnisse.jpg?w=1000&s=1", "address": "Hugo-Eckener-Ring 1 Terminal 1 Level 2 Hall C, next to Gate C1, 60547 Frankfurt, Hesse Germany", "lat": 50.05043, "lng": 8.574433, "ref_id": 23731748, "rating": 3.5, "num_reviews": 0, "website": "http://fra-tours.com", "contact_phone": "+49 69 69070291", "contact_email": "besucherservice@fraport.de", "status": 1, "source_type": 1, "numberReviews": "3"}, {"name": "Schlosskirche", "type": "attraction", "image": "https://dynamic-media-cdn.tripadvisor.com/media/photo-o/2b/b5/5b/4f/caption.jpg?w=1000&s=1", "address": "Marktpl. 3/a, 35781 Weilburg, Hesse Germany", "lat": null, "lng": null, "ref_id": 23919813, "rating": 4, "num_reviews": 0, "website": "http://www.evangelisch-in-weilburg.com/", "contact_phone": null, "contact_email": null, "status": 1, "source_type": 1, "numberReviews": "1"}, {"name": "TimeRide", "type": "attraction", "image": "https://dynamic-media-cdn.tripadvisor.com/media/photo-o/2b/5d/76/af/caption.jpg?w=1000&s=1", "address": "Berliner Str. 42a, 60311 Frankfurt, Hesse Germany", "lat": null, "lng": null, "ref_id": 27172430, "rating": 4, "num_reviews": 0, "website": "www.timeride.de/frankfurt", "contact_phone": "+49 221 98861185", "contact_email": "tickets@timeride.de", "status": 1, "source_type": 1, "numberReviews": "1"}, {"name": "Pasha Lounge", "type": "attraction", "image": "https://dynamic-media-cdn.tripadvisor.com/media/photo-o/07/50/48/13/pasha-lounge.jpg?w=1000&s=1", "address": "Im Bruch 60, 65933 Frankfurt, Hesse Germany", "lat": 50.10075, "lng": 8.60786, "ref_id": 5947625, "rating": 4.5, "num_reviews": 0, "website": null, "contact_phone": "+49 172 4173379", "contact_email": null, "status": 1, "source_type": 1, "numberReviews": "2"}, {"name": "Bier(ver)fuhrung", "type": "attraction", "image": null, "address": "64720 Michelstadt, Hesse Germany", "lat": null, "lng": null, "ref_id": 17560207, "rating": 5, "num_reviews": 0, "website": "https://www.michelstadt.de/tourismus-kultur/kulturamt-mit-gaesteinformation/stadtfuehrungen-buchen/bierverfuehrung/", "contact_phone": "+49 6061 74610", "contact_email": "touristik@michelstadt.de", "status": 1, "source_type": 1, "numberReviews": "1"}, {"name": "Limburg POW Camp", "type": "attraction", "image": "https://dynamic-media-cdn.tripadvisor.com/media/photo-o/2b/6d/2b/bd/irish-cross.jpg?w=1000&s=1", "address": "65553 Limburg, Hesse Germany", "lat": 50.39662, "lng": 8.087003, "ref_id": 27187423, "rating": 4, "num_reviews": 0, "website": null, "contact_phone": null, "contact_email": null, "status": 1, "source_type": 1, "numberReviews": "1"}, {"name": "Hallenbad H\u00f6chst", "type": "attraction", "image": null, "address": "Melchiorstrasse 21, 65929 Frankfurt, Hesse Germany", "lat": 50.0989, "lng": 8.545197, "ref_id": 19910488, "rating": 4, "num_reviews": 0, "website": "https://www.frankfurter-baeder.de/schwimmhalle-hoechst/", "contact_phone": "+49 69 2710891400", "contact_email": null, "status": 1, "source_type": 1, "numberReviews": "1"}, {"name": "Offroad Park - Boser Wolf", "type": "attraction", "image": null, "address": "Hellwig-Werke 4, 34593 Knullwald, Hesse Germany", "lat": 51.01279, "lng": 9.4685, "ref_id": 17424468, "rating": 5, "num_reviews": 0, "website": "http://www.offroadpark-knuellwald.de", "contact_phone": "+49 172 5690662", "contact_email": "info@offroadpark-knuellwald.de", "status": 1, "source_type": 1, "numberReviews": "1"}, {"name": "Weingut Wolfgang Crass", "type": "attraction", "image": "https://dynamic-media-cdn.tripadvisor.com/media/photo-o/0e/a5/b9/c7/20170311-190255-largejpg.jpg?w=1000&s=1", "address": "Taunusstr. 2, 65346 Erbach, Hesse Germany", "lat": 50.021526, "lng": 8.095889, "ref_id": 7368641, "rating": 3.5, "num_reviews": 0, "website": "http://www.weingut-crass.de", "contact_phone": "+49 6123 63169", "contact_email": "info@weingut-crass.de", "status": 1, "source_type": 1, "numberReviews": "22"}, {"name": "Sugar Cocktailbar", "type": "attraction", "image": "https://dynamic-media-cdn.tripadvisor.com/media/photo-o/0e/b2/6c/cf/photo0jpg.jpg?w=1000&s=1", "address": "Berger Str. 235, 60385 Frankfurt, Hesse Germany", "lat": 50.12793, "lng": 8.70995, "ref_id": 10276250, "rating": 3.5, "num_reviews": 0, "website": "http://www.sugar-bar.de", "contact_phone": "+49 69 56803976", "contact_email": null, "status": 1, "source_type": 1, "numberReviews": "10"}, {"name": "The Parlour", "type": "attraction", "image": "https://dynamic-media-cdn.tripadvisor.com/media/photo-o/1b/31/eb/e6/img-20200322-wa0009-largejpg.jpg?w=1000&s=1", "address": "Zwingergasse 6, 60313 Frankfurt, Hesse Germany", "lat": 50.116, "lng": 8.67593, "ref_id": 14085850, "rating": 3.5, "num_reviews": 0, "website": "http://www.theparlour.de", "contact_phone": "+49 69 90025808", "contact_email": null, "status": 1, "source_type": 1, "numberReviews": "3"}, {"name": "Ma Thai Original Thail\u00e4ndischeMassage", "type": "attraction", "image": "https://dynamic-media-cdn.tripadvisor.com/media/photo-o/12/16/94/9f/ma-thai-original-thailandische.jpg?w=1000&s=1", "address": "Leipziger Ring 176 a, 63110 Rodgau, Hesse Germany", "lat": 50.00272, "lng": 8.87133, "ref_id": 8543365, "rating": 4, "num_reviews": 0, "website": "http://www.ma-thaimassage.de/", "contact_phone": "+49 6106 8819880", "contact_email": null, "status": 1, "source_type": 1, "numberReviews": "3"}, {"name": "King Schulz Bar", "type": "attraction", "image": "https://dynamic-media-cdn.tripadvisor.com/media/photo-o/0f/6e/d1/1d/getlstd-property-photo.jpg?w=1000&s=1", "address": "Weigelstrasse 14, 34117 Kassel, Hesse Germany", "lat": 51.31291, "lng": 9.48354, "ref_id": 12498868, "rating": 5, "num_reviews": 0, "website": "http://www.kingschulz.de/", "contact_phone": "+49 561 50347565", "contact_email": "info@kingschulz.de", "status": 1, "source_type": 1, "numberReviews": "1"}, {"name": "Seifenkuche Hainzell", "type": "attraction", "image": "https://dynamic-media-cdn.tripadvisor.com/media/photo-o/1b/73/4c/84/firmenlogo.jpg?w=1000&s=1", "address": "Am Weissen Stein 6, 36154 Hosenfeld, Hesse Germany", "lat": 50.53872, "lng": 9.50072, "ref_id": 13791734, "rating": 5, "num_reviews": 0, "website": "http://www.seifenkueche-hainzell.de/", "contact_phone": "+49 6650 918489", "contact_email": "info@seifenkueche-hainzell.de", "status": 1, "source_type": 1, "numberReviews": "1"}, {"name": "Escape Room Total Kryptisch", "type": "attraction", "image": "https://dynamic-media-cdn.tripadvisor.com/media/photo-o/11/b8/8f/d6/gewolbekeller-total-kryptisch.jpg?w=1000&s=1", "address": "Obergasse 11, 34587 Felsberg, Hesse Germany", "lat": 51.13546, "lng": 9.42209, "ref_id": 13345324, "rating": 5, "num_reviews": 0, "website": "http://www.escaperoom-felsberg.de/", "contact_phone": "+49 5662 4085510", "contact_email": "intengiso.escape@gmail.com", "status": 1, "source_type": 1, "numberReviews": "1"}, {"name": "069 Escape Games", "type": "attraction", "image": "https://dynamic-media-cdn.tripadvisor.com/media/photo-o/16/14/2e/72/logo.jpg?w=1000&s=1", "address": "Heinrich-Krumm-Str. 20, 63073 Offenbach, Hesse Germany", "lat": 50.086353, "lng": 8.830335, "ref_id": 15644407, "rating": 5, "num_reviews": 0, "website": "http://069escapegames.com/", "contact_phone": "+49 69 175549666", "contact_email": "info@069escapegames.com", "status": 1, "source_type": 1, "numberReviews": "1"}, {"name": "BubbleBallGiessen", "type": "attraction", "image": "https://dynamic-media-cdn.tripadvisor.com/media/photo-o/11/25/d9/ec/bubbleballgiessen.jpg?w=1000&s=1", "address": "Am Wingert 12, 35447 Reiskirchen, Hesse Germany", "lat": 50.598495, "lng": 8.881206, "ref_id": 13074381, "rating": 5, "num_reviews": 0, "website": "http://www.bubbleballgiessen.de", "contact_phone": "+49 1514 2350749", "contact_email": "anfrage@bubbleballgiessen.de", "status": 1, "source_type": 1, "numberReviews": "1"}, {"name": "Solmsschl\u00f6sschen", "type": "attraction", "image": "https://dynamic-media-cdn.tripadvisor.com/media/photo-o/2a/13/de/72/caption.jpg?w=1000&s=1", "address": "Gustav-Freytag-Str. 31, 65189 Wiesbaden, Hesse Germany", "lat": 50.07861, "lng": 8.25567, "ref_id": 21065151, "rating": 4, "num_reviews": 0, "website": "http://www.wiesbaden.de/en/tourism/sightseeing/buildings/Solmsschloesschen.php", "contact_phone": "", "contact_email": null, "status": 1, "source_type": 1, "numberReviews": "1"}, {"name": "Das Schiffchen - Wiesbaden", "type": "attraction", "image": null, "address": "Grabenstrasse, Wiesbaden, Hesse Germany", "lat": 50.08302, "lng": 8.240298, "ref_id": 26528551, "rating": 4, "num_reviews": 0, "website": null, "contact_phone": null, "contact_email": null, "status": 1, "source_type": 1, "numberReviews": "1"}, {"name": "Kochbrunnenpavillon", "type": "attraction", "image": "https://dynamic-media-cdn.tripadvisor.com/media/photo-o/2a/07/40/96/caption.jpg?w=1000&s=1", "address": "Kochbrunnenpl., 65183 Wiesbaden, Hesse Germany", "lat": 50.08629, "lng": 8.241882, "ref_id": 26500417, "rating": 4, "num_reviews": 0, "website": null, "contact_phone": null, "contact_email": null, "status": 1, "source_type": 1, "numberReviews": "1"}, {"name": "Salzbach", "type": "attraction", "image": "https://dynamic-media-cdn.tripadvisor.com/media/photo-o/29/fa/4f/16/caption.jpg?w=1000&s=1", "address": "Paulinenstrasse Warmer Damm, Wiesbaden, Hesse Germany", "lat": 50.0818, "lng": 8.245927, "ref_id": 26457845, "rating": 4, "num_reviews": 0, "website": null, "contact_phone": null, "contact_email": null, "status": 1, "source_type": 1, "numberReviews": "1"}, {"name": "Statue Gustav Freytag", "type": "attraction", "image": null, "address": "Parkstrasse 7, Wiesbaden, Hesse Germany", "lat": 50.08478, "lng": 8.254409, "ref_id": 26457641, "rating": 4, "num_reviews": 0, "website": null, "contact_phone": null, "contact_email": null, "status": 1, "source_type": 1, "numberReviews": "1"}, {"name": "Bootsverleih am Kursee", "type": "attraction", "image": null, "address": "Am, Kurhauspl. 1, 65189 Wiesbaden, Hesse Germany", "lat": 50.084873, "lng": 8.248843, "ref_id": 26457895, "rating": 4, "num_reviews": 0, "website": null, "contact_phone": "+49 1522 6213899", "contact_email": null, "status": 1, "source_type": 1, "numberReviews": "1"}, {"name": "Gedlich Racing", "type": "attraction", "image": "https://dynamic-media-cdn.tripadvisor.com/media/photo-o/1c/ba/2e/fa/07032021.jpg?w=1000&s=1", "address": "Mergenthaler Allee 15-22, 65760 Frankfurt, Hesse Germany", "lat": 50.04182, "lng": 8.584764, "ref_id": 23152648, "rating": 0, "num_reviews": 0, "website": "http://gedlich-racing.com/en/", "contact_phone": "+49 69 90028429", "contact_email": "office@gedlich-racing.com", "status": 1, "source_type": 1}, {"name": "Evangelische Kirchengemeinde Bischofsheim", "type": "attraction", "image": null, "address": "Darmstaedter Str. 6, 65474 Bischofsheim, Hesse Germany", "lat": 49.988754, "lng": 8.355649, "ref_id": 23327007, "rating": 0, "num_reviews": 0, "website": "http://ev-kirchengemeinde-bischofsheim.ekhn.de/startseite.html", "contact_phone": "+49 6144 7430", "contact_email": "christian.leissler@ekhn.de", "status": 1, "source_type": 1}, {"name": "Kath. Kirche Christk\u00f6nig", "type": "attraction", "image": "https://dynamic-media-cdn.tripadvisor.com/media/photo-o/2c/0e/63/cd/caption.jpg?w=1000&s=1", "address": "Hochheimer Str. 3, 65474 Bischofsheim, Hesse Germany", "lat": 49.991684, "lng": 8.357266, "ref_id": 23327003, "rating": 0, "num_reviews": 0, "website": null, "contact_phone": "+49 6144 7429", "contact_email": null, "status": 1, "source_type": 1}, {"name": "Jens Dapper - Der Friseursalon", "type": "attraction", "image": "https://dynamic-media-cdn.tripadvisor.com/media/photo-o/1c/ff/cf/ab/caption.jpg?w=1000&s=1", "address": "Annastr. 3, 69509 Moerlenbach, Hesse Germany", "lat": 49.59689, "lng": 8.73801, "ref_id": 23405162, "rating": 0, "num_reviews": 0, "website": "www.der-friseursalon.de", "contact_phone": "+49 6209 4123", "contact_email": "info@der-friseursalon.de", "status": 1, "source_type": 1}, {"name": "Stand Up Paddling Vermietung in Lampertheim", "type": "attraction", "image": "https://dynamic-media-cdn.tripadvisor.com/media/photo-o/1d/69/45/39/caption.jpg?w=1000&s=1", "address": "Potsdam, 14469 Lampertheim, Hesse Germany", "lat": null, "lng": null, "ref_id": 23545937, "rating": 0, "num_reviews": 0, "website": "https://www.kolula.com/sup-standorte/lampertheim/", "contact_phone": "+49 3381 3424310", "contact_email": "hello@kolula.com", "status": 1, "source_type": 1}, {"name": "Evangelische Kirchengemeinde", "type": "attraction", "image": null, "address": "Am Leiersberg 7, 69239 Neckarsteinach, Hesse Germany", "lat": 49.41026, "lng": 8.83963, "ref_id": 23145222, "rating": 0, "num_reviews": 0, "website": "https://ev-kirche-neckarsteinach.de/", "contact_phone": null, "contact_email": "kirchengemeinde.neckarsteinach@ekhn.de", "status": 1, "source_type": 1}, {"name": "Evangelische Kirche D\u00fcdelsheim", "type": "attraction", "image": null, "address": "Bei der Kirche, Budingen, Hesse Germany", "lat": 50.293953, "lng": 9.028673, "ref_id": 23576525, "rating": 0, "num_reviews": 0, "website": "http://ev-kirche-duedelsheim.ekhn.de/startseite.html", "contact_phone": "+49 6041 1540", "contact_email": "ev.kirche.duedelsheim@t-online.de", "status": 1, "source_type": 1}, {"name": "Krimi-Trail Frankfurt am Main", "type": "attraction", "image": "https://dynamic-media-cdn.tripadvisor.com/media/photo-o/21/aa/c8/53/caption.jpg?w=1000&s=1", "address": "Eifflerstrasse 43, 22769 Frankfurt, Hesse Germany", "lat": null, "lng": null, "ref_id": 23809920, "rating": 0, "num_reviews": 0, "website": "https://www.krimi-trails.de/produkt/krimi-trail-frankfurt-campus/", "contact_phone": "+49 1520 5729954", "contact_email": "info@krimi-trails.de", "status": 1, "source_type": 1}, {"name": "Katholisches Pfarramt St. Gallus", "type": "attraction", "image": null, "address": "Hauptstra\u00dfe 28, 65439 Floersheim am Main, Hesse Germany", "lat": 50.01165, "lng": 8.42744, "ref_id": 23595577, "rating": 0, "num_reviews": 0, "website": "http://kath-kirche-floersheim.de/", "contact_phone": null, "contact_email": null, "status": 1, "source_type": 1}, {"name": "Bolongaropalast", "type": "attraction", "image": null, "address": "Rua Bolongaro, 109, 65929 Frankfurt, Hesse Germany", "lat": 50.1012, "lng": 8.552445, "ref_id": 23896079, "rating": 0, "num_reviews": 0, "website": null, "contact_phone": null, "contact_email": null, "status": 1, "source_type": 1}, {"name": "Mehrgenerationenplatz Am Leimbach", "type": "attraction", "image": null, "address": "Griechischer Weg, 37287 Reichensachsen, Hesse Germany", "lat": 51.151466, "lng": 10.002162, "ref_id": 23905660, "rating": 0, "num_reviews": 0, "website": null, "contact_phone": null, "contact_email": null, "status": 1, "source_type": 1}, {"name": "Bischofliches Weingut", "type": "attraction", "image": null, "address": "Marienthaler Str. 3, 65385 Ruedesheim am Rhein, Hesse Germany", "lat": 49.98566, "lng": 7.92848, "ref_id": 7374850, "rating": 0, "num_reviews": 0, "website": "http://www.bischoefliches-weingut.de/", "contact_phone": "+49 6722 910560", "contact_email": null, "status": 1, "source_type": 1}, {"name": "Pole Dance Schule Frankfurt", "type": "attraction", "image": "https://dynamic-media-cdn.tripadvisor.com/media/photo-o/18/a6/2b/02/polesque.jpg?w=1000&s=1", "address": "Vilbeler Landstrasse 36 House 7, 60386 Frankfurt, Hesse Germany", "lat": 50.13517, "lng": 8.76484, "ref_id": 7728457, "rating": 0, "num_reviews": 0, "website": "http://www.poledance-kurse.de", "contact_phone": "+49 1577 7797963", "contact_email": "poledancekurse@googlemail.com", "status": 1, "source_type": 1}, {"name": "Weingut Heinz Nikolai", "type": "attraction", "image": null, "address": "Ringstr. 16, 65346 Erbach, Hesse Germany", "lat": 50.02256, "lng": 8.091675, "ref_id": 7368640, "rating": 0, "num_reviews": 0, "website": "http://www.heinz-nikolai.de", "contact_phone": "+49 6132 62708", "contact_email": null, "status": 1, "source_type": 1}, {"name": "Heilig Kreuz", "type": "attraction", "image": null, "address": "Frankfurter Str. 8, 35781 Weilburg, Hesse Germany", "lat": null, "lng": null, "ref_id": 23919814, "rating": 0, "num_reviews": 0, "website": "http://heiligkreuz-oberlahn.de/", "contact_phone": null, "contact_email": null, "status": 1, "source_type": 1}, {"name": "Zum Bierbrauer", "type": "attraction", "image": null, "address": "Am Amtsgericht 6, 36132 Eiterfeld, Hesse Germany", "lat": 50.76164, "lng": 9.79806, "ref_id": 5947011, "rating": 0, "num_reviews": 0, "website": "https://www.facebook.com/zum.brauer/", "contact_phone": "+49 6672 8696518", "contact_email": null, "status": 1, "source_type": 1}, {"name": "Kurpark Am L\u00f6wensprudel", "type": "attraction", "image": "https://dynamic-media-cdn.tripadvisor.com/media/photo-o/1d/76/0a/c8/die-sogenannte-liegehalle.jpg?w=1000&s=1", "address": "Niederurfferstrasse 1, 34596 Bad Zwesten, Hesse Germany", "lat": 51.45824, "lng": 9.285591, "ref_id": 23528675, "rating": 0, "num_reviews": 0, "website": "http://www.badzwesten.de", "contact_phone": null, "contact_email": null, "status": 1, "source_type": 1}, {"name": "Weingut Mohr", "type": "attraction", "image": null, "address": "Grieselstr. 51-59, 64625 Bensheim, Hesse Germany", "lat": 49.677795, "lng": 8.623419, "ref_id": 23524939, "rating": 0, "num_reviews": 0, "website": "http://www.mohr-weingut.de", "contact_phone": "+49 6251 2299", "contact_email": "info@mohr-weingut.de", "status": 1, "source_type": 1}, {"name": "Wegbierkiosk Ost", "type": "attraction", "image": null, "address": "Ostparkstr. 11, 60314 Frankfurt, Hesse Germany", "lat": 50.1143, "lng": 8.710071, "ref_id": 23558871, "rating": 0, "num_reviews": 0, "website": "http://www.wegbierkiosk.de", "contact_phone": "+49 69 87000181", "contact_email": "serviceteam@frankfurter-brauunion.de", "status": 1, "source_type": 1}, {"name": "Ev. Kirchengemeinde", "type": "attraction", "image": null, "address": "Ulmtalstra\u00dfe 6, 35753 Greifenstein, Hesse Germany", "lat": 50.59433, "lng": 8.28403, "ref_id": 23597761, "rating": 0, "num_reviews": 0, "website": null, "contact_phone": "+49 6478 2778699", "contact_email": null, "status": 1, "source_type": 1}, {"name": "Weingut Schreiber", "type": "attraction", "image": null, "address": "Johanneshof 2, 65239 Hochheim am Main, Hesse Germany", "lat": 50.026558, "lng": 8.3636, "ref_id": 23843177, "rating": 0, "num_reviews": 0, "website": "http://weingut-schreiber.de/", "contact_phone": "+49 6146 9171", "contact_email": "info@weingut-schreiber.de", "status": 1, "source_type": 1}, {"name": "Fun Games Willingen", "type": "attraction", "image": "https://dynamic-media-cdn.tripadvisor.com/media/photo-o/21/28/8a/89/schlag-den-raab-war-gestern.jpg?w=1000&s=1", "address": "Hoppecktalstra\u00dfe, 34508 Willingen, Hesse Germany", "lat": 51.284836, "lng": 8.575837, "ref_id": 23699503, "rating": 0, "num_reviews": 0, "website": "http://www.fungames-willingen.de", "contact_phone": "+49 1516 5480025", "contact_email": "info@fungames-willingen.de", "status": 1, "source_type": 1}, {"name": "Weingut Trapp & Sohn", "type": "attraction", "image": null, "address": "Am Rech 5, 65385 Ruedesheim am Rhein, Hesse Germany", "lat": 49.99489, "lng": 7.93239, "ref_id": 7374847, "rating": 0, "num_reviews": 0, "website": "http://www.weingut-trapp.de/", "contact_phone": "+49 6722 4540", "contact_email": null, "status": 1, "source_type": 1}, {"name": "Weingut Leon Gerhard", "type": "attraction", "image": "https://dynamic-media-cdn.tripadvisor.com/media/photo-o/1b/f1/f3/cc/weingut-leon-gerhard.jpg?w=1000&s=1", "address": "Bergweg 5, 65347 Hattenheim, Eltville am Rhein, Hesse Germany", "lat": 50.01474, "lng": 8.05634, "ref_id": 7394015, "rating": 0, "num_reviews": 0, "website": null, "contact_phone": "+49 6723 3335", "contact_email": null, "status": 1, "source_type": 1}, {"name": "Neues Kellertheater Wetzlar", "type": "attraction", "image": null, "address": "Bruehlsbachstr. 2 Stadthalle, 35578 Wetzlar, Hesse Germany", "lat": 50.55364, "lng": 8.50613, "ref_id": 9452302, "rating": 0, "num_reviews": 0, "website": "http://www.kellertheater-wetzlar.de/", "contact_phone": "+49 6441 48481", "contact_email": null, "status": 1, "source_type": 1}, {"name": "Kaufhaushessen", "type": "attraction", "image": null, "address": "Berger Str. 288, 60385 Frankfurt, Hesse Germany", "lat": 50.12929, "lng": 8.71303, "ref_id": 8703883, "rating": 0, "num_reviews": 0, "website": "http://www.kaufhaushessen.de", "contact_phone": "+49 69 36601917", "contact_email": null, "status": 1, "source_type": 1}, {"name": "Irish Inn", "type": "attraction", "image": "https://dynamic-media-cdn.tripadvisor.com/media/photo-o/0e/38/c1/28/irish-inn.jpg?w=1000&s=1", "address": "Brueckenstr. 1, 35576 Wetzlar, Hesse Germany", "lat": 50.56024, "lng": 8.50249, "ref_id": 8920965, "rating": 0, "num_reviews": 0, "website": "http://www.irish-inn-wz.de/", "contact_phone": "+49 6441 48568", "contact_email": null, "status": 1, "source_type": 1}, {"name": "Ev. Kirche Pfarramt Burghaun", "type": "attraction", "image": null, "address": "Schlo\u00dfstra\u00dfe 24, 36151 Burghaun, Hesse Germany", "lat": null, "lng": null, "ref_id": 23430575, "rating": 0, "num_reviews": 0, "website": "http://ev-kirche-burghaun.de/", "contact_phone": "+49 6652 2814", "contact_email": null, "status": 1, "source_type": 1}, {"name": "River-charter", "type": "attraction", "image": null, "address": "Schleusenweg 16, 65549 Limburg, Hesse Germany", "lat": 50.38907, "lng": 8.07371, "ref_id": 23384921, "rating": 0, "num_reviews": 0, "website": "http://www.river-charter.de", "contact_phone": "+49 6184 9932935", "contact_email": null, "status": 1, "source_type": 1}, {"name": "Beach-alm - Sport- & Freizeitanlage", "type": "attraction", "image": null, "address": "Am Alten Weinberg Hinter Der Sporthalle, 65207 Wiesbaden, Hesse Germany", "lat": 50.084736, "lng": 8.363042, "ref_id": 23442558, "rating": 0, "num_reviews": 0, "website": "http://tvb-beachalm.de", "contact_phone": "+49 6122 753408", "contact_email": "booking@tvb-beachalm.de", "status": 1, "source_type": 1}, {"name": "Bull & Bear", "type": "attraction", "image": "https://dynamic-media-cdn.tripadvisor.com/media/photo-o/16/a7/75/cb/caption.jpg?w=1000&s=1", "address": "Schillerstr. 11, 60313 Frankfurt, Hesse Germany", "lat": 50.114983, "lng": 8.678504, "ref_id": 11773410, "rating": 4, "num_reviews": 0, "website": "http://www.campusrockers.de", "contact_phone": "+49 69 13388733", "contact_email": null, "status": 1, "source_type": 1, "numberReviews": "28"}, {"name": "MAZingers UHRT\u00dcRMCHEN", "type": "attraction", "image": "https://dynamic-media-cdn.tripadvisor.com/media/photo-o/1b/66/3a/73/ta-img-20200611-162004.jpg?w=1000&s=1", "address": "Harleshaeuser Str. 134, 34128 Kassel, Hesse Germany", "lat": 51.33522, "lng": 9.44122, "ref_id": 5948784, "rating": 5, "num_reviews": 0, "website": "http://www.uhrtuermchen-kassel.de", "contact_phone": "+49 561 65562", "contact_email": null, "status": 1, "source_type": 1, "numberReviews": "6"}, {"name": "Bulls & Balls Fulda", "type": "attraction", "image": "https://dynamic-media-cdn.tripadvisor.com/media/photo-o/12/0e/e6/73/bulls-balls-fulda.jpg?w=1000&s=1", "address": "In den Strausswiesen 4, 36039, Fulda, Hesse Germany", "lat": 50.56267, "lng": 9.67662, "ref_id": 10371513, "rating": 5, "num_reviews": 0, "website": "https://www.facebook.com/Bulls-Balls-Fulda-765821370188650/", "contact_phone": "+49 171 2132430", "contact_email": null, "status": 1, "source_type": 1, "numberReviews": "4"}, {"name": "Weingut Egert", "type": "attraction", "image": "https://dynamic-media-cdn.tripadvisor.com/media/photo-o/1c/67/4c/cf/cute-and-cozy-vinotek.jpg?w=1000&s=1", "address": "Rheinallee 33, 65347 Hattenheim, Eltville am Rhein, Hesse Germany", "lat": 50.01513, "lng": 8.06492, "ref_id": 7154347, "rating": 4.5, "num_reviews": 0, "website": "http://www.weingut-egert.de/", "contact_phone": "+49 6723 5557", "contact_email": null, "status": 1, "source_type": 1, "numberReviews": "8"}, {"name": "Velociped", "type": "attraction", "image": "https://dynamic-media-cdn.tripadvisor.com/media/photo-o/0b/f5/00/74/great-bike-for-river.jpg?w=1000&s=1", "address": "35039 Marburg, Hesse Germany", "lat": 50.82545, "lng": 8.77381, "ref_id": 523676, "rating": 3.5, "num_reviews": 0, "website": "http://www.velociped.de", "contact_phone": "+49 6421 886890", "contact_email": "info@velociped.de", "status": 1, "source_type": 1, "numberReviews": "35"}, {"name": "MeerSpa Wellness", "type": "attraction", "image": "https://dynamic-media-cdn.tripadvisor.com/media/photo-o/0b/9b/a0/47/das-schwebebad-fur-2.jpg?w=1000&s=1", "address": "Am Viadukt 15a Meerholz, 63571 Gelnhausen, Hesse Germany", "lat": 50.179825, "lng": 9.138137, "ref_id": 10401019, "rating": 4, "num_reviews": 0, "website": null, "contact_phone": "+49 6051 886242", "contact_email": null, "status": 1, "source_type": 1, "numberReviews": "18"}, {"name": "Frankfurt Eissporthalle", "type": "attraction", "image": "https://dynamic-media-cdn.tripadvisor.com/media/photo-o/07/13/c8/17/outdoor-rink-under-the.jpg?w=1000&s=1", "address": "Am Bornheimer Hang 4, 60386 Frankfurt, Hesse Germany", "lat": 50.125137, "lng": 8.722138, "ref_id": 3749163, "rating": 4, "num_reviews": 0, "website": "http://www.eissporthalle-ffm.de/", "contact_phone": "+49 69 21239308", "contact_email": null, "status": 1, "source_type": 1, "numberReviews": "39"}, {"name": "Private Sportsclub", "type": "attraction", "image": "https://dynamic-media-cdn.tripadvisor.com/media/photo-o/11/de/20/95/getlstd-property-photo.jpg?w=1000&s=1", "address": "Berliner Ring 147, 64625 Bensheim, Hesse Germany", "lat": 49.70082, "lng": 8.61064, "ref_id": 13427128, "rating": 5, "num_reviews": 0, "website": "http://private-sportsclub.de", "contact_phone": "+49 6251 8693966", "contact_email": "info@private-sportsclub.de", "status": 1, "source_type": 1, "numberReviews": "5"}, {"name": "Mandala Bar", "type": "attraction", "image": "https://dynamic-media-cdn.tripadvisor.com/media/photo-o/0f/bf/5d/ba/bar-bereich-mit-den-2.jpg?w=1000&s=1", "address": "Hochstrasse 4, 60313 Frankfurt, Hesse Germany", "lat": 50.11653, "lng": 8.67672, "ref_id": 5946314, "rating": 3.5, "num_reviews": 0, "website": "https://www.facebook.com/mandala.ffm/", "contact_phone": "+49 69 133802480", "contact_email": "hello@mandala.bar", "status": 1, "source_type": 1, "numberReviews": "31"}, {"name": "Waldkunstpfad", "type": "attraction", "image": "https://dynamic-media-cdn.tripadvisor.com/media/photo-o/25/d2/a1/5a/waldkunstpfad-darmstadt.jpg?w=1000&s=1", "address": "Klappacher Str. 145, 64285 Darmstadt, Hesse Germany", "lat": 49.85078, "lng": 8.6617, "ref_id": 7302795, "rating": 5, "num_reviews": 0, "website": "http://iwz.waldkunst.com/", "contact_phone": null, "contact_email": null, "status": 1, "source_type": 1, "numberReviews": "6"}, {"name": "Butzenstubchen", "type": "attraction", "image": "https://dynamic-media-cdn.tripadvisor.com/media/photo-o/0b/4e/1a/ca/butzenstubchen.jpg?w=1000&s=1", "address": "Schaefergasse 22, 60313 Frankfurt, Hesse Germany", "lat": 50.11605, "lng": 8.68494, "ref_id": 5947593, "rating": 4, "num_reviews": 0, "website": "https://www.facebook.com/Butzeffm/", "contact_phone": "+49 69 283561", "contact_email": null, "status": 1, "source_type": 1, "numberReviews": "17"}, {"name": "Die Schmiere", "type": "attraction", "image": "https://dynamic-media-cdn.tripadvisor.com/media/photo-o/14/f6/39/dd/die-schmiere-eingang.jpg?w=1000&s=1", "address": "Seckbaecher Gasse 4 Karmeliterkloster, 60311 Frankfurt, Hesse Germany", "lat": 50.109177, "lng": 8.67728, "ref_id": 7688389, "rating": 4.5, "num_reviews": 0, "website": "http://www.die-schmiere.de", "contact_phone": "+49 69 281066", "contact_email": "info@die-schmiere.de", "status": 1, "source_type": 1, "numberReviews": "8"}, {"name": "Golfclub Odenwald", "type": "attraction", "image": "https://dynamic-media-cdn.tripadvisor.com/media/photo-o/0e/02/3f/40/bahn-10.jpg?w=1000&s=1", "address": "Am Golfplatz 1, 64753 Brombachtal, Hesse Germany", "lat": 49.73168, "lng": 8.94453, "ref_id": 9606100, "rating": 5, "num_reviews": 0, "website": "http://www.golfclub-odenwald.de/", "contact_phone": "+49 6063 57447", "contact_email": "mail@golfclub-odenwald.de", "status": 1, "source_type": 1, "numberReviews": "7"}, {"name": "Exitmission", "type": "attraction", "image": "https://dynamic-media-cdn.tripadvisor.com/media/photo-o/14/74/91/01/illusion-oder-realttat.jpg?w=1000&s=1", "address": "Friedrich-Bergius-Str. 17, 65203 Wiesbaden, Hesse Germany", "lat": 50.04965, "lng": 8.22002, "ref_id": 12218374, "rating": 3.5, "num_reviews": 0, "website": "http://www.exitmission.com", "contact_phone": "+49 176 64712847", "contact_email": null, "status": 1, "source_type": 1, "numberReviews": "23"}, {"name": "Murnau-Filmtheater", "type": "attraction", "image": "https://dynamic-media-cdn.tripadvisor.com/media/photo-o/21/29/f3/43/i.jpg?w=1000&s=1", "address": "Murnaustrasse 6, 65189 Wiesbaden, Hesse Germany", "lat": 50.06606, "lng": 8.24918, "ref_id": 12720684, "rating": 5, "num_reviews": 0, "website": "http://www.murnau-stiftung.de/filmtheater", "contact_phone": "+49 611 9770841", "contact_email": null, "status": 1, "source_type": 1, "numberReviews": "6"}, {"name": "Kur-Royal Day Spa", "type": "attraction", "image": "https://dynamic-media-cdn.tripadvisor.com/media/photo-o/09/1b/e6/a5/kur-royal-day-spa.jpg?w=1000&s=1", "address": "Kaiser-Wilhelms-Bad im Kurpark, 61348 Bad Homburg, Hesse Germany", "lat": 50.229046, "lng": 8.627311, "ref_id": 561560, "rating": 3.5, "num_reviews": 0, "website": "http://www.kur-royal.de/", "contact_phone": "+49 6172 178178", "contact_email": "info@kur-royal.de", "status": 1, "source_type": 1, "numberReviews": "58"}, {"name": "Europa Kletterwald", "type": "attraction", "image": "https://dynamic-media-cdn.tripadvisor.com/media/photo-o/07/e1/f1/09/europa-kletterwald.jpg?w=1000&s=1", "address": "Krugbau 2, 36396 Steinau an der Strasse, Hesse Germany", "lat": 50.29436, "lng": 9.48623, "ref_id": 4545181, "rating": 4.5, "num_reviews": 0, "website": "http://europa-kletterwald.de/", "contact_phone": "+49 171 4561765", "contact_email": "info@europa-kletterwald.de", "status": 1, "source_type": 1, "numberReviews": "9"}, {"name": "Kib Galerie", "type": "attraction", "image": "https://dynamic-media-cdn.tripadvisor.com/media/photo-o/26/d5/60/38/grosse-schaufenster-laden.jpg?w=1000&s=1", "address": "Im Carree 1, 64283 Darmstadt, Hesse Germany", "lat": 49.872204, "lng": 8.652641, "ref_id": 25133290, "rating": 5, "num_reviews": 0, "website": "http://www.kib-art.de", "contact_phone": "+49 170 5293565", "contact_email": "kib-art@t-online.de", "status": 1, "source_type": 1, "numberReviews": "3"}, {"name": "Der feine Vanilleladen", "type": "attraction", "image": "https://dynamic-media-cdn.tripadvisor.com/media/photo-o/17/f4/55/83/fuldas-genuss-manufaktur.jpg?w=1000&s=1", "address": "Rabanusstrasse 34, 36037, Fulda, Hesse Germany", "lat": 50.551247, "lng": 9.680485, "ref_id": 13173666, "rating": 5, "num_reviews": 0, "website": "http://www.vanilleladen.de", "contact_phone": "+49 1522 9216494", "contact_email": "info@vanilleladen.de", "status": 1, "source_type": 1, "numberReviews": "3"}, {"name": "Bananas Shisha Lounge", "type": "attraction", "image": "https://dynamic-media-cdn.tripadvisor.com/media/photo-o/2a/3c/29/9b/sehr-schone-lounge.jpg?w=1000&s=1", "address": "Schlossstr. 117, 60486 Frankfurt, Hesse Germany", "lat": 50.11686, "lng": 8.64629, "ref_id": 5954778, "rating": 5, "num_reviews": 0, "website": "https://www.facebook.com/BananasFrankfurt/", "contact_phone": "+49 69 67737715", "contact_email": "info@bananas-shisha-lounge.de", "status": 1, "source_type": 1, "numberReviews": "5"}, {"name": "Stadtspazierg\u00e4nge in Frankfurt am Main", "type": "attraction", "image": "https://dynamic-media-cdn.tripadvisor.com/media/photo-o/1b/99/c4/8a/caption.jpg?w=1000&s=1", "address": "Schlesienweg 3, 63303 Frankfurt, Hesse Germany", "lat": 50.03134, "lng": 8.68674, "ref_id": 21169916, "rating": 5, "num_reviews": 0, "website": "www.heute-schon-was-vor.com", "contact_phone": null, "contact_email": null, "status": 1, "source_type": 1, "numberReviews": "4"}, {"name": "Weingut Kaufmann", "type": "attraction", "image": "https://dynamic-media-cdn.tripadvisor.com/media/photo-o/1a/8a/77/24/20200104-185622-0-largejpg.jpg?w=1000&s=1", "address": "Rheinallee 6, 65347 Hattenheim, Eltville am Rhein, Hesse Germany", "lat": 50.01452, "lng": 8.06422, "ref_id": 7379242, "rating": 5, "num_reviews": 0, "website": "http://www.kaufmann-Weingut.de", "contact_phone": "+49 6723 2475", "contact_email": "info@kaufmann-weingut.de", "status": 1, "source_type": 1, "numberReviews": "4"}, {"name": "Old Fritz", "type": "attraction", "image": "https://dynamic-media-cdn.tripadvisor.com/media/photo-o/06/f4/48/37/wine-old-fritz.jpg?w=1000&s=1", "address": "Mousonstrasse 4, 60316 Frankfurt, Hesse Germany", "lat": 50.11815, "lng": 8.6972, "ref_id": 5947779, "rating": 4, "num_reviews": 0, "website": "https://www.facebook.com/OldFritzFrankfurt/", "contact_phone": "+49 177 7162309", "contact_email": "oldfritz@hotmail.de", "status": 1, "source_type": 1, "numberReviews": "14"}, {"name": "Paulsplatz", "type": "attraction", "image": "https://dynamic-media-cdn.tripadvisor.com/media/photo-o/2a/f6/18/d2/caption.jpg?w=1000&s=1", "address": "Paulsplatz, 60311 Frankfurt, Hesse Germany", "lat": 50.110893, "lng": 8.681296, "ref_id": 25405884, "rating": 4.5, "num_reviews": 0, "website": null, "contact_phone": null, "contact_email": null, "status": 1, "source_type": 1, "numberReviews": "3"}, {"name": "Trommturm", "type": "attraction", "image": "https://dynamic-media-cdn.tripadvisor.com/media/photo-o/2a/06/77/dc/caption.jpg?w=1000&s=1", "address": "Jr33+q4, 64668 Rimbach, Hesse Germany", "lat": 49.227528, "lng": 12.883686, "ref_id": 26102979, "rating": 4.5, "num_reviews": 0, "website": "https://www.rimbach-odw.de/de/kultur-tourismus/trommturm", "contact_phone": "+49 6253 8090", "contact_email": null, "status": 1, "source_type": 1, "numberReviews": "3"}, {"name": "Hausbar", "type": "attraction", "image": "https://dynamic-media-cdn.tripadvisor.com/media/photo-o/0f/86/0d/f0/aussenbereich-haus-bar.jpg?w=1000&s=1", "address": "Zeil 1a, 60313 Frankfurt, Hesse Germany", "lat": 50.11491, "lng": 8.69361, "ref_id": 5954546, "rating": 4.5, "num_reviews": 0, "website": "http://www.hausbar-ffm.de", "contact_phone": "+49 176 61300734", "contact_email": null, "status": 1, "source_type": 1, "numberReviews": "8"}, {"name": "Calm Wellness & Relax", "type": "attraction", "image": "https://dynamic-media-cdn.tripadvisor.com/media/photo-o/1b/11/67/57/beach-theme.jpg?w=1000&s=1", "address": "Friedrichstrasse 8, 65185 Wiesbaden, Hesse Germany", "lat": 50.08048, "lng": 8.243608, "ref_id": 20113944, "rating": 5, "num_reviews": 0, "website": "http://www.calmspawiesbaden.de", "contact_phone": "+49 611 98715924", "contact_email": "calm.wiesbaden@gmail.com", "status": 1, "source_type": 1, "numberReviews": "3"}, {"name": "Kletterwald Wetzlar", "type": "attraction", "image": "https://dynamic-media-cdn.tripadvisor.com/media/photo-o/14/02/52/ad/climbing-at-different.jpg?w=1000&s=1", "address": "Waldessaum 3, 35578 Wetzlar, Hesse Germany", "lat": 50.539482, "lng": 8.541325, "ref_id": 8876236, "rating": 4.5, "num_reviews": 0, "website": "http://kletterwald-wetzlar.de/", "contact_phone": "+49 6441 3099576", "contact_email": null, "status": 1, "source_type": 1, "numberReviews": "9"}, {"name": "Fabulous Shisha Lounge", "type": "attraction", "image": "https://dynamic-media-cdn.tripadvisor.com/media/photo-o/14/44/9e/95/das-logo.jpg?w=1000&s=1", "address": "Ernst-Ludwig-Str. 2, 63329 Egelsbach, Hesse Germany", "lat": 49.96883, "lng": 8.662, "ref_id": 15010705, "rating": 5, "num_reviews": 0, "website": "https://www.facebook.com/Fabulous-Lounge-Shisha-Bar-233925120493424/", "contact_phone": "+49 1514 6538569", "contact_email": null, "status": 1, "source_type": 1, "numberReviews": "5"}, {"name": "Golf-Park Winnerod", "type": "attraction", "image": "https://dynamic-media-cdn.tripadvisor.com/media/photo-o/1c/37/a4/fa/10.jpg?w=1000&s=1", "address": "Parkstrasse 22, 35447 Reiskirchen, Hesse Germany", "lat": 50.606747, "lng": 8.867085, "ref_id": 2299428, "rating": 4.5, "num_reviews": 0, "website": "http://www.golfpark.de", "contact_phone": "+49 6408 95130", "contact_email": "info@golfpark.de", "status": 1, "source_type": 1, "numberReviews": "7"}, {"name": "Spielplatz Alleestra\u00dfe", "type": "attraction", "image": "https://dynamic-media-cdn.tripadvisor.com/media/photo-o/26/68/a9/c9/spielplatz-alleestrasse.jpg?w=1000&s=1", "address": "Parkstra\u00dfe, 65439 Floersheim am Main, Hesse Germany", "lat": 50.03304, "lng": 8.428048, "ref_id": 25055396, "rating": 4, "num_reviews": 0, "website": "https://www.floersheim-main.de/", "contact_phone": "+49 6145 955110", "contact_email": null, "status": 1, "source_type": 1, "numberReviews": "1"}, {"name": "Der Ausrappler", "type": "attraction", "image": "https://dynamic-media-cdn.tripadvisor.com/media/photo-o/26/6e/72/e9/eder.jpg?w=1000&s=1", "address": "Neust\u00e4dter Str. 37-55, 35066 Frankenberg, Hesse Germany", "lat": 51.059414, "lng": 8.79697, "ref_id": 25054845, "rating": 4, "num_reviews": 0, "website": null, "contact_phone": null, "contact_email": null, "status": 1, "source_type": 1, "numberReviews": "1"}, {"name": "Adlers\u00e4ule", "type": "attraction", "image": "https://dynamic-media-cdn.tripadvisor.com/media/photo-o/26/68/a0/93/adlersaule.jpg?w=1000&s=1", "address": "Taunusstra\u00dfe 1, 65439 Floersheim am Main, Hesse Germany", "lat": 50.012646, "lng": 8.421786, "ref_id": 25055290, "rating": 4, "num_reviews": 0, "website": "http://www.denkmalprojekt.org/2011/floersheim-wicker_wilhelmsberg_1866_on_hess.html", "contact_phone": null, "contact_email": null, "status": 1, "source_type": 1, "numberReviews": "1"}, {"name": "Historisches Rathaus Bad Hersfeld", "type": "attraction", "image": "https://dynamic-media-cdn.tripadvisor.com/media/photo-o/26/6e/68/42/historisches-rathaus.jpg?w=1000&s=1", "address": "Weinstrasse 16, 36251 Bad Hersfeld, Hesse Germany", "lat": 50.868317, "lng": 9.707606, "ref_id": 25054869, "rating": 4, "num_reviews": 0, "website": null, "contact_phone": null, "contact_email": null, "status": 1, "source_type": 1, "numberReviews": "1"}, {"name": "S\u00f6der Tor", "type": "attraction", "image": null, "address": "Am Tor 1-4, 37242 Bad Sooden-Allendorf, Hesse Germany", "lat": 51.269028, "lng": 9.9655, "ref_id": 25054882, "rating": 4, "num_reviews": 0, "website": null, "contact_phone": null, "contact_email": null, "status": 1, "source_type": 1, "numberReviews": "1"}, {"name": "Lullus-brunnen", "type": "attraction", "image": "https://dynamic-media-cdn.tripadvisor.com/media/photo-o/26/6e/69/71/lullus-brunnen-i-bad.jpg?w=1000&s=1", "address": "Weinstrasse, 36251 Bad Hersfeld, Hesse Germany", "lat": 50.86808, "lng": 9.70736, "ref_id": 25054867, "rating": 4, "num_reviews": 0, "website": null, "contact_phone": null, "contact_email": null, "status": 1, "source_type": 1, "numberReviews": "1"}, {"name": "Waldeccia Siegesstatue Aus Der Kaiserzeit", "type": "attraction", "image": "https://dynamic-media-cdn.tripadvisor.com/media/photo-o/26/6e/85/e2/waldeccia-siegesstatue.jpg?w=1000&s=1", "address": "Stechbahn 24, 34497 Korbach, Hesse Germany", "lat": 51.27155, "lng": 8.871776, "ref_id": 25055907, "rating": 4, "num_reviews": 0, "website": null, "contact_phone": null, "contact_email": null, "status": 1, "source_type": 1, "numberReviews": "1"}, {"name": "M\u00e4rchenbrunnen Mit Frau Holle", "type": "attraction", "image": "https://dynamic-media-cdn.tripadvisor.com/media/photo-o/26/6e/70/19/marchenbrunnen-mit-frau.jpg?w=1000&s=1", "address": "Schlossplatz, 37269 Eschwege, Hesse Germany", "lat": 51.188625, "lng": 10.053766, "ref_id": 25055017, "rating": 4, "num_reviews": 0, "website": null, "contact_phone": null, "contact_email": null, "status": 1, "source_type": 1, "numberReviews": "1"}, {"name": "Brunnen Mit Wassertr\u00e4gerinnen", "type": "attraction", "image": "https://dynamic-media-cdn.tripadvisor.com/media/photo-o/26/6e/74/9f/brunnen-mit-wassertragerinner.jpg?w=1000&s=1", "address": "Markstrasse, 36037, Fulda, Hesse Germany", "lat": 50.55091, "lng": 9.677281, "ref_id": 25054885, "rating": 4, "num_reviews": 0, "website": null, "contact_phone": null, "contact_email": null, "status": 1, "source_type": 1, "numberReviews": "1"}, {"name": "City Hall", "type": "attraction", "image": "https://dynamic-media-cdn.tripadvisor.com/media/photo-o/23/60/16/21/14-century-city-hall.jpg?w=1000&s=1", "address": "Stechbahn 1, 34497 Korbach, Hesse Germany", "lat": 51.272385, "lng": 8.870748, "ref_id": 24047781, "rating": 4, "num_reviews": 0, "website": "http://www.geschichtswerkstatt-als.de/en/rathaus", "contact_phone": null, "contact_email": null, "status": 1, "source_type": 1, "numberReviews": "1"}, {"name": "Forr\u00f3 de Frankfurt", "type": "attraction", "image": null, "address": "Frankenallee 111, 60326 Frankfurt, Hesse Germany", "lat": 50.10444, "lng": 8.64143, "ref_id": 13153972, "rating": 5, "num_reviews": 0, "website": "http://www.forrodefrankfurt.de/", "contact_phone": "+49 160 3155338", "contact_email": "forrodefrankfurt@gmail.com", "status": 1, "source_type": 1, "numberReviews": "1"}, {"name": "Bistro C'est la Vie", "type": "attraction", "image": null, "address": "Opelstr. 1-3, 63110 Rodgau, Hesse Germany", "lat": 50.00526, "lng": 8.89098, "ref_id": 5946102, "rating": 3.5, "num_reviews": 0, "website": "https://www.facebook.com/BistroCestLaVie/", "contact_phone": "+49 6106 23365", "contact_email": "christosminas.clv@googlemail.com", "status": 1, "source_type": 1, "numberReviews": "6"}, {"name": "Off The Beaten Track", "type": "attraction", "image": null, "address": "Wielandstrasse 2, 60318 Frankfurt, Hesse Germany", "lat": 50.1251, "lng": 8.69141, "ref_id": 12982108, "rating": 5, "num_reviews": 0, "website": "http://otbt-frankfurt.de/", "contact_phone": "+49 69 17524015", "contact_email": "hello@otbt-frankfurt.de", "status": 1, "source_type": 1, "numberReviews": "1"}, {"name": "Erlebnisbus Willingen Tour", "type": "attraction", "image": "https://dynamic-media-cdn.tripadvisor.com/media/photo-o/18/bc/bc/e7/an-der-muhlenkopf-schanze.jpg?w=1000&s=1", "address": "34508 Willingen, Hesse Germany", "lat": null, "lng": null, "ref_id": 18153949, "rating": 3.5, "num_reviews": 0, "website": "http://www.erlebnisbus-willingen.de", "contact_phone": "+49 1512 3375443", "contact_email": null, "status": 1, "source_type": 1, "numberReviews": "3"}, {"name": "Frankfurt / Wein", "type": "attraction", "image": null, "address": "Wittelsbacherallee 153, 60385 Frankfurt, Hesse Germany", "lat": 50.12443, "lng": 8.71255, "ref_id": 12981995, "rating": 5, "num_reviews": 0, "website": "http://www.frankfurt-wein.com", "contact_phone": "+49 69 40353086", "contact_email": null, "status": 1, "source_type": 1, "numberReviews": "1"}, {"name": "Hanauer M\u00e4rchenpfad", "type": "attraction", "image": "https://dynamic-media-cdn.tripadvisor.com/media/photo-o/24/c4/d7/c8/tom-thumb-fairy-tale.jpg?w=1000&s=1", "address": "Schlossplatz, Hanau, Hesse Germany", "lat": 50.13774, "lng": 8.91794, "ref_id": 15849561, "rating": 4, "num_reviews": 0, "website": "http://www.hanau.de/kultur/076140/index.html", "contact_phone": null, "contact_email": null, "status": 1, "source_type": 1, "numberReviews": "1"}, {"name": "Weingut Karl-Johann Molitor", "type": "attraction", "image": null, "address": "Weiderweg 1, 65347 Hattenheim, Eltville am Rhein, Hesse Germany", "lat": 50.02635, "lng": 8.05209, "ref_id": 7595896, "rating": 5, "num_reviews": 0, "website": "http://www.molitor-wein.de", "contact_phone": "+49 6723 2537", "contact_email": null, "status": 1, "source_type": 1, "numberReviews": "1"}, {"name": "B\u00fccherschrank Schweizer Platz", "type": "attraction", "image": "https://dynamic-media-cdn.tripadvisor.com/media/photo-o/24/fa/43/fa/bucherschrank.jpg?w=1000&s=1", "address": "Schweizer Str. 49, 60594 Frankfurt, Hesse Germany", "lat": 50.10204, "lng": 8.68109, "ref_id": 24135556, "rating": 4, "num_reviews": 0, "website": "http://frankfurt.de/themen/kultur/literatur/bibliotheken/buecherschraenke", "contact_phone": null, "contact_email": null, "status": 1, "source_type": 1, "numberReviews": "1"}, {"name": "Trauerhalle Des Friedhofs Westhausen", "type": "attraction", "image": "https://dynamic-media-cdn.tripadvisor.com/media/photo-o/24/c5/57/f9/trauerhalle-des-friedhofs.jpg?w=1000&s=1", "address": "Kollwitzstr. 27, 60488 Frankfurt, Hesse Germany", "lat": 50.13758, "lng": 8.60726, "ref_id": 23541476, "rating": 4, "num_reviews": 0, "website": "http://friedhoefe-frankfurt.de/friedhof/friedhof-westhausen-frankfurt/", "contact_phone": null, "contact_email": null, "status": 1, "source_type": 1, "numberReviews": "1"}, {"name": "Frankfurter Stadtfuehrerei", "type": "attraction", "image": "https://dynamic-media-cdn.tripadvisor.com/media/photo-o/10/0e/fb/c9/getlstd-property-photo.jpg?w=1000&s=1", "address": "60594 Frankfurt, Hesse Germany", "lat": 50.106197, "lng": 8.685022, "ref_id": 3349658, "rating": 5, "num_reviews": 0, "website": "http://www.stadtfuehrerei.de", "contact_phone": "+49 69 34872829", "contact_email": "buchung@stadtfuehrerei.de", "status": 1, "source_type": 1, "numberReviews": "1"}, {"name": "Bertha Pappenheims Grab", "type": "attraction", "image": "https://dynamic-media-cdn.tripadvisor.com/media/photo-o/24/8a/da/97/bertha-pappenheims-grab.jpg?w=1000&s=1", "address": "Rat-beil-stra\u00dfe, Frankfurt, Hesse Germany", "lat": 50.131905, "lng": 8.690691, "ref_id": 23488841, "rating": 4, "num_reviews": 0, "website": "http://jg-ffm.de/de/religioeses-leben/juedische-friedhoefe", "contact_phone": null, "contact_email": null, "status": 1, "source_type": 1, "numberReviews": "1"}, {"name": "Marienkirche", "type": "attraction", "image": "https://dynamic-media-cdn.tripadvisor.com/media/photo-o/24/89/a3/97/caption.jpg?w=1000&s=1", "address": "Kirchgasse 15, 63654 Budingen, Hesse Germany", "lat": 50.291985, "lng": 9.117868, "ref_id": 23576522, "rating": 4, "num_reviews": 0, "website": "https://kirchengemeinde-buedingen.ekhn.de/startseite.html", "contact_phone": "+49 6042 951650", "contact_email": "kirchengemeinde.buedingen@ekhn.de", "status": 1, "source_type": 1, "numberReviews": "1"}, {"name": "Grab Von Berta Pappenheim", "type": "attraction", "image": "https://dynamic-media-cdn.tripadvisor.com/media/photo-o/24/89/a6/a2/grab-von-bertha-pappenheim.jpg?w=1000&s=1", "address": "Rat-Beil-Str. 10 J\u00fcdischer Friedhof, 60318 Frankfurt, Hesse Germany", "lat": 50.13202, "lng": 8.68982, "ref_id": 23485305, "rating": 4, "num_reviews": 0, "website": "http://jg-ffm.de/index.php/juedische-friedhoefe", "contact_phone": null, "contact_email": null, "status": 1, "source_type": 1, "numberReviews": "1"}, {"name": "Tanzlokal Oberbayern", "type": "attraction", "image": null, "address": "Johannisstr. 4, 36041, Fulda, Hesse Germany", "lat": 50.54599, "lng": 9.67205, "ref_id": 12228145, "rating": 3.5, "num_reviews": 0, "website": "http://www.tanzlokal-oberbayern.de", "contact_phone": "+49 4966 173783", "contact_email": null, "status": 1, "source_type": 1, "numberReviews": "3"}, {"name": "BLACKPOOL", "type": "attraction", "image": null, "address": "Friedberger Str. 43, 63110 Rodgau, Hesse Germany", "lat": 50.00904, "lng": 8.88576, "ref_id": 5946113, "rating": 5, "num_reviews": 0, "website": "https://www.facebook.com/blackpool.rodgau/", "contact_phone": "+49 6106 2669115", "contact_email": null, "status": 1, "source_type": 1, "numberReviews": "1"}, {"name": "Goethe-denkmal", "type": "attraction", "image": "https://dynamic-media-cdn.tripadvisor.com/media/photo-o/23/98/bd/43/goethe-denkmal.jpg?w=1000&s=1", "address": "Goethe-platz, Frankfurt, Hesse Germany", "lat": 50.107586, "lng": 8.675079, "ref_id": 23567444, "rating": 4, "num_reviews": 0, "website": "http://www.kunst-im-oeffentlichen-raum-frankfurt.de/de/page150.html?id=44", "contact_phone": null, "contact_email": null, "status": 1, "source_type": 1, "numberReviews": "1"}, {"name": "Skulptur \"inverted Collar And Tie\"", "type": "attraction", "image": "https://dynamic-media-cdn.tripadvisor.com/media/photo-o/23/58/6a/86/skulptur-inverted-collar.jpg?w=1000&s=1", "address": "Mainzer Landstr. 58, 60325 Frankfurt, Hesse Germany", "lat": 50.110558, "lng": 8.662746, "ref_id": 23581888, "rating": 4, "num_reviews": 0, "website": "http://www.kunst-im-oeffentlichen-raum-frankfurt.de/de/page104.html?id=68&kuenstler=51", "contact_phone": null, "contact_email": null, "status": 1, "source_type": 1, "numberReviews": "1"}, {"name": "Fotografie Forum Frankfurt", "type": "attraction", "image": "https://dynamic-media-cdn.tripadvisor.com/media/photo-o/21/5a/bc/a7/entrance-area-at-braubachstras.jpg?w=1000&s=1", "address": "Braubachstra\u00dfe 30\u201332 1. und 2. OG, 60311 Frankfurt, Hesse Germany", "lat": 50.1112, "lng": 8.682547, "ref_id": 23474060, "rating": 4, "num_reviews": 0, "website": "http://www.fffrankfurt.org", "contact_phone": "+49 69 291726", "contact_email": "contact@fffrankfurt.org", "status": 1, "source_type": 1, "numberReviews": "1"}, {"name": "Fellini Cafe Vinoteca", "type": "attraction", "image": "https://dynamic-media-cdn.tripadvisor.com/media/photo-o/07/c4/61/a6/fellini-cafe-vinoteca.jpg?w=1000&s=1", "address": "Kurstr. 3, 61231 Bad Nauheim, Hesse Germany", "lat": 50.36518, "lng": 8.74065, "ref_id": 5947825, "rating": 3.5, "num_reviews": 0, "website": "http://www.fellini-cafe-vinoteca.de/", "contact_phone": "+49 6032 8698386", "contact_email": "p.albergamo@gmail.com", "status": 1, "source_type": 1, "numberReviews": "17"}, {"name": "Ballonteam Freigericht", "type": "attraction", "image": "https://dynamic-media-cdn.tripadvisor.com/media/photo-o/0f/dd/95/1d/ballonteam-freigericht.jpg?w=1000&s=1", "address": "Dieselstrasse 3, 63579 Freigericht, Hesse Germany", "lat": 50.14483, "lng": 9.10924, "ref_id": 12636577, "rating": 5, "num_reviews": 0, "website": "http://www.ballonteam-freigericht.de", "contact_phone": "+49 6055 83389", "contact_email": null, "status": 1, "source_type": 1, "numberReviews": "1"}, {"name": "Wortreich", "type": "attraction", "image": "https://dynamic-media-cdn.tripadvisor.com/media/photo-o/10/31/dc/00/photo0jpg.jpg?w=1000&s=1", "address": "Benno-Schilde-Platz 1, 36251 Bad Hersfeld, Hesse Germany", "lat": 50.8707, "lng": 9.70923, "ref_id": 10481061, "rating": 5, "num_reviews": 0, "website": "http://www.wortreich-badhersfeld.de/", "contact_phone": "+49 6621 794890", "contact_email": null, "status": 1, "source_type": 1, "numberReviews": "24"}, {"name": "Messel Pit Fossil Site", "type": "attraction", "image": "https://dynamic-media-cdn.tripadvisor.com/media/photo-o/0c/83/b1/89/img-20160813-123906-largejpg.jpg?w=1000&s=1", "address": "Rossdoerfer Str. 108, 64409 Messel, Hesse Germany", "lat": 49.913517, "lng": 8.753964, "ref_id": 319966, "rating": 3.5, "num_reviews": 0, "website": "http://www.grube-messel.de", "contact_phone": "+49 6159 717590", "contact_email": null, "status": 1, "source_type": 1, "numberReviews": "118"}, {"name": "Russian Orthodox Church", "type": "attraction", "image": "https://dynamic-media-cdn.tripadvisor.com/media/photo-o/14/7b/75/1e/russisch-orthodoxe-allerheilig.jpg?w=1000&s=1", "address": "Kaiser-Friedrich-Promenade 84, 61348 Bad Homburg, Hesse Germany", "lat": 50.22572, "lng": 8.62506, "ref_id": 8019256, "rating": 4.5, "num_reviews": 0, "website": "", "contact_phone": null, "contact_email": null, "status": 1, "source_type": 1, "numberReviews": "59"}, {"name": "Katharinenkirche", "type": "attraction", "image": "https://dynamic-media-cdn.tripadvisor.com/media/photo-o/17/8b/d8/ff/photo5jpg.jpg?w=1000&s=1", "address": "An der Hauptwache 1, 60313 Frankfurt, Hesse Germany", "lat": 50.11287, "lng": 8.67882, "ref_id": 532326, "rating": 4, "num_reviews": 0, "website": "http://www.st-katharinengemeinde.de/", "contact_phone": "+49 69 7706770", "contact_email": "", "status": 1, "source_type": 1, "numberReviews": "147"}, {"name": "Wildpark Gersfeld", "type": "attraction", "image": "https://dynamic-media-cdn.tripadvisor.com/media/photo-o/0d/ce/34/06/wildpark-gersfeld.jpg?w=1000&s=1", "address": "36129 Gersfeld, Hesse Germany", "lat": null, "lng": null, "ref_id": 7319770, "rating": 4.5, "num_reviews": 0, "website": "http://www.wildpark-gersfeld.de/wildpark.html", "contact_phone": "+49 6654 680", "contact_email": null, "status": 1, "source_type": 1, "numberReviews": "35"}, {"name": "Kristallh\u00f6hle Kubach", "type": "attraction", "image": "https://dynamic-media-cdn.tripadvisor.com/media/photo-o/13/e7/0d/6f/in-der-hohle.jpg?w=1000&s=1", "address": "Auf dem Kalk 1, 35781 Weilburg, Hesse Germany", "lat": 50.46814, "lng": 8.30245, "ref_id": 3735551, "rating": 4, "num_reviews": 0, "website": "http://www.kubacherkristallhoehle.de/", "contact_phone": "+49 6471 94000", "contact_email": null, "status": 1, "source_type": 1, "numberReviews": "41"}, {"name": "St. Petri Kathedrale", "type": "attraction", "image": "https://dynamic-media-cdn.tripadvisor.com/media/photo-o/17/4f/e3/6d/blick-zum-altarraum-08042019.jpg?w=1000&s=1", "address": "Dr.-Jestaedt-Platz 11, 34560 Fritzlar, Hesse Germany", "lat": 51.13063, "lng": 9.2745, "ref_id": 6938213, "rating": 4.5, "num_reviews": 0, "website": "http://www.katholische-kirche-fritzlar.de/fritzlar/index.php", "contact_phone": "+49 5622 99990", "contact_email": null, "status": 1, "source_type": 1, "numberReviews": "29"}, {"name": "Caricatura Museum Frankfurt", "type": "attraction", "image": "https://dynamic-media-cdn.tripadvisor.com/media/photo-o/0e/86/26/93/caricatura-museum-frankfurt.jpg?w=1000&s=1", "address": "Weckmarkt 17, 60311 Frankfurt, Hesse Germany", "lat": 50.11014, "lng": 8.685088, "ref_id": 2331777, "rating": 3.5, "num_reviews": 0, "website": "http://www.caricatura-museum.de/", "contact_phone": "+49 69 21230161", "contact_email": "", "status": 1, "source_type": 1, "numberReviews": "90"}, {"name": "Holzhausenschl\u00f6\u00dfchen", "type": "attraction", "image": "https://dynamic-media-cdn.tripadvisor.com/media/photo-o/10/16/7c/68/holzhausenschlosschen.jpg?w=1000&s=1", "address": "Justinianstr. 5, 60322 Frankfurt, Hesse Germany", "lat": 50.12621, "lng": 8.67919, "ref_id": 1996999, "rating": 4.5, "num_reviews": 0, "website": "http://www.frankfurter-buergerstiftung.de", "contact_phone": "+49 69 557791", "contact_email": "info@frankfurter-buergerstiftung.de", "status": 1, "source_type": 1, "numberReviews": "19"}, {"name": "Werkstadt", "type": "attraction", "image": "https://dynamic-media-cdn.tripadvisor.com/media/photo-o/0e/93/62/e7/caption.jpg?w=1000&s=1", "address": "Joseph Schneider Stra\u00dfe 1, 65549 Limburg, Hesse Germany", "lat": 50.384354, "lng": 8.05973, "ref_id": 11881579, "rating": 4.5, "num_reviews": 0, "website": "http://www.werkstadt-limburg.de/kontakt", "contact_phone": null, "contact_email": null, "status": 1, "source_type": 1, "numberReviews": "36"}, {"name": "Warmer Damm Park", "type": "attraction", "image": "https://dynamic-media-cdn.tripadvisor.com/media/photo-o/06/34/f9/4b/warmer-damm-park.jpg?w=1000&s=1", "address": "Paulinenstr. 15, 65189 Wiesbaden, Hesse Germany", "lat": 50.08335, "lng": 8.24463, "ref_id": 6880982, "rating": 4, "num_reviews": 0, "website": "https://www.wiesbaden.de/kultur/stadtgeschichte/historismus/orte-des-historismus/warmer-damm.php", "contact_phone": null, "contact_email": null, "status": 1, "source_type": 1, "numberReviews": "59"}, {"name": "Hochzeitsturm", "type": "attraction", "image": "https://dynamic-media-cdn.tripadvisor.com/media/photo-o/0f/1d/ab/9c/hochzeitsturm-darmstadt.jpg?w=1000&s=1", "address": "Olbrichweg 13 a, 64287 Darmstadt, Hesse Germany", "lat": 49.877018, "lng": 8.667086, "ref_id": 12213700, "rating": 4, "num_reviews": 0, "website": "http://www.darmstadt.de/darmstadt-erleben/jugendstil/mathildenhoehe-heute/", "contact_phone": null, "contact_email": null, "status": 1, "source_type": 1, "numberReviews": "55"}, {"name": "Waldschwimmbad Kronberg", "type": "attraction", "image": "https://dynamic-media-cdn.tripadvisor.com/media/photo-o/10/04/3f/ba/photo0jpg.jpg?w=1000&s=1", "address": "Waldschwimmbad 1, 61476 Kronberg im Taunus, Hesse Germany", "lat": 50.192013, "lng": 8.508461, "ref_id": 12680590, "rating": 4.5, "num_reviews": 0, "website": "http://www.kronberg.de/kronberg/B%FCrger/Stadtleben/Freizeit/Waldschwimmbad", "contact_phone": "+49 6173 996860", "contact_email": null, "status": 1, "source_type": 1, "numberReviews": "17"}, {"name": "Schloss Rumpenheim", "type": "attraction", "image": "https://dynamic-media-cdn.tripadvisor.com/media/photo-o/0c/75/3c/c2/blick-aus-dem-park.jpg?w=1000&s=1", "address": "Rumpenheimer Schlo\u00dfgasse, 63075 Offenbach, Hesse Germany", "lat": 50.13254, "lng": 8.80164, "ref_id": 3199586, "rating": 4, "num_reviews": 0, "website": "http://www.offenbach.de/offenbach/themen/leben-in-offenbach/stadtteile-und-quartiersmanagement/rumpenheim-1/article/schlosspark-rumpenheim-ein-stueck-kulturgeschichte-entwickelt-sich-weiter.html", "contact_phone": "+49 174 3444478", "contact_email": null, "status": 1, "source_type": 1, "numberReviews": "32"}, {"name": "Sammlung von Lemmers-Danforth", "type": "attraction", "image": "https://dynamic-media-cdn.tripadvisor.com/media/photo-o/06/66/f6/5b/sammlung-von-lemmers.jpg?w=1000&s=1", "address": "Kornblumengasse 1, 35578 Wetzlar, Hesse Germany", "lat": 50.55336, "lng": 8.50209, "ref_id": 3410158, "rating": 5, "num_reviews": 0, "website": "http://www.wetzlar.de/index.phtml?La=1&NavID=370.209", "contact_phone": "+49 6441 994150", "contact_email": null, "status": 1, "source_type": 1, "numberReviews": "18"}, {"name": "Parc national de Kellerwald-Edersee", "type": "attraction", "image": "https://dynamic-media-cdn.tripadvisor.com/media/photo-o/0c/f0/2b/20/parc-national-de-kellerwald.jpg?w=1000&s=1", "address": "Laustr. 8 Nationalpark Kellerwald-Edersee, 34537 Bad Wildungen, Hesse Germany", "lat": 51.11912, "lng": 9.11814, "ref_id": 10819611, "rating": 4.5, "num_reviews": 0, "website": "http://www.germany.travel/fr/loisirs-et-detente/paysages-naturels/parcs-nationaux/parc-national-de-kellerwald-edersee.html", "contact_phone": "+49 5621 90400", "contact_email": null, "status": 1, "source_type": 1, "numberReviews": "24"}, {"name": "Exit Games", "type": "attraction", "image": "https://dynamic-media-cdn.tripadvisor.com/media/photo-o/1d/5c/20/4e/exit-game-atlantis-abenteuer.jpg?w=1000&s=1", "address": "Leipziger Str. 122, 34123 Kassel, Hesse Germany", "lat": 51.30593, "lng": 9.5269, "ref_id": 10231706, "rating": 5, "num_reviews": 0, "website": "http://exitgamekassel.de", "contact_phone": "+49 561 94994777", "contact_email": "info@exitgamekassel.de", "status": 1, "source_type": 1, "numberReviews": "311"}, {"name": "Wilhelmsturm", "type": "attraction", "image": "https://dynamic-media-cdn.tripadvisor.com/media/photo-o/0d/a4/04/35/vista-da-torre-e-do-jardim.jpg?w=1000&s=1", "address": "Schlossberg, 35683 Dillenburg, Hesse Germany", "lat": 50.73731, "lng": 8.28487, "ref_id": 3410196, "rating": 4, "num_reviews": 0, "website": "http://www.dillenburg.de", "contact_phone": "+49 2771 800065", "contact_email": null, "status": 1, "source_type": 1, "numberReviews": "55"}, {"name": "Hofgut Oberfeld", "type": "attraction", "image": "https://dynamic-media-cdn.tripadvisor.com/media/photo-o/0b/da/e6/86/hofgut-oberfeld.jpg?w=1000&s=1", "address": "Erbacher Str. 125, 64287 Darmstadt, Hesse Germany", "lat": 49.87263, "lng": 8.6837, "ref_id": 8325651, "rating": 4, "num_reviews": 0, "website": "http://www.landwirtschaft-oberfeld.de", "contact_phone": null, "contact_email": null, "status": 1, "source_type": 1, "numberReviews": "42"}, {"name": "Limburger Altstadt", "type": "attraction", "image": "https://dynamic-media-cdn.tripadvisor.com/media/photo-o/21/6f/64/cb/beeindruckende-architektur.jpg?w=1000&s=1", "address": "Fischmarkt, 65549 Limburg, Hesse Germany", "lat": 50.38883, "lng": 8.064815, "ref_id": 19837695, "rating": 4.5, "num_reviews": 0, "website": "http://www.limburg.de", "contact_phone": "+49 6431 203245", "contact_email": null, "status": 1, "source_type": 1, "numberReviews": "24"},