[{"name": "Kiku no Sushi Tempura", "type": "restaurant", "image": "https://dynamic-media-cdn.tripadvisor.com/media/photo-o/12/a6/da/0e/caption.jpg?w=1000&s=1", "address": "1-5 Saiwaicho, Chitose 066-0063 Hokkaido", "lat": 42.822464, "lng": 141.64651, "ref_id": 9933529, "rating": -1, "num_reviews": 0, "website": null, "contact_phone": "+81 123-42-7711", "contact_email": null, "status": 1, "source_type": 1, "numberReviews": 0}, {"name": "Ramen Kasu Chitose Shimizucho", "type": "restaurant", "image": null, "address": "2-29-5 Shimizucho, Chitose 066-0041 Hokkaido", "lat": 42.822872, "lng": 141.64777, "ref_id": 9630412, "rating": -1, "num_reviews": 0, "website": null, "contact_phone": "+81 123-23-9000", "contact_email": null, "status": 1, "source_type": 1, "numberReviews": 0}, {"name": "Don to Koi", "type": "restaurant", "image": "https://dynamic-media-cdn.tripadvisor.com/media/photo-o/18/af/6a/f6/caption.jpg?w=1000&s=1", "address": "2-23-2 Shimizucho, Chitose 066-0041 Hokkaido", "lat": 42.822075, "lng": 141.64734, "ref_id": 17789687, "rating": -1, "num_reviews": 0, "website": "http://www.donto-koi2017.com/info", "contact_phone": "+81 90-6879-2567", "contact_email": null, "status": 1, "source_type": 1, "numberReviews": 0}, {"name": "Okekafe Ah-Chan", "type": "restaurant", "image": null, "address": "3-7-2 Minamigaoka, Omagari, Kitahiroshima 061-1275 Hokkaido", "lat": 42.96932, "lng": 141.47885, "ref_id": 13240735, "rating": -1, "num_reviews": 0, "website": null, "contact_phone": "+81 11-377-8925", "contact_email": null, "status": 1, "source_type": 1, "numberReviews": 0}, {"name": "Yakitori Ryo", "type": "restaurant", "image": null, "address": "2-7-30 Shimizucho, Chitose 066-0041 Hokkaido", "lat": 42.821926, "lng": 141.64821, "ref_id": 9894130, "rating": -1, "num_reviews": 0, "website": null, "contact_phone": "+81 123-22-4706", "contact_email": null, "status": 1, "source_type": 1, "numberReviews": 0}, {"name": "Yotchi", "type": "restaurant", "image": null, "address": "3-5 Shimizucho, Chitose 066-0041 Hokkaido", "lat": 42.822315, "lng": 141.64937, "ref_id": 9896295, "rating": -1, "num_reviews": 0, "website": null, "contact_phone": "+81 123-26-6006", "contact_email": null, "status": 1, "source_type": 1, "numberReviews": 0}, {"name": "Dining Bar Gopps", "type": "restaurant", "image": "https://dynamic-media-cdn.tripadvisor.com/media/photo-o/13/f1/04/1c/diningbargoppspizza-pizza.jpg?w=1000&s=1", "address": "1-6-6 Suehiro, Chitose 066-0027 Hokkaido", "lat": 42.827995, "lng": 141.6542, "ref_id": 14944255, "rating": -1, "num_reviews": 0, "website": "http://gopps.net/", "contact_phone": "+81 123-38-9404", "contact_email": null, "status": 1, "source_type": 1, "numberReviews": 0}, {"name": "Yakitori Dining Bonzo", "type": "restaurant", "image": null, "address": "179 Izarimachi, Eniwa 061-1414 Hokkaido", "lat": 42.879135, "lng": 141.57524, "ref_id": 9893744, "rating": -1, "num_reviews": 0, "website": null, "contact_phone": "+81 123-34-8422", "contact_email": null, "status": 1, "source_type": 1, "numberReviews": 0}, {"name": "Biriken Shokudo", "type": "restaurant", "image": null, "address": "2-7-2 Shimizucho, Chitose 066-0041 Hokkaido", "lat": 42.82237, "lng": 141.64816, "ref_id": 10647073, "rating": -1, "num_reviews": 0, "website": null, "contact_phone": "+81 123-27-6201", "contact_email": null, "status": 1, "source_type": 1, "numberReviews": 0}, {"name": "Edokinzushi", "type": "restaurant", "image": null, "address": "9 Kyomachi, Eniwa 061-1444 Hokkaido", "lat": 42.881413, "lng": 141.57814, "ref_id": 9945105, "rating": -1, "num_reviews": 0, "website": null, "contact_phone": "+81 123-33-4144", "contact_email": null, "status": 1, "source_type": 1, "numberReviews": 0}, {"name": "Izakaya Sen", "type": "restaurant", "image": null, "address": "4-12-1 Shimizucho, Chitose 066-0041 Hokkaido", "lat": 42.823456, "lng": 141.64928, "ref_id": 9927796, "rating": -1, "num_reviews": 0, "website": null, "contact_phone": "+81 123-27-3755", "contact_email": null, "status": 1, "source_type": 1, "numberReviews": 0}, {"name": "Bidoro", "type": "restaurant", "image": null, "address": "3-6-7 Saiwaicho, Chitose 066-0063 Hokkaido", "lat": 42.823654, "lng": 141.64844, "ref_id": 9635996, "rating": -1, "num_reviews": 0, "website": null, "contact_phone": "+81 123-26-8029", "contact_email": null, "status": 1, "source_type": 1, "numberReviews": 0}, {"name": "Yakiniku-No-Sankoen", "type": "restaurant", "image": null, "address": "2 Shimizucho, Chitose 066-0041 Hokkaido", "lat": 42.82205, "lng": 141.64815, "ref_id": 9893481, "rating": -1, "num_reviews": 0, "website": null, "contact_phone": "+81 123-23-2377", "contact_email": null, "status": 1, "source_type": 1, "numberReviews": 0}, {"name": "Cafe Primevere", "type": "restaurant", "image": null, "address": "1-4-10 Shintomicho Higashi, Kitahiroshima 061-1126 Hokkaido", "lat": 42.977005, "lng": 141.56775, "ref_id": 14743371, "rating": -1, "num_reviews": 0, "website": null, "contact_phone": "+81 11-376-8318", "contact_email": null, "status": 1, "source_type": 1, "numberReviews": 0}, {"name": "Tetuji", "type": "restaurant", "image": "https://dynamic-media-cdn.tripadvisor.com/media/photo-o/19/49/e6/bc/caption.jpg?w=1000&s=1", "address": "1-5 Saiwaicho, Chitose 066-0063 Hokkaido", "lat": 42.82255, "lng": 141.64645, "ref_id": 18543585, "rating": -1, "num_reviews": 0, "website": null, "contact_phone": "+81 123-40-1008", "contact_email": null, "status": 1, "source_type": 1, "numberReviews": 0}, {"name": "Charcoal Grill Yakiniku Dining Nandaimon", "type": "restaurant", "image": null, "address": "3-1-1 Chiyodamachi, Chitose 066-0062 Hokkaido", "lat": 42.824272, "lng": 141.64664, "ref_id": 9970015, "rating": -1, "num_reviews": 0, "website": null, "contact_phone": "+81 123-42-9220", "contact_email": null, "status": 1, "source_type": 1, "numberReviews": 0}, {"name": "Izakaya Sakura", "type": "restaurant", "image": null, "address": "156 Izarimachi, Eniwa 061-1414 Hokkaido", "lat": 42.87958, "lng": 141.57547, "ref_id": 9927726, "rating": -1, "num_reviews": 0, "website": null, "contact_phone": "+81 123-34-2577", "contact_email": null, "status": 1, "source_type": 1, "numberReviews": 0}, {"name": "Cafe&BarN42\u00b0", "type": "restaurant", "image": null, "address": "4-8-16 Koganechuo, Eniwa 061-1449 Hokkaido", "lat": 42.889397, "lng": 141.58858, "ref_id": 20382214, "rating": -1, "num_reviews": 0, "website": null, "contact_phone": "+81 123-25-3842", "contact_email": null, "status": 1, "source_type": 1, "numberReviews": 0}, {"name": "Edo Sushi", "type": "restaurant", "image": "https://dynamic-media-cdn.tripadvisor.com/media/photo-o/1c/06/8b/3e/caption.jpg?w=1000&s=1", "address": "1-6-2 Shinmatsu Honmachi, Eniwa 061-1353 Hokkaido", "lat": 42.922028, "lng": 141.57433, "ref_id": 13049141, "rating": -1, "num_reviews": 0, "website": null, "contact_phone": "+81 123-36-8513", "contact_email": null, "status": 1, "source_type": 1, "numberReviews": 0}, {"name": "Hamayaki Saishuten", "type": "restaurant", "image": null, "address": "8 4-Jodori, Asahikawa 070-0034 Hokkaido", "lat": 43.769016, "lng": 142.36148, "ref_id": 19264742, "rating": -1, "num_reviews": 0, "website": null, "contact_phone": "+81 166-23-8015", "contact_email": null, "status": 1, "source_type": 1, "numberReviews": 0}, {"name": "Rengado", "type": "restaurant", "image": null, "address": "2-2-2 Kita 1jo, Takasu-cho, Kamikawa-gun 071-1211 Hokkaido", "lat": 43.84603, "lng": 142.35619, "ref_id": 14774902, "rating": -1, "num_reviews": 0, "website": null, "contact_phone": "+81 166-87-3050", "contact_email": null, "status": 1, "source_type": 1, "numberReviews": 0}, {"name": "Drunker's Paradise 37 Bace", "type": "restaurant", "image": null, "address": "3-Jodori 7 5F Social Bldg, Asahikawa 070-0033 Hokkaido", "lat": 43.767956, "lng": 142.35951, "ref_id": 9944767, "rating": -1, "num_reviews": 0, "website": null, "contact_phone": "+81 166-25-5307", "contact_email": null, "status": 1, "source_type": 1, "numberReviews": 0}, {"name": "Nanakamado", "type": "restaurant", "image": null, "address": "15-1-8 Kamui 3-Jo, Asahikawa 070-8013 Hokkaido", "lat": 43.75358, "lng": 142.33838, "ref_id": 13454002, "rating": -1, "num_reviews": 0, "website": "http://r.goope.jp/nanakamado", "contact_phone": "+81 166-63-6810", "contact_email": null, "status": 1, "source_type": 1, "numberReviews": 0}, {"name": "Tsuboya Aeon Asahikawa Shunko", "type": "restaurant", "image": null, "address": "10 Shunko-cho, Asahikawa 070-0902 Hokkaido", "lat": 43.788147, "lng": 142.36273, "ref_id": 13142892, "rating": -1, "num_reviews": 0, "website": "http://www.tsuboya.net/user_data/shop.php", "contact_phone": "+81 166-54-2171", "contact_email": null, "status": 1, "source_type": 1, "numberReviews": 0}, {"name": "Ikkyu San", "type": "restaurant", "image": null, "address": "2-1-18 Nishimachi, Higashikawa-cho, Kamikawa-gun 071-1425 Hokkaido", "lat": 43.69947, "lng": 142.5037, "ref_id": 10010802, "rating": -1, "num_reviews": 0, "website": null, "contact_phone": "+81 166-82-2752", "contact_email": null, "status": 1, "source_type": 1, "numberReviews": 0}, {"name": "Beer Restaurant Big Moon", "type": "restaurant", "image": null, "address": "4-21-309 Omachi Nijo, Asahikawa 070-0842 Hokkaido", "lat": 43.7876, "lng": 142.3613, "ref_id": 9964839, "rating": -1, "num_reviews": 0, "website": null, "contact_phone": "+81 166-53-3151", "contact_email": null, "status": 1, "source_type": 1, "numberReviews": 0}, {"name": "Suzuya Shokudo", "type": "restaurant", "image": null, "address": "3-5-19 Nishimachi, Pippu-cho, Kamikawa-gun 078-0342 Hokkaido", "lat": 43.875298, "lng": 142.47272, "ref_id": 10018457, "rating": -1, "num_reviews": 0, "website": null, "contact_phone": "+81 166-85-2530", "contact_email": null, "status": 1, "source_type": 1, "numberReviews": 0}, {"name": "Club House Party", "type": "restaurant", "image": null, "address": "25 Higashi Kagura, Higashikagura-cho, Kamikawa-gun 071-1500 Hokkaido", "lat": 43.696594, "lng": 142.45137, "ref_id": 10015213, "rating": -1, "num_reviews": 0, "website": null, "contact_phone": "+81 166-83-2232", "contact_email": null, "status": 1, "source_type": 1, "numberReviews": 0}, {"name": "Ange", "type": "restaurant", "image": null, "address": "1-Jo 2-1-21 Suehiro Tanaka Dai-9/2F-A, Asahikawa 071-8131 Hokkaido", "lat": 43.802856, "lng": 142.38524, "ref_id": 9960824, "rating": -1, "num_reviews": 0, "website": null, "contact_phone": "+81 166-54-3040", "contact_email": null, "status": 1, "source_type": 1, "numberReviews": 0}, {"name": "Yasu", "type": "restaurant", "image": null, "address": "1 Shunko 7-5-12 Jo, Asahikawa 070-0871 Hokkaido", "lat": 43.79771, "lng": 142.376, "ref_id": 9895165, "rating": -1, "num_reviews": 0, "website": null, "contact_phone": "+81 166-52-3031", "contact_email": null, "status": 1, "source_type": 1, "numberReviews": 0}, {"name": "Mitcho", "type": "restaurant", "image": null, "address": "5 Kagura 11-2-2 Jo, Asahikawa 070-8005 Hokkaido", "lat": 43.76348, "lng": 142.3475, "ref_id": 9914041, "rating": -1, "num_reviews": 0, "website": null, "contact_phone": "+81 166-63-4800", "contact_email": null, "status": 1, "source_type": 1, "numberReviews": 0}, {"name": "Suikyoku", "type": "restaurant", "image": null, "address": "7-520-2 5 Jodori Dai-2 Core Bldg. 1F, Asahikawa 070-0035 Hokkaido", "lat": 43.76887, "lng": 142.36589, "ref_id": 23841094, "rating": -1, "num_reviews": 0, "website": null, "contact_phone": null, "contact_email": null, "status": 1, "source_type": 1, "numberReviews": 0}, {"name": "Kushiyaki Sakaba Zenigata-Ya", "type": "restaurant", "image": null, "address": "13-2145 Hokumoncho Kawai M. S 1F, Asahikawa 070-0825 Hokkaido", "lat": 43.790012, "lng": 142.34302, "ref_id": 9938407, "rating": -1, "num_reviews": 0, "website": "https://www.facebook.com/%E4%B8%B2%E7%84%BC%E9%85%92%E5%A0%B4-%E9%8A%AD%E5%BD%A2%E5%B1%8B-1390119597916006/", "contact_phone": "+81 166-74-5980", "contact_email": null, "status": 1, "source_type": 1, "numberReviews": 0}, {"name": "Kinta", "type": "restaurant", "image": null, "address": "3-Chome 6-Chome, Asahikawa 070-0033 Hokkaido", "lat": 43.768234, "lng": 142.35825, "ref_id": 20166181, "rating": -1, "num_reviews": 0, "website": null, "contact_phone": "+81 166-24-1330", "contact_email": null, "status": 1, "source_type": 1, "numberReviews": 0}, {"name": "Kuichimbo", "type": "restaurant", "image": null, "address": "3-7-19 Shunkodai 3-7-19 Jo, Asahikawa 071-8143 Hokkaido", "lat": 43.81901, "lng": 142.35703, "ref_id": 14743811, "rating": -1, "num_reviews": 0, "website": null, "contact_phone": "+81 166-54-5975", "contact_email": null, "status": 1, "source_type": 1, "numberReviews": 0}, {"name": "Ajidokoro Haruka", "type": "restaurant", "image": null, "address": "4-1361-8 Rokujo Nishi, Toma-cho, Kamikawa-gun 078-1306 Hokkaido", "lat": 43.831585, "lng": 142.52667, "ref_id": 10014676, "rating": -1, "num_reviews": 0, "website": null, "contact_phone": "+81 166-84-5804", "contact_email": null, "status": 1, "source_type": 1, "numberReviews": 0}, {"name": "Sumibi Yakiniku Tetsuya", "type": "restaurant", "image": null, "address": "6-5-2 Toyooka 12-Jo, Asahikawa 078-8242 Hokkaido", "lat": 43.76917, "lng": 142.41231, "ref_id": 9906095, "rating": -1, "num_reviews": 0, "website": null, "contact_phone": "+81 166-34-2909", "contact_email": null, "status": 1, "source_type": 1, "numberReviews": 0}, {"name": "Nishitei", "type": "restaurant", "image": null, "address": "3-2-23 3-Jo Nishi 3-2-23 Jo Nishi, Asahikawa 070-0053 Hokkaido", "lat": 43.77209, "lng": 142.34698, "ref_id": 9918351, "rating": -1, "num_reviews": 0, "website": null, "contact_phone": "+81 166-22-5041", "contact_email": null, "status": 1, "source_type": 1, "numberReviews": 0}, {"name": "Tonton Byoshi", "type": "restaurant", "image": null, "address": "11-3080-35 Nishikicho, Asahikawa 070-0824 Hokkaido", "lat": 43.78607, "lng": 142.34235, "ref_id": 9887390, "rating": -1, "num_reviews": 0, "website": null, "contact_phone": "+81 166-85-7867", "contact_email": null, "status": 1, "source_type": 1, "numberReviews": 0}, {"name": "Athena", "type": "restaurant", "image": null, "address": "6-405-2 Migi 1 Lion Bill Kawachi Hall 3F, Asahikawa 070-0034 Hokkaido", "lat": 43.769493, "lng": 142.35858, "ref_id": 14743761, "rating": -1, "num_reviews": 0, "website": null, "contact_phone": "+81 166-26-9000", "contact_email": null, "status": 1, "source_type": 1, "numberReviews": 0}, {"name": "Asahikawa Ramen Koguma Club Nagayama", "type": "restaurant", "image": null, "address": "4 Nagayama 10-1-12 Jo, Asahikawa 079-8414 Hokkaido", "lat": 43.79661, "lng": 142.41687, "ref_id": 9961642, "rating": -1, "num_reviews": 0, "website": null, "contact_phone": "+81 166-48-1033", "contact_email": null, "status": 1, "source_type": 1, "numberReviews": 0}, {"name": "Karaoke Utaya Asahikawa Kaimono Koen 3Jo", "type": "restaurant", "image": null, "address": "8chome 3Jodori, Asahikawa 070-0033 Hokkaido", "lat": 43.767525, "lng": 142.36105, "ref_id": 14014444, "rating": -1, "num_reviews": 0, "website": "http://www.takahasi.co.jp/shop/detail/?shop=asa", "contact_phone": "+81 166-21-6688", "contact_email": null, "status": 1, "source_type": 1, "numberReviews": 0}, {"name": "Izakaya Suzunosuke", "type": "restaurant", "image": null, "address": "3-3-14 Toyooka Article 2, Asahikawa 078-8232 Hokkaido", "lat": 43.758156, "lng": 142.3969, "ref_id": 13049426, "rating": -1, "num_reviews": 0, "website": null, "contact_phone": "+81 166-74-4725", "contact_email": null, "status": 1, "source_type": 1, "numberReviews": 0}, {"name": "Gyoza Izakaya", "type": "restaurant", "image": null, "address": "Article 2 Through 5-740, Asahikawa 070-0032 Hokkaido", "lat": 43.768307, "lng": 142.35559, "ref_id": 19777919, "rating": -1, "num_reviews": 0, "website": null, "contact_phone": "+81 166-73-8763", "contact_email": null, "status": 1, "source_type": 1, "numberReviews": 0}, {"name": "Meat House Asahikawa Shopping Koen-Dori", "type": "restaurant", "image": null, "address": "7-334-8 Jodori 16-635-3, Asahikawa 070-0033 Hokkaido", "lat": 43.76752, "lng": 142.35999, "ref_id": 13049683, "rating": -1, "num_reviews": 0, "website": null, "contact_phone": "+81 166-29-6633", "contact_email": null, "status": 1, "source_type": 1, "numberReviews": 0}, {"name": "Pachira", "type": "restaurant", "image": null, "address": "4-3-12 Toko 1-Jo, Asahikawa 078-8341 Hokkaido", "lat": 43.75442, "lng": 142.40302, "ref_id": 9922213, "rating": -1, "num_reviews": 0, "website": null, "contact_phone": "+81 166-35-0234", "contact_email": null, "status": 1, "source_type": 1, "numberReviews": 0}, {"name": "Saint Vallier Midorigaoka", "type": "restaurant", "image": null, "address": "1-3 Midorigaokahigashi Article 3, Asahikawa 078-8803 Hokkaido", "lat": 43.728443, "lng": 142.38074, "ref_id": 14860199, "rating": -1, "num_reviews": 0, "website": null, "contact_phone": "+81 166-76-1057", "contact_email": null, "status": 1, "source_type": 1, "numberReviews": 0}, {"name": "Hiro Sada", "type": "restaurant", "image": null, "address": "4-4-25 11jo Toko, Asahikawa 078-8351 Hokkaido", "lat": 43.744625, "lng": 142.39836, "ref_id": 13259813, "rating": -1, "num_reviews": 0, "website": null, "contact_phone": "+81 166-38-0200", "contact_email": null, "status": 1, "source_type": 1, "numberReviews": 0}, {"name": "Jimaben", "type": "restaurant", "image": null, "address": "7-4-1 Toyoka15Jo Atago Corpo, Asahikawa 078-8245 Hokkaido", "lat": 43.772297, "lng": 142.41408, "ref_id": 14774102, "rating": -1, "num_reviews": 0, "website": null, "contact_phone": "+81 166-86-2962", "contact_email": null, "status": 1, "source_type": 1, "numberReviews": 0}, {"name": "Oshokuji Bar Kimura", "type": "restaurant", "image": "https://dynamic-media-cdn.tripadvisor.com/media/photo-o/12/0e/a4/c2/img-20180215-125614-largejpg.jpg?w=1000&s=1", "address": "1-4 Kita 1-Jo Higashi, Kutchancho, Kutchan-cho, Abuta-gun 044-0001 Hokkaido", "lat": 42.901463, "lng": 140.75441, "ref_id": 10644387, "rating": 4.5, "num_reviews": 0, "website": null, "contact_phone": "+81 136-22-1026", "contact_email": null, "status": 1, "source_type": 1, "numberReviews": 3}, {"name": "Itsuki", "type": "restaurant", "image": "https://dynamic-media-cdn.tripadvisor.com/media/photo-o/0e/a7/35/5c/img03155-largejpg.jpg?w=1000&s=1", "address": "2 Kita Sanjo Nishi, Kutchan-cho, Abuta-gun 044-0053 Hokkaido", "lat": 42.903683, "lng": 140.74861, "ref_id": 10010831, "rating": 5, "num_reviews": 0, "website": null, "contact_phone": "+81 136-23-2892", "contact_email": null, "status": 1, "source_type": 1, "numberReviews": 2}, {"name": "HAKUsteak", "type": "restaurant", "image": "https://dynamic-media-cdn.tripadvisor.com/media/photo-o/1a/a7/d9/d1/view-from-the-restaurant.jpg?w=1000&s=1", "address": "183-40 Yamada, Kutchan-cho, Abuta-gun 044-0081 Hokkaido", "lat": 42.86324, "lng": 140.7013, "ref_id": 19882061, "rating": 5, "num_reviews": 0, "website": "http://hakulife.com/hakusteak/", "contact_phone": "+81 3-6866-2849", "contact_email": "enquiries@hakulife.com", "status": 1, "source_type": 1, "numberReviews": 1}, {"name": "Wagyu BBQ Sei", "type": "restaurant", "image": "https://dynamic-media-cdn.tripadvisor.com/media/photo-o/1a/39/0d/3e/photo0jpg.jpg?w=1000&s=1", "address": "133-14 Yamada, Kutchan-cho, Abuta-gun 044-0081 Hokkaido", "lat": 42.86382, "lng": 140.71024, "ref_id": 16646774, "rating": 4.5, "num_reviews": 0, "website": "", "contact_phone": "+81 136-23-2799", "contact_email": null, "status": 1, "source_type": 1, "numberReviews": 2}, {"name": "Pump It", "type": "restaurant", "image": "https://dynamic-media-cdn.tripadvisor.com/media/photo-o/17/b7/e0/a0/pump-it-bar-kutchan.jpg?w=1000&s=1", "address": "3-1-1 Kita 2-jo Nishi Fukui Bldg. 3F, Kutchan-cho, Abuta-gun 044-0052 Hokkaido", "lat": 42.903297, "lng": 140.7507, "ref_id": 17531846, "rating": 4.5, "num_reviews": 0, "website": "", "contact_phone": "+81 136-55-6633", "contact_email": null, "status": 1, "source_type": 1, "numberReviews": 2}, {"name": "Elements", "type": "restaurant", "image": "https://dynamic-media-cdn.tripadvisor.com/media/photo-o/13/49/a3/5b/img-20180612-133707-largejpg.jpg?w=1000&s=1", "address": "65-13 Kabayama, Kutchan-cho, Abuta-gun 044-0078 Hokkaido", "lat": 42.85223, "lng": 140.70299, "ref_id": 13859817, "rating": 4, "num_reviews": 0, "website": "http://alwaysniseko.com/niseko-hotel-accommodation/restaurant-and-bar/", "contact_phone": "+81 136-55-8498", "contact_email": "elements@nisade.com", "status": 1, "source_type": 1, "numberReviews": 3}, {"name": "Teuchi Soba Momoki", "type": "restaurant", "image": "https://dynamic-media-cdn.tripadvisor.com/media/photo-o/17/f1/98/c9/img-20190602-140215-largejpg.jpg?w=1000&s=1", "address": "359-3 Kimobetsu, Kimobetsu-cho, Abuta-gun 044-0201 Hokkaido", "lat": 42.797787, "lng": 140.94504, "ref_id": 10018643, "rating": 4.5, "num_reviews": 0, "website": null, "contact_phone": "+81 136-33-2726", "contact_email": null, "status": 1, "source_type": 1, "numberReviews": 2}, {"name": "Cocoro", "type": "restaurant", "image": null, "address": "1-16 Nishi Minami1jyo, Kutchan-cho, Abuta-gun 0044-0014 Hokkaido", "lat": 42.901325, "lng": 140.75151, "ref_id": 3811281, "rating": 5, "num_reviews": 0, "website": null, "contact_phone": "+81 136-22-1528", "contact_email": null, "status": 1, "source_type": 1, "numberReviews": 3}, {"name": "Cafe 909", "type": "restaurant", "image": "https://dynamic-media-cdn.tripadvisor.com/media/photo-o/12/50/3a/64/cafe-909.jpg?w=1000&s=1", "address": "2-7-1 Kita 1-jo Nishi, Kutchan-cho, Abuta-gun 044-0051 Hokkaido", "lat": 42.902473, "lng": 140.74763, "ref_id": 13743003, "rating": 4.5, "num_reviews": 0, "website": "http://www.facebook.com/pages/Cafe909/2004683033147863", "contact_phone": null, "contact_email": null, "status": 1, "source_type": 1, "numberReviews": 2}, {"name": "Sushi Niseko no Yume by Sase", "type": "restaurant", "image": "https://dynamic-media-cdn.tripadvisor.com/media/photo-o/2b/47/42/dc/caption.jpg?w=1000&s=1", "address": "3-6-24 Niseko Hirafu 1-Jo hirafu188 5F, Kutchan-cho, Abuta-gun 044-0080 Hokkaido", "lat": 42.860065, "lng": 140.7026, "ref_id": 26696366, "rating": 3.5, "num_reviews": 0, "website": "https://www.nisekonoyume.com/", "contact_phone": "+81 50-1807-8592", "contact_email": null, "status": 1, "source_type": 1, "numberReviews": 3}, {"name": "Pizzeria E Ristorante Louis", "type": "restaurant", "image": null, "address": "72-1 Yamada 2F, Kutchan-cho, Abuta-gun 044-0081 Hokkaido", "lat": 42.86392, "lng": 140.72375, "ref_id": 17843778, "rating": 4, "num_reviews": 0, "website": null, "contact_phone": "+81 136-55-6883", "contact_email": null, "status": 1, "source_type": 1, "numberReviews": 3}, {"name": "Sushi Tavern Sakamoto", "type": "restaurant", "image": "https://dynamic-media-cdn.tripadvisor.com/media/photo-o/0e/a0/75/12/20170310-191719-largejpg.jpg?w=1000&s=1", "address": "1 Kita5-Johigashi Kutchan-Cho, Kutchan-cho, Abuta-gun 044-0005 Hokkaido", "lat": 42.90329, "lng": 140.75163, "ref_id": 6518590, "rating": 4, "num_reviews": 0, "website": "http://sakamoto-sushikyarocoro.gorp.jp/", "contact_phone": "+81 136-22-0556", "contact_email": null, "status": 1, "source_type": 1, "numberReviews": 4}, {"name": "Manzoku Shokudo", "type": "restaurant", "image": "https://dynamic-media-cdn.tripadvisor.com/media/photo-o/13/8f/41/74/photo2jpg.jpg?w=1000&s=1", "address": "1-23 Kita Nijo Nishi, Kutchan-cho, Abuta-gun 044-0052 Hokkaido", "lat": 42.902866, "lng": 140.75185, "ref_id": 10013075, "rating": 4.5, "num_reviews": 0, "website": null, "contact_phone": "+81 136-23-2446", "contact_email": null, "status": 1, "source_type": 1, "numberReviews": 2}, {"name": "McDonald's Shiroishi Lucy", "type": "restaurant", "image": "https://dynamic-media-cdn.tripadvisor.com/media/photo-o/12/27/85/58/from-inside-coop-grocery.jpg?w=1000&s=1", "address": "18-5-35 Sakaedori, Shiroishi-Ku, Sapporo 003-0021 Hokkaido", "lat": 43.02834, "lng": 141.43416, "ref_id": 9639654, "rating": 3, "num_reviews": 0, "website": null, "contact_phone": "+81 11-859-5622", "contact_email": null, "status": 1, "source_type": 1, "numberReviews": 10}, {"name": "Tofukudo", "type": "restaurant", "image": "https://dynamic-media-cdn.tripadvisor.com/media/photo-o/0b/1a/95/5e/20160429-122152-largejpg.jpg?w=1000&s=1", "address": "1-1-28 Nishinosato Kita, Kitahiroshima 061-1104 Hokkaido", "lat": 43.014687, "lng": 141.50117, "ref_id": 9912184, "rating": 4, "num_reviews": 0, "website": null, "contact_phone": "+81 11-375-4495", "contact_email": null, "status": 1, "source_type": 1, "numberReviews": 3}, {"name": "Irohanihoheto Shiroishi", "type": "restaurant", "image": null, "address": "6 Higashisapporo 5-Jo Shiroishi-Ku Shiraishi Sky Corp 1F, Sapporo 003-0005 Hokkaido", "lat": 43.047436, "lng": 141.39754, "ref_id": 6520173, "rating": 4.5, "num_reviews": 0, "website": null, "contact_phone": "+81 11-868-1133", "contact_email": null, "status": 1, "source_type": 1, "numberReviews": 2}, {"name": "Nakau Shiroishi Hondori", "type": "restaurant", "image": "https://dynamic-media-cdn.tripadvisor.com/media/photo-o/10/55/56/3c/photo0jpg.jpg?w=1000&s=1", "address": "3-5 Minami Hondori 10, Shiroishi-ku, Sapporo 003-0026 Hokkaido", "lat": 43.042675, "lng": 141.42087, "ref_id": 11698951, "rating": 3.5, "num_reviews": 0, "website": null, "contact_phone": "+81 120-295-770", "contact_email": null, "status": 1, "source_type": 1, "numberReviews": 8}, {"name": "Yakiniku King Kitano Dori", "type": "restaurant", "image": "https://dynamic-media-cdn.tripadvisor.com/media/photo-o/0b/79/96/80/caption.jpg?w=1000&s=1", "address": "2-13-68 Kitano 3 Jo, Kiyota-Ku, Sapporo 004-0863 Hokkaido", "lat": 43.01246, "lng": 141.43404, "ref_id": 9616318, "rating": 4, "num_reviews": 0, "website": "http://www.yakiniku-king.jp/index.html", "contact_phone": "+81 11-889-2900", "contact_email": null, "status": 1, "source_type": 1, "numberReviews": 3}, {"name": "Okinawa Chubo Mensoore", "type": "restaurant", "image": "https://dynamic-media-cdn.tripadvisor.com/media/photo-o/0e/e7/a3/e6/photo2jpg.jpg?w=1000&s=1", "address": "5-1-17 Misono 11 Jo, Toyohira-ku, Sapporo Hokkaido", "lat": 43.03478, "lng": 141.38101, "ref_id": 3828891, "rating": 4, "num_reviews": 0, "website": null, "contact_phone": "+81 11-833-8885", "contact_email": null, "status": 1, "source_type": 1, "numberReviews": 3}, {"name": "Chirorinmura Sunpiasa", "type": "restaurant", "image": null, "address": "5 Atsubetsu Chuo2Jo Atsubetsuku, Sapporo 004-8515 Hokkaido", "lat": 43.03794, "lng": 141.47293, "ref_id": 1704119, "rating": 3.5, "num_reviews": 0, "website": null, "contact_phone": "+81 11-890-2322", "contact_email": "", "status": 1, "source_type": 1, "numberReviews": 6}, {"name": "Subway Sapporo Dome", "type": "restaurant", "image": null, "address": "1 Hitsujigaoka, Toyohira-Ku Sapporo Dome, Sapporo 062-0045 Hokkaido", "lat": 43.00726, "lng": 141.41127, "ref_id": 10656371, "rating": 3.5, "num_reviews": 0, "website": "https://www.subway.co.jp/sp/shops/hokkaido-tohoku/hokkaido/shop1073/index.html", "contact_phone": "+81 11-856-6613", "contact_email": null, "status": 1, "source_type": 1, "numberReviews": 6}, {"name": "Hontanron Oyachi", "type": "restaurant", "image": "https://dynamic-media-cdn.tripadvisor.com/media/photo-o/0d/ec/72/d6/photo1jpg.jpg?w=1000&s=1", "address": "3-20 Oyachihigashi, Atsubetsu-Ku, Sapporo Hokkaido", "lat": 43.026306, "lng": 141.45363, "ref_id": 3848595, "rating": 3.5, "num_reviews": 0, "website": null, "contact_phone": "+81 11-896-8099", "contact_email": null, "status": 1, "source_type": 1, "numberReviews": 11}, {"name": "Seafood Wholesale Store Ginrin Suisan Kita Hiroshima", "type": "restaurant", "image": null, "address": "3-7-6 Omagari Saiwaicho Mitsui Outlet Park 2F, Kitahiroshima 061-1278 Hokkaido", "lat": 42.971294, "lng": 141.47182, "ref_id": 9618516, "rating": 4, "num_reviews": 0, "website": null, "contact_phone": "+81 11-377-2155", "contact_email": null, "status": 1, "source_type": 1, "numberReviews": 4}, {"name": "Soup Curry Cayenne", "type": "restaurant", "image": null, "address": "11-2-28, Tsukisamunishi 1 Jo, Toyohira-ku, Sapporo Hokkaido", "lat": 43.02383, "lng": 141.39847, "ref_id": 3779252, "rating": 5, "num_reviews": 0, "website": "http://www.curry-cayenne.com/s/", "contact_phone": "+81 11-855-7765", "contact_email": null, "status": 1, "source_type": 1, "numberReviews": 2}, {"name": "Victoria Station Atsubetsu", "type": "restaurant", "image": "https://dynamic-media-cdn.tripadvisor.com/media/photo-o/29/0d/98/c3/caption.jpg?w=1000&s=1", "address": "4-5-22 Atsubetsu Chuo Sanjo, Atsubetsu-Ku, Sapporo 004-0053 Hokkaido", "lat": 43.038612, "lng": 141.46703, "ref_id": 9890908, "rating": 3.5, "num_reviews": 0, "website": null, "contact_phone": "+81 11-801-2751", "contact_email": null, "status": 1, "source_type": 1, "numberReviews": 8}, {"name": "Sushi-Dokoro Fukucho", "type": "restaurant", "image": "https://dynamic-media-cdn.tripadvisor.com/media/photo-o/09/f0/cf/8f/sushi-dokoro-fukucho.jpg?w=1000&s=1", "address": "3-1-6 Omagari Suehiro, Kitahiroshima 061-1272 Hokkaido", "lat": 42.978218, "lng": 141.48338, "ref_id": 9683175, "rating": 4.5, "num_reviews": 0, "website": null, "contact_phone": "+81 11-377-5423", "contact_email": null, "status": 1, "source_type": 1, "numberReviews": 2}, {"name": "Tsukiji Gindaco Super Arcs Kitano", "type": "restaurant", "image": "https://dynamic-media-cdn.tripadvisor.com/media/photo-o/09/cf/25/9f/tsukiji-gindaco-ralse.jpg?w=1000&s=1", "address": "2-13-88 Kitano 3 Jo, Kiyota-ku, Sapporo 004-0863 Hokkaido", "lat": 43.01343, "lng": 141.43199, "ref_id": 9586851, "rating": 3.5, "num_reviews": 0, "website": "https://stores.gindaco.com/1010128", "contact_phone": "+81 11-885-5777", "contact_email": null, "status": 1, "source_type": 1, "numberReviews": 11}, {"name": "Tsubohachi Oyachi", "type": "restaurant", "image": null, "address": "5-4-5 Oyachi Higashi, Atsubetsu-Ku, Sapporo 004-0041 Hokkaido", "lat": 43.025192, "lng": 141.45627, "ref_id": 9888800, "rating": 3.5, "num_reviews": 0, "website": null, "contact_phone": "+81 11-801-1888", "contact_email": null, "status": 1, "source_type": 1, "numberReviews": 6}, {"name": "Maple Leaf", "type": "restaurant", "image": null, "address": "1-1-8 Sakaemachi, Nanporo-cho, Sorachi-gun 069-0237 Hokkaido", "lat": 43.0638, "lng": 141.65324, "ref_id": 10010247, "rating": 4, "num_reviews": 0, "website": null, "contact_phone": "+81 11-378-5310", "contact_email": null, "status": 1, "source_type": 1, "numberReviews": 3}, {"name": "Yakiniku No Takehachi", "type": "restaurant", "image": "https://dynamic-media-cdn.tripadvisor.com/media/photo-o/1c/36/0c/fa/2.jpg?w=1000&s=1", "address": "1-3-8 Chuo-Minami, Naganuma-cho, Yubari-gun 069-1332 Hokkaido", "lat": 43.009045, "lng": 141.6934, "ref_id": 10013193, "rating": 5, "num_reviews": 0, "website": null, "contact_phone": "+81 123-88-3308", "contact_email": null, "status": 1, "source_type": 1, "numberReviews": 1}, {"name": "Bureau", "type": "restaurant", "image": "https://dynamic-media-cdn.tripadvisor.com/media/photo-o/11/b4/23/1b/photo1jpg.jpg?w=1000&s=1", "address": "1-2-22 Chuo, Nanporo-cho, Sorachi-gun 069-0235 Hokkaido", "lat": 43.060326, "lng": 141.65396, "ref_id": 10014964, "rating": 4.5, "num_reviews": 0, "website": null, "contact_phone": "+81 11-378-7020", "contact_email": null, "status": 1, "source_type": 1, "numberReviews": 2}, {"name": "Mos Burger Chitose Salmon Park", "type": "restaurant", "image": "https://dynamic-media-cdn.tripadvisor.com/media/photo-o/0a/d9/b6/0d/photo1jpg.jpg?w=1000&s=1", "address": "1-3-8 Toko, Chitose 066-0021 Hokkaido", "lat": 42.83623, "lng": 141.66127, "ref_id": 9915298, "rating": 3.5, "num_reviews": 0, "website": null, "contact_phone": "+81 123-22-3232", "contact_email": null, "status": 1, "source_type": 1, "numberReviews": 12}, {"name": "Aji no Ramen Akamon", "type": "restaurant", "image": "https://dynamic-media-cdn.tripadvisor.com/media/photo-o/0f/7c/5b/2d/caption.jpg?w=1000&s=1", "address": "6-51 Sakaecho Aeon Chitose 1F, Chitose 066-0061 Hokkaido", "lat": 42.82886, "lng": 141.64812, "ref_id": 1697494, "rating": 3.5, "num_reviews": 0, "website": null, "contact_phone": "+81 123-26-9950", "contact_email": null, "status": 1, "source_type": 1, "numberReviews": 12}, {"name": "Bikkuri Donkey Eniwa", "type": "restaurant", "image": "https://dynamic-media-cdn.tripadvisor.com/media/photo-o/1b/7d/47/d8/caption.jpg?w=1000&s=1", "address": "2-9-14 Sumiyoshicho, Eniwa 061-1441 Hokkaido", "lat": 42.87529, "lng": 141.58376, "ref_id": 9950744, "rating": 4, "num_reviews": 0, "website": "http://www.bikkuri-donkey.com/", "contact_phone": "+81 123-39-2171", "contact_email": null, "status": 1, "source_type": 1, "numberReviews": 8}, {"name": "Tonsuke", "type": "restaurant", "image": "https://dynamic-media-cdn.tripadvisor.com/media/photo-o/19/0e/b7/a1/caption.jpg?w=1000&s=1", "address": "2-1-4 Toko, Chitose 066-0021 Hokkaido", "lat": 42.835186, "lng": 141.66312, "ref_id": 9635993, "rating": 3.5, "num_reviews": 0, "website": "http://hideyoshi-chitose.com/tonsuke.html", "contact_phone": "+81 123-49-7878", "contact_email": null, "status": 1, "source_type": 1, "numberReviews": 15}, {"name": "Gusto Chitose", "type": "restaurant", "image": "https://dynamic-media-cdn.tripadvisor.com/media/photo-o/15/3f/21/28/2.jpg?w=1000&s=1", "address": "7-1789-3 Chiyodacho, Chitose 066-0062 Hokkaido", "lat": 42.828472, "lng": 141.65063, "ref_id": 10234358, "rating": 3.5, "num_reviews": 0, "website": null, "contact_phone": "+81 123-40-6122", "contact_email": null, "status": 1, "source_type": 1, "numberReviews": 13}, {"name": "Ramen Keigakubo", "type": "restaurant", "image": "https://dynamic-media-cdn.tripadvisor.com/media/photo-o/15/f5/80/d4/photo2jpg.jpg?w=1000&s=1", "address": "6-10-5 Kogane-minami, Eniwa 061-1409 Hokkaido", "lat": 42.89086, "lng": 141.59904, "ref_id": 3787254, "rating": 4, "num_reviews": 0, "website": "http://keigakubou.com/", "contact_phone": "+81 123-25-5502", "contact_email": null, "status": 1, "source_type": 1, "numberReviews": 8}, {"name": "Choice Eniwa", "type": "restaurant", "image": "https://dynamic-media-cdn.tripadvisor.com/media/photo-o/15/47/32/f9/photo0jpg.jpg?w=1000&s=1", "address": "1-1-28 Wakocho, Eniwa Hokkaido", "lat": 42.872192, "lng": 141.58632, "ref_id": 3829235, "rating": 3.5, "num_reviews": 0, "website": null, "contact_phone": "+81 123-35-2111", "contact_email": null, "status": 1, "source_type": 1, "numberReviews": 14}, {"name": "Endo Suisan Chitose Chiyodacho", "type": "restaurant", "image": "https://dynamic-media-cdn.tripadvisor.com/media/photo-o/13/ee/a1/12/endo-suisan-chitose-chiyodacho.jpg?w=1000&s=1", "address": "3-13 Chiyodacho Best Western Plus Hotel Fino Chitose 1F, Chitose 066-0062 Hokkaido", "lat": 42.82511, "lng": 141.64668, "ref_id": 14860961, "rating": 4, "num_reviews": 0, "website": "", "contact_phone": "+81 123-40-1080", "contact_email": null, "status": 1, "source_type": 1, "numberReviews": 9}, {"name": "Kamakura Pasta Mitsui Outlet Park Sapporo Kita-Hiroshima", "type": "restaurant", "image": "https://dynamic-media-cdn.tripadvisor.com/media/photo-o/18/ed/75/09/photo0jpg.jpg?w=1000&s=1", "address": "3-7-6 Omagari Saiwaicho Mitsui Outlet Park Sapporo Kita-Hiroshima 2F, Kitahiroshima 061-1278 Hokkaido", "lat": 42.97094, "lng": 141.47122, "ref_id": 13137492, "rating": 4, "num_reviews": 0, "website": "https://www.saint-marc-hd.com/b/saintmarc/info/90197/?brand_type=PST", "contact_phone": "+81 11-370-3309", "contact_email": null, "status": 1, "source_type": 1, "numberReviews": 6}, {"name": "Yakiniku Tokuju Chitose", "type": "restaurant", "image": "https://dynamic-media-cdn.tripadvisor.com/media/photo-o/0a/b8/fb/12/caption.jpg?w=1000&s=1", "address": "2-8-1 Honcho, Chitose 066-0047 Hokkaido", "lat": 42.817783, "lng": 141.64932, "ref_id": 9612382, "rating": 3.5, "num_reviews": 0, "website": "https://www.tokuju.com/shop/chitose/", "contact_phone": "+81 123-42-8929", "contact_email": null, "status": 1, "source_type": 1, "numberReviews": 14}, {"name": "Ikkyusoba Chitose", "type": "restaurant", "image": "https://dynamic-media-cdn.tripadvisor.com/media/photo-o/13/e4/8f/b5/photo0jpg.jpg?w=1000&s=1", "address": "2 10-1 Hokuto, Chitose 066-0073 Hokkaido", "lat": 42.830322, "lng": 141.63258, "ref_id": 1663512, "rating": 3.5, "num_reviews": 0, "website": "http://www.ikkyu-soba.co.jp/", "contact_phone": "+81 123-22-4773", "contact_email": "", "status": 1, "source_type": 1, "numberReviews": 11}, {"name": "Meon Garden Cafe", "type": "restaurant", "image": "https://dynamic-media-cdn.tripadvisor.com/media/photo-o/1b/c8/34/31/caption.jpg?w=1000&s=1", "address": "1625-6 Rankoshi Inside Meon Noen, Chitose 066-0068 Hokkaido", "lat": 42.810703, "lng": 141.58575, "ref_id": 13962069, "rating": 5, "num_reviews": 0, "website": "http://meonnouen.com/index.html", "contact_phone": "+81 123-26-2007", "contact_email": null, "status": 1, "source_type": 1, "numberReviews": 3}, {"name": "Paruteibiaresutoran", "type": "restaurant", "image": "https://dynamic-media-cdn.tripadvisor.com/media/photo-o/09/12/21/30/caption.jpg?w=1000&s=1", "address": "Sakaecho, Kitahiroshima Hokkaido", "lat": 42.978523, "lng": 141.56161, "ref_id": 1689722, "rating": 4, "num_reviews": 0, "website": null, "contact_phone": "+81 11-372-5000", "contact_email": "", "status": 1, "source_type": 1, "numberReviews": 10}, {"name": "Light Meal Cafe Restaurant", "type": "restaurant", "image": "https://dynamic-media-cdn.tripadvisor.com/media/photo-o/17/4b/37/cb/photo0jpg.jpg?w=1000&s=1", "address": "531-6 Wattsu Hokkaido Expressway Waatsu Parking Area Up Line, Kitahiroshima 061-1264 Hokkaido", "lat": 42.952374, "lng": 141.51213, "ref_id": 14743369, "rating": 4, "num_reviews": 0, "website": "http://www.driveplaza.com/sapa/1050/1050081/1/", "contact_phone": "+81 11-376-2517", "contact_email": null, "status": 1, "source_type": 1, "numberReviews": 6}, {"name": "Miyata Coffee Utsukushigaoka", "type": "restaurant", "image": "https://dynamic-media-cdn.tripadvisor.com/media/photo-o/15/e1/fc/79/caption.jpg?w=1000&s=1", "address": "2 1-6-7 Utsukushigaoka 4-Jo, Kiyota-Ku, Sapporo 004-0812 Hokkaido", "lat": 42.988052, "lng": 141.44748, "ref_id": 9682325, "rating": 4, "num_reviews": 0, "website": null, "contact_phone": "+81 11-887-3818", "contact_email": null, "status": 1, "source_type": 1, "numberReviews": 8}, {"name": "Restaurant Yano", "type": "restaurant", "image": "https://dynamic-media-cdn.tripadvisor.com/media/photo-o/17/82/9e/e1/caption.jpg?w=1000&s=1", "address": "123 Fukuyama, Matsumae-cho, Matsumae-gun 049-1512 Hokkaido", "lat": 41.429443, "lng": 140.11086, "ref_id": 17361716, "rating": 4, "num_reviews": 0, "website": null, "contact_phone": "+81 139-42-2525", "contact_email": null, "status": 1, "source_type": 1, "numberReviews": 7}, {"name": "Kitamae Shokudo", "type": "restaurant", "image": "https://dynamic-media-cdn.tripadvisor.com/media/photo-o/19/56/29/58/caption.jpg?w=1000&s=1", "address": "379 Karatsu Michi-no-Eki Kitamaebune Matsumae, Matsumae-cho, Matsumae-gun 049-1506 Hokkaido", "lat": 41.426502, "lng": 140.10721, "ref_id": 10011263, "rating": 4, "num_reviews": 0, "website": "http://michinoeki-matsumae.jp/?mode=f2&cbid=2255054", "contact_phone": "+81 139-46-2211", "contact_email": null, "status": 1, "source_type": 1, "numberReviews": 12}, {"name": "Ezo Zushi", "type": "restaurant", "image": null, "address": "249-4 Fukuyama, Matsumae-cho, Matsumae-gun 049-1512 Hokkaido", "lat": 41.430363, "lng": 140.11038, "ref_id": 10277156, "rating": 4, "num_reviews": 0, "website": null, "contact_phone": "+81 139-42-2131", "contact_email": null, "status": 1, "source_type": 1, "numberReviews": 4}, {"name": "Chateau Pizza House", "type": "restaurant", "image": null, "address": "193 Fukuyama, Matsumae-cho, Matsumae-gun 049-1512 Hokkaido", "lat": 41.430347, "lng": 140.11084, "ref_id": 6528363, "rating": 4, "num_reviews": 0, "website": null, "contact_phone": "+81 139-42-4005", "contact_email": null, "status": 1, "source_type": 1, "numberReviews": 6}, {"name": "Yokozuna No Sato Fukushima", "type": "restaurant", "image": null, "address": "143-1 Aza Fukushima, Fukushima-cho, Matsumae-gun 049-1312 Hokkaido", "lat": 41.479565, "lng": 140.25581, "ref_id": 10019157, "rating": 4.5, "num_reviews": 0, "website": null, "contact_phone": "+81 139-47-4072", "contact_email": null, "status": 1, "source_type": 1, "numberReviews": 2}, {"name": "Sankyu Main Store", "type": "restaurant", "image": "https://dynamic-media-cdn.tripadvisor.com/media/photo-o/0f/62/bd/f9/seafood-ramen.jpg?w=1000&s=1", "address": "125 Fukuyama, Matsumae-cho, Matsumae-gun 049-1512 Hokkaido", "lat": 41.429367, "lng": 140.11058, "ref_id": 10010861, "rating": 3.5, "num_reviews": 0, "website": null, "contact_phone": "+81 139-42-2039", "contact_email": null, "status": 1, "source_type": 1, "numberReviews": 6}, {"name": "Oshokuji-Dokoro Ryokan Banya", "type": "restaurant", "image": "https://dynamic-media-cdn.tripadvisor.com/media/photo-o/12/e1/7b/3f/photo3jpg.jpg?w=1000&s=1", "address": "19 Fukushima, Fukushima-cho, Matsumae-gun 049-1312 Hokkaido", "lat": 41.481018, "lng": 140.25595, "ref_id": 10016218, "rating": 4, "num_reviews": 0, "website": null, "contact_phone": "+81 139-47-2829", "contact_email": null, "status": 1, "source_type": 1, "numberReviews": 2}, {"name": "Handmade Soba Ogura", "type": "restaurant", "image": "https://dynamic-media-cdn.tripadvisor.com/media/photo-o/18/c5/4b/ca/caption.jpg?w=1000&s=1", "address": "60 Matsushiro, Matsumae-cho, Matsumae-gun 049-1511 Hokkaido", "lat": 41.428726, "lng": 140.10938, "ref_id": 10012551, "rating": 3.5, "num_reviews": 0, "website": null, "contact_phone": "+81 139-42-2128", "contact_email": null, "status": 1, "source_type": 1, "numberReviews": 5}, {"name": "Matsumae Bussankan Yoneta", "type": "restaurant", "image": "https://dynamic-media-cdn.tripadvisor.com/media/photo-o/07/e5/6c/e9/matsumae-bussankan-yoneta.jpg?w=1000&s=1", "address": "57 Matsushiro, Matsumae-cho, Matsumae-gun 049-1511 Hokkaido", "lat": 41.42907, "lng": 140.10994, "ref_id": 8083596, "rating": 3.5, "num_reviews": 0, "website": null, "contact_phone": "+81 139-42-4545", "contact_email": null, "status": 1, "source_type": 1, "numberReviews": 11}, {"name": "Matsumae Kanko Annaijo Hanamori", "type": "restaurant", "image": "https://dynamic-media-cdn.tripadvisor.com/media/photo-o/1d/3f/9b/fc/caption.jpg?w=1000&s=1", "address": "144 Matsushiro, Matsumae-cho, Matsumae-gun 049-1511 Hokkaido", "lat": 41.42813, "lng": 140.10884, "ref_id": 10016885, "rating": 3.5, "num_reviews": 0, "website": null, "contact_phone": "+81 139-42-3868", "contact_email": null, "status": 1, "source_type": 1, "numberReviews": 2}, {"name": "Sakuragi", "type": "restaurant", "image": "https://dynamic-media-cdn.tripadvisor.com/media/photo-o/12/a2/93/a4/photo2jpg.jpg?w=1000&s=1", "address": "46-22 Fukushima, Fukushima-cho, Matsumae-gun 049-1312 Hokkaido", "lat": 41.47914, "lng": 140.25626, "ref_id": 10017916, "rating": 3.5, "num_reviews": 0, "website": null, "contact_phone": "+81 139-47-3637", "contact_email": null, "status": 1, "source_type": 1, "numberReviews": 3}, {"name": "Izakaya Kiyo Chan", "type": "restaurant", "image": null, "address": "107 Fukushima, Fukushima-cho, Matsumae-gun 049-1312 Hokkaido", "lat": 41.47785, "lng": 140.25511, "ref_id": 10016107, "rating": 4, "num_reviews": 0, "website": null, "contact_phone": "+81 139-47-3099", "contact_email": null, "status": 1, "source_type": 1, "numberReviews": 1}, {"name": "Sengensobaya", "type": "restaurant", "image": null, "address": "283 Sengen, Fukushima-cho, Matsumae-gun 049-1332 Hokkaido", "lat": 41.559586, "lng": 140.27335, "ref_id": 1666931, "rating": 3.5, "num_reviews": 0, "website": "", "contact_phone": "+81 139-47-2772", "contact_email": "", "status": 1, "source_type": 1, "numberReviews": 2}, {"name": "Urasato", "type": "restaurant", "image": null, "address": "262 Aza Fukuyama, Matsumae-cho, Matsumae-gun 049-1512 Hokkaido", "lat": 41.43106, "lng": 140.11096, "ref_id": 10013008, "rating": 3.5, "num_reviews": 0, "website": null, "contact_phone": "+81 139-42-2158", "contact_email": null, "status": 1, "source_type": 1, "numberReviews": 3}, {"name": "Izakaya Sumi", "type": "restaurant", "image": null, "address": "27 Fukuyama, Matsumae-cho, Matsumae-gun 049-1512 Hokkaido", "lat": 41.428474, "lng": 140.11072, "ref_id": 10012148, "rating": 3, "num_reviews": 0, "website": null, "contact_phone": "+81 139-42-4145", "contact_email": null, "status": 1, "source_type": 1, "numberReviews": 1}, {"name": "Takao", "type": "restaurant", "image": null, "address": "306-1 Tsukisaki, Fukushima-cho, Matsumae-gun 049-1321 Hokkaido", "lat": 41.48379, "lng": 140.25508, "ref_id": 10009140, "rating": 3, "num_reviews": 0, "website": null, "contact_phone": "+81 139-47-3808", "contact_email": null, "status": 1, "source_type": 1, "numberReviews": 1}, {"name": "Akagaki", "type": "restaurant", "image": null, "address": "123 Fukushima, Fukushima-cho, Matsumae-gun 049-1312 Hokkaido", "lat": 41.481735, "lng": 140.2553, "ref_id": 10014707, "rating": 3, "num_reviews": 0, "website": null, "contact_phone": "+81 139-47-2026", "contact_email": null, "status": 1, "source_type": 1, "numberReviews": 1}, {"name": "Kawamura Shokudo", "type": "restaurant", "image": null, "address": "274-7 Fukushima, Fukushima-cho, Matsumae-gun 049-1312 Hokkaido", "lat": 41.481228, "lng": 140.25462, "ref_id": 10016413, "rating": 2, "num_reviews": 0, "website": null, "contact_phone": "+81 139-47-2151", "contact_email": null, "status": 1, "source_type": 1, "numberReviews": 1}, {"name": "Shorakuen", "type": "restaurant", "image": null, "address": "63-1 Aza Fukuyama, Matsumae-cho, Matsumae-gun 049-1512 Hokkaido", "lat": 41.428185, "lng": 140.11295, "ref_id": 13791408, "rating": -1, "num_reviews": 0, "website": null, "contact_phone": "+81 139-42-5050", "contact_email": null, "status": 1, "source_type": 1, "numberReviews": 0}, {"name": "Naruya Confectionery", "type": "restaurant", "image": null, "address": "256 Aza Fukushima, Fukushima-cho, Matsumae-gun 049-1312 Hokkaido", "lat": 41.480667, "lng": 140.25494, "ref_id": 13049794, "rating": -1, "num_reviews": 0, "website": null, "contact_phone": "+81 139-47-2154", "contact_email": null, "status": 1, "source_type": 1, "numberReviews": 0}, {"name": "Fukuzushi", "type": "restaurant", "image": null, "address": "138 Fukushima, Fukushima-cho, Matsumae-gun 049-1312 Hokkaido", "lat": 41.479942, "lng": 140.25575, "ref_id": 10015535, "rating": -1, "num_reviews": 0, "website": null, "contact_phone": "+81 139-47-2635", "contact_email": null, "status": 1, "source_type": 1, "numberReviews": 0}, {"name": "Nomikui-Dokoro Sasai", "type": "restaurant", "image": null, "address": "Mitake, Fukushima-cho, Matsumae-gun 049-1331 Hokkaido", "lat": 41.50834, "lng": 140.26524, "ref_id": 10017299, "rating": -1, "num_reviews": 0, "website": null, "contact_phone": "+81 139-47-3758", "contact_email": null, "status": 1, "source_type": 1, "numberReviews": 0}, {"name": "Confectionery Tatsuya", "type": "restaurant", "image": null, "address": "60 Shape Yoshioka, Fukushima-cho, Matsumae-gun 049-1453 Hokkaido", "lat": 41.445515, "lng": 140.2354, "ref_id": 13049104, "rating": -1, "num_reviews": 0, "website": null, "contact_phone": "+81 139-48-5038", "contact_email": null, "status": 1, "source_type": 1, "numberReviews": 0}, {"name": "Lettet", "type": "restaurant", "image": null, "address": "37 Aza Fukuyama, Matsumae-cho, Matsumae-gun 049-1512 Hokkaido", "lat": 41.428635, "lng": 140.11089, "ref_id": 14860316, "rating": -1, "num_reviews": 0, "website": null, "contact_phone": "+81 139-46-7550", "contact_email": null, "status": 1, "source_type": 1, "numberReviews": 0}, {"name": "Izakaya Koharu", "type": "restaurant", "image": null, "address": "32 Matsushiro, Matsumae-cho, Matsumae-gun 049-1511 Hokkaido", "lat": 41.428207, "lng": 140.10991, "ref_id": 10016105, "rating": -1, "num_reviews": 0, "website": null, "contact_phone": "+81 139-42-3710", "contact_email": null, "status": 1, "source_type": 1, "numberReviews": 0}, {"name": "Kiraku", "type": "restaurant", "image": null, "address": "75 Karatsu, Matsumae-cho, Matsumae-gun 049-1506 Hokkaido", "lat": 41.427834, "lng": 140.107, "ref_id": 10016473, "rating": -1, "num_reviews": 0, "website": null, "contact_phone": "+81 139-42-2701", "contact_email": null, "status": 1, "source_type": 1, "numberReviews": 0}, {"name": "Michi No Eki Shiriuchi Restaurant Yamamaru", "type": "restaurant", "image": null, "address": "48-13 Yunosato, Shiriuchi-cho, Kamiiso-gun 049-1221 Hokkaido", "lat": 41.60125, "lng": 140.33582, "ref_id": 10016965, "rating": -1, "num_reviews": 0, "website": null, "contact_phone": "+81 1392-6-2270", "contact_email": null, "status": 1, "source_type": 1, "numberReviews": 0}, {"name": "Time Coffee & Restaurant", "type": "restaurant", "image": null, "address": "286 Fukushima, Fukushima-cho, Matsumae-gun 049-1312 Hokkaido", "lat": 41.481304, "lng": 140.25539, "ref_id": 10018655, "rating": -1, "num_reviews": 0, "website": null, "contact_phone": "+81 139-47-3983", "contact_email": null, "status": 1, "source_type": 1, "numberReviews": 0}, {"name": "Shokudo Juhachiban", "type": "restaurant", "image": null, "address": "11 Oiso, Matsumae-cho, Matsumae-gun 049-1503 Hokkaido", "lat": 41.425407, "lng": 140.09686, "ref_id": 10018176, "rating": -1, "num_reviews": 0, "website": null, "contact_phone": "+81 139-42-2756", "contact_email": null, "status": 1, "source_type": 1, "numberReviews": 0}, {"name": "Yakinikushiyorakuen", "type": "restaurant", "image": null, "address": "63-1 Aza Fukuyama, Matsumae-cho, Matsumae-gun 049-1512 Hokkaido", "lat": 41.428177, "lng": 140.11302, "ref_id": 13050317, "rating": -1, "num_reviews": 0, "website": null, "contact_phone": "+81 139-42-5209", "contact_email": null, "status": 1, "source_type": 1, "numberReviews": 0}, {"name": "Menya Muso", "type": "restaurant", "image": "https://dynamic-media-cdn.tripadvisor.com/media/photo-o/19/f6/2d/08/dsc-0043-horizon-largejpg.jpg?w=1000&s=1", "address": "5-15-11 Ashino, Kushiro 085-0061 Hokkaido", "lat": 43.0146, "lng": 144.3899, "ref_id": 14744001, "rating": 4.5, "num_reviews": 0, "website": null, "contact_phone": "+81 154-39-3737", "contact_email": null, "status": 1, "source_type": 1, "numberReviews": 5}, {"name": "Ordinaire", "type": "restaurant", "image": "https://dynamic-media-cdn.tripadvisor.com/media/photo-o/1b/3e/cc/a4/caption.jpg?w=1000&s=1", "address": "7-2-2 Kuroganecho 1F Marin Topia Kushiro, Kushiro 085-0018 Hokkaido", "lat": 42.985226, "lng": 144.38301, "ref_id": 4351993, "rating": 4.5, "num_reviews": 0, "website": null, "contact_phone": "+81 154-31-3622", "contact_email": null, "status": 1, "source_type": 1, "numberReviews": 9}, {"name": "Maizuru", "type": "restaurant", "image": "https://dynamic-media-cdn.tripadvisor.com/media/photo-o/0f/cd/13/f6/caption.jpg?w=1000&s=1", "address": "4-28 Nusamaicho 9F Kushiro City Shogai Gakushu Center Manabotto Nusamai, Kushiro 085-0836 Hokkaido", "lat": 42.978, "lng": 144.38603, "ref_id": 9778753, "rating": 4.5, "num_reviews": 0, "website": "http://www.kushiro-bunka.or.jp/manabo/restaurant.html", "contact_phone": "+81 154-44-4455", "contact_email": null, "status": 1, "source_type": 1, "numberReviews": 10}, {"name": "K", "type": "restaurant", "image": "https://dynamic-media-cdn.tripadvisor.com/media/photo-o/1d/b1/12/ea/caption.jpg?w=1000&s=1", "address": "3-1 Sakaemachi, Kushiro 085-0842 Hokkaido", "lat": 42.968838, "lng": 144.37317, "ref_id": 13049473, "rating": 4.5, "num_reviews": 0, "website": null, "contact_phone": "+81 154-24-7337", "contact_email": null, "status": 1, "source_type": 1, "numberReviews": 6}, {"name": "Matsuriya Kiba", "type": "restaurant", "image": "https://dynamic-media-cdn.tripadvisor.com/media/photo-o/1a/8f/5b/be/caption.jpg?w=1000&s=1", "address": "2-1-11 Kiba, Kushiro-cho, Kushiro-gun 088-0622 Hokkaido", "lat": 43.009853, "lng": 144.40855, "ref_id": 9842257, "rating": 4.5, "num_reviews": 0, "website": "http://kushiro-matsuriya.co.jp/shop-guide/", "contact_phone": "+81 50-5268-8008", "contact_email": null, "status": 1, "source_type": 1, "numberReviews": 8}, {"name": "Kushiromaru", "type": "restaurant", "image": "https://dynamic-media-cdn.tripadvisor.com/media/photo-o/2b/58/0d/58/caption.jpg?w=1000&s=1", "address": "3-1 Sakae-machi, Kushiro 085-0013 Hokkaido", "lat": 42.983494, "lng": 144.38757, "ref_id": 20170986, "rating": 5, "num_reviews": 0, "website": null, "contact_phone": "+81 154-65-7009", "contact_email": null, "status": 1, "source_type": 1, "numberReviews": 3}, {"name": "Ramen Jyunsui", "type": "restaurant", "image": "https://dynamic-media-cdn.tripadvisor.com/media/photo-o/05/a9/c4/c1/caption.jpg?w=1000&s=1", "address": "7-2-23 Harutori, Kushiro 085-0813 Hokkaido", "lat": 42.97835, "lng": 144.41296, "ref_id": 2291300, "rating": 4, "num_reviews": 0, "website": null, "contact_phone": "+81 154-46-2573", "contact_email": "", "status": 1, "source_type": 1, "numberReviews": 15}, {"name": "Ajinokomagataya", "type": "restaurant", "image": "https://dynamic-media-cdn.tripadvisor.com/media/photo-o/04/ad/5c/42/caption.jpg?w=1000&s=1", "address": "Sakaemachi, Kushiro Hokkaido", "lat": 42.985355, "lng": 144.3876, "ref_id": 1692802, "rating": 4, "num_reviews": 0, "website": null, "contact_phone": "+81 154-24-4658", "contact_email": "", "status": 1, "source_type": 1, "numberReviews": 14}, {"name": "Irohanihoheto Nusamaibashi", "type": "restaurant", "image": "https://dynamic-media-cdn.tripadvisor.com/media/photo-o/08/40/3c/5d/caption.jpg?w=1000&s=1", "address": "2-1-1 Suehirocho Roman-za Bldg. 1F, Kushiro 085-0014 Hokkaido", "lat": 42.982277, "lng": 144.3861, "ref_id": 6876715, "rating": 4, "num_reviews": 0, "website": "http://www.umai-iroha.jp/", "contact_phone": "+81 154-32-7713", "contact_email": null, "status": 1, "source_type": 1, "numberReviews": 13}, {"name": "Kodawari Tonkatsu Katsuzen Shinkawa", "type": "restaurant", "image": "https://dynamic-media-cdn.tripadvisor.com/media/photo-o/11/c8/bb/d7/caption.jpg?w=1000&s=1", "address": "15-13 Shinkawacho, Kushiro 085-0047 Hokkaido", "lat": 43.00164, "lng": 144.37285, "ref_id": 9935422, "rating": 5, "num_reviews": 0, "website": "http://www.mitsuboshi.net/katsuzen/", "contact_phone": "+81 154-23-1213", "contact_email": null, "status": 1, "source_type": 1, "numberReviews": 5}, {"name": "Rokkatei Kushiro Showa", "type": "restaurant", "image": "https://dynamic-media-cdn.tripadvisor.com/media/photo-o/0e/08/0b/bc/photo0jpg.jpg?w=1000&s=1", "address": "4-18-1 Showa Aeon Mall Kushiro Showa 1F, Kushiro 084-0902 Hokkaido", "lat": 43.025856, "lng": 144.35887, "ref_id": 10648317, "rating": 4.5, "num_reviews": 0, "website": null, "contact_phone": "+81 154-53-6666", "contact_email": null, "status": 1, "source_type": 1, "numberReviews": 6}, {"name": "Food and Drink Fukube", "type": "restaurant", "image": "https://dynamic-media-cdn.tripadvisor.com/media/photo-o/05/d7/15/a3/food-and-drink-fukube.jpg?w=1000&s=1", "address": "3-5 Suehirocho, Kushiro 085-0014 Hokkaido", "lat": 42.98364, "lng": 144.38658, "ref_id": 6063398, "rating": 4, "num_reviews": 0, "website": "http://fukube.co.jp", "contact_phone": "+81 154-23-6104", "contact_email": null, "status": 1, "source_type": 1, "numberReviews": 18}, {"name": "Kushiro Bango-Ya", "type": "restaurant", "image": "https://dynamic-media-cdn.tripadvisor.com/media/photo-o/18/68/52/ef/dsc-2542-largejpg.jpg?w=1000&s=1", "address": "4-9 Suehirocho Fuji Bldg. 1F, Kushiro 085-0014 Hokkaido", "lat": 42.98411, "lng": 144.38663, "ref_id": 9938271, "rating": 4, "num_reviews": 0, "website": null, "contact_phone": "+81 154-25-0033", "contact_email": null, "status": 1, "source_type": 1, "numberReviews": 10}, {"name": "Fisherman's Warf Moo Smoke House", "type": "restaurant", "image": "https://dynamic-media-cdn.tripadvisor.com/media/photo-o/0f/9b/70/5b/moo.jpg?w=1000&s=1", "address": "2-4 Nishikicho Fisherman's Wharf Moo 1F, Kushiro 085-0016 Hokkaido", "lat": 42.981705, "lng": 144.38339, "ref_id": 9946225, "rating": 4, "num_reviews": 0, "website": null, "contact_phone": "+81 154-23-0361", "contact_email": null, "status": 1, "source_type": 1, "numberReviews": 12}, {"name": "Azumaya", "type": "restaurant", "image": "https://dynamic-media-cdn.tripadvisor.com/media/photo-o/1c/12/c7/6e/caption.jpg?w=1000&s=1", "address": "1-9-12 Shiroyama, Kushiro Hokkaido", "lat": 42.982616, "lng": 144.39444, "ref_id": 1692645, "rating": 4, "num_reviews": 0, "website": null, "contact_phone": "+81 154-41-5360", "contact_email": "", "status": 1, "source_type": 1, "numberReviews": 9}, {"name": "Bistarai Bistarai Kushiro", "type": "restaurant", "image": "https://dynamic-media-cdn.tripadvisor.com/media/photo-o/1a/9b/00/5b/caption.jpg?w=1000&s=1", "address": "3-4-7 Tottorio-Dori, Kushiro 084-0906 Hokkaido", "lat": 43.01193, "lng": 144.35767, "ref_id": 9965379, "rating": 4, "num_reviews": 0, "website": "http://bistaraibistarai.co.jp/", "contact_phone": "+81 154-53-9766", "contact_email": null, "status": 1, "source_type": 1, "numberReviews": 5}, {"name": "Masumi", "type": "restaurant", "image": "https://dynamic-media-cdn.tripadvisor.com/media/photo-o/09/b7/2e/18/caption.jpg?w=1000&s=1", "address": "Fubushinai, Akancho, Kushiro 085-0222 Hokkaido", "lat": 43.183765, "lng": 144.0873, "ref_id": 8493939, "rating": 4.5, "num_reviews": 0, "website": null, "contact_phone": "+81 154-69-2002", "contact_email": null, "status": 1, "source_type": 1, "numberReviews": 7}, {"name": "Ajinoryogoku Sohonten", "type": "restaurant", "image": "https://dynamic-media-cdn.tripadvisor.com/media/photo-o/0a/50/f6/39/dscn9380-largejpg.jpg?w=1000&s=1", "address": "2-1-3 Akanko Onsen, Akancho, Kushiro 085-0467 Hokkaido", "lat": 43.432713, "lng": 144.1, "ref_id": 3342969, "rating": 3.5, "num_reviews": 0, "website": null, "contact_phone": "+81 154-67-2773", "contact_email": null, "status": 1, "source_type": 1, "numberReviews": 14}, {"name": "Rokka-Tei Harutori-Ten Kissa-Shitsu", "type": "restaurant", "image": "https://dynamic-media-cdn.tripadvisor.com/media/photo-o/0d/27/f1/ff/caption.jpg?w=1000&s=1", "address": "3-19-1 Harutori, Kushiro 085-0813 Hokkaido", "lat": 42.973972, "lng": 144.4121, "ref_id": 9926653, "rating": 4, "num_reviews": 0, "website": "http://www.rokkatei.co.jp/shop/kushiro/", "contact_phone": "+81 120-126-666", "contact_email": null, "status": 1, "source_type": 1, "numberReviews": 11}, {"name": "Inagaki", "type": "restaurant", "image": "https://dynamic-media-cdn.tripadvisor.com/media/photo-o/16/36/8b/41/dsc-9775-largejpg.jpg?w=1000&s=1", "address": "4-1-1 Kawakamicho, Kushiro 085-0012 Hokkaido", "lat": 42.984177, "lng": 144.38882, "ref_id": 8866471, "rating": 4, "num_reviews": 0, "website": null, "contact_phone": "+81 154-31-3733", "contact_email": null, "status": 1, "source_type": 1, "numberReviews": 6}, {"name": "Chikuhan", "type": "restaurant", "image": "https://dynamic-media-cdn.tripadvisor.com/media/photo-o/0c/75/c7/f7/caption.jpg?w=1000&s=1", "address": "Kitaodori, Kushiro Hokkaido", "lat": 42.98274, "lng": 144.38446, "ref_id": 1692805, "rating": 4, "num_reviews": 0, "website": "http://tikuhan.ftw.jp/", "contact_phone": "+81 154-25-5151", "contact_email": "", "status": 1, "source_type": 1, "numberReviews": 9}, {"name": "Kitaodori Azumaya", "type": "restaurant", "image": "https://dynamic-media-cdn.tripadvisor.com/media/photo-o/1a/2f/c2/b0/caption.jpg?w=1000&s=1", "address": "4-3 Kitaodori, Kushiro 085-0015 Hokkaido", "lat": 42.983868, "lng": 144.38504, "ref_id": 9683446, "rating": 4, "num_reviews": 0, "website": "http://blog.livedoor.jp/azumaya_kitaodori", "contact_phone": "+81 154-23-9391", "contact_email": null, "status": 1, "source_type": 1, "numberReviews": 8}, {"name": "Enshuzushi", "type": "restaurant", "image": null, "address": "12-2 Nopporocho, Ebetsu 069-0813 Hokkaido", "lat": 43.09439, "lng": 141.52473, "ref_id": 9676679, "rating": -1, "num_reviews": 0, "website": null, "contact_phone": "+81 11-383-9777", "contact_email": null, "status": 1, "source_type": 1, "numberReviews": 0}, {"name": "Sobadokoro Furen", "type": "restaurant", "image": null, "address": "2 Higashi Sapporo Sanjo, Shiroishi-Ku Daiei Higashi Sapporo, Sapporo 003-0003 Hokkaido", "lat": 43.05272, "lng": 141.3849, "ref_id": 9904081, "rating": -1, "num_reviews": 0, "website": null, "contact_phone": "+81 11-822-2724", "contact_email": null, "status": 1, "source_type": 1, "numberReviews": 0}, {"name": "Yakitori Ippuku", "type": "restaurant", "image": null, "address": "4-2-35 Satozuka Nijo, Kiyota-Ku, Sapporo 004-0802 Hokkaido", "lat": 42.98387, "lng": 141.46445, "ref_id": 9893876, "rating": -1, "num_reviews": 0, "website": null, "contact_phone": "+81 11-887-1129", "contact_email": null, "status": 1, "source_type": 1, "numberReviews": 0}, {"name": "Sakura Cafe", "type": "restaurant", "image": null, "address": "5 HigashikuKita 42 Johigashi 16-1, Higashi-Ku Daiei Sakaemachi Shop 1F, Sapporo 007-0842 Hokkaido", "lat": 43.114033, "lng": 141.36758, "ref_id": 14742376, "rating": -1, "num_reviews": 0, "website": null, "contact_phone": "+81 11-786-6416", "contact_email": null, "status": 1, "source_type": 1, "numberReviews": 0}, {"name": "Sapporo Electronics Center Dininig Room", "type": "restaurant", "image": null, "address": "1-1-10 Atsubetsu District ShitaNopporo Techno Park, Atsubetsu-Ku Sapporo Electronics Center 1F, Sapporo 004-0015 Hokkaido", "lat": 43.03199, "lng": 141.50322, "ref_id": 14742284, "rating": -1, "num_reviews": 0, "website": null, "contact_phone": "+81 11-807-6315", "contact_email": null, "status": 1, "source_type": 1, "numberReviews": 0}, {"name": "Tabenomi-Dokoro Sato", "type": "restaurant", "image": null, "address": "1-8-1 Omagari Midorigaoka, Kitahiroshima 061-1276 Hokkaido", "lat": 42.977036, "lng": 141.48116, "ref_id": 9908197, "rating": -1, "num_reviews": 0, "website": null, "contact_phone": "+81 11-377-2755", "contact_email": null, "status": 1, "source_type": 1, "numberReviews": 0}, {"name": "Men Koiya", "type": "restaurant", "image": null, "address": "13-48 Oasa Higashimachi Ebetsuko 1F, Ebetsu 069-0852 Hokkaido", "lat": 43.0794, "lng": 141.4983, "ref_id": 9942694, "rating": -1, "num_reviews": 0, "website": null, "contact_phone": "+81 11-398-9684", "contact_email": null, "status": 1, "source_type": 1, "numberReviews": 0}, {"name": "Rest Fan Shiraishi", "type": "restaurant", "image": null, "address": "1-1 Shiroishi-Ku Hondori 9-North, Sapporo 003-0027 Hokkaido", "lat": 43.044262, "lng": 141.4193, "ref_id": 13049941, "rating": -1, "num_reviews": 0, "website": null, "contact_phone": "+81 11-862-7745", "contact_email": null, "status": 1, "source_type": 1, "numberReviews": 0}, {"name": "Sushi Itcho Ebetsu", "type": "restaurant", "image": null, "address": "13-11 Yumemino Minamicho, Ebetsu 067-0066 Hokkaido", "lat": 43.09918, "lng": 141.5573, "ref_id": 13242810, "rating": -1, "num_reviews": 0, "website": null, "contact_phone": "+81 120-534-345", "contact_email": null, "status": 1, "source_type": 1, "numberReviews": 0}, {"name": "Koryori Kakashi", "type": "restaurant", "image": null, "address": "Kita-19-Jo Higashi-8, Higashi-Ku Hokushin Kaikan 1F, Sapporo 065-0019 Hokkaido", "lat": 43.086025, "lng": 141.36266, "ref_id": 9936752, "rating": -1, "num_reviews": 0, "website": null, "contact_phone": "+81 11-743-3434", "contact_email": null, "status": 1, "source_type": 1, "numberReviews": 0}, {"name": "Beijing Kitchen Kyohanaro", "type": "restaurant", "image": null, "address": "15-1-1 Kita Sanjuichijo Higashi, Higashi-Ku Aeon Sapporo Motomachi Shopping Center 3F, Sapporo 065-0031 Hokkaido", "lat": 43.101803, "lng": 141.36795, "ref_id": 10648371, "rating": -1, "num_reviews": 0, "website": null, "contact_phone": "+81 11-748-3393", "contact_email": null, "status": 1, "source_type": 1, "numberReviews": 0}, {"name": "Shubo Komon", "type": "restaurant", "image": null, "address": "1-8 Hondori 3 Minami, Shiroishi-Ku, Sapporo 003-0026 Hokkaido", "lat": 43.049423, "lng": 141.40663, "ref_id": 9902897, "rating": -1, "num_reviews": 0, "website": null, "contact_phone": "+81 11-846-4040", "contact_email": null, "status": 1, "source_type": 1, "numberReviews": 0}, {"name": "Ichiriki", "type": "restaurant", "image": null, "address": "15-4-7 Kita Nijujo Higashi, Higashi-Ku, Sapporo 065-0020 Hokkaido", "lat": 43.08937, "lng": 141.37225, "ref_id": 14743626, "rating": -1, "num_reviews": 0, "website": null, "contact_phone": "+81 11-752-7066", "contact_email": null, "status": 1, "source_type": 1, "numberReviews": 0}, {"name": "Yakitori Boy", "type": "restaurant", "image": null, "address": "14-4-8 Kita 33-Jo Higashi, Higashi-Ku, Sapporo 065-0033 Hokkaido", "lat": 43.1039, "lng": 141.3663, "ref_id": 9893612, "rating": -1, "num_reviews": 0, "website": null, "contact_phone": "+81 11-721-8194", "contact_email": null, "status": 1, "source_type": 1, "numberReviews": 0}, {"name": "Jidoritei Jin", "type": "restaurant", "image": null, "address": "6-1-17 Higashisapporo 5 Jo, Shiroishi-Ku, Sapporo 003-0005 Hokkaido", "lat": 43.04773, "lng": 141.39691, "ref_id": 14742252, "rating": -1, "num_reviews": 0, "website": null, "contact_phone": "+81 11-850-9629", "contact_email": null, "status": 1, "source_type": 1, "numberReviews": 0}, {"name": "Tsubohachi Tobetsu", "type": "restaurant", "image": null, "address": "55 Sonoo, Tobetsu-cho, Ishikari-gun 061-0227 Hokkaido", "lat": 43.22178, "lng": 141.51755, "ref_id": 10018795, "rating": -1, "num_reviews": 0, "website": null, "contact_phone": "+81 133-22-2877", "contact_email": null, "status": 1, "source_type": 1, "numberReviews": 0}, {"name": "Sosaku Cuisine Neee Neee", "type": "restaurant", "image": null, "address": "5 Oyachi Higashi, Atsubetsu-Ku Dai-2 Hokuho Heights 1F, Sapporo 004-0041 Hokkaido", "lat": 43.024, "lng": 141.45746, "ref_id": 9904478, "rating": -1, "num_reviews": 0, "website": null, "contact_phone": "+81 11-303-8988", "contact_email": null, "status": 1, "source_type": 1, "numberReviews": 0}, {"name": "KON GARI", "type": "restaurant", "image": null, "address": "12-2-19 Kitajurokujohigashi,Higashi-ku Garbo 1F, Sapporo 065-0016 Hokkaido", "lat": 43.082752, "lng": 141.36844, "ref_id": 20498455, "rating": -1, "num_reviews": 0, "website": null, "contact_phone": "+81 11-214-9477", "contact_email": null, "status": 1, "source_type": 1, "numberReviews": 0}, {"name": "Cafe & Izakaya Yururi", "type": "restaurant", "image": null, "address": "39-4 Makibacho, Ebetsu 067-0005 Hokkaido", "lat": 43.110596, "lng": 141.53389, "ref_id": 15016038, "rating": -1, "num_reviews": 0, "website": null, "contact_phone": null, "contact_email": null, "status": 1, "source_type": 1, "numberReviews": 0}, {"name": "Yakitori Kuruma-Ya", "type": "restaurant", "image": null, "address": "1-4-12 Asahimachi, Kitahiroshima 061-1123 Hokkaido", "lat": 42.986748, "lng": 141.56938, "ref_id": 9894007, "rating": -1, "num_reviews": 0, "website": null, "contact_phone": "+81 11-372-3616", "contact_email": null, "status": 1, "source_type": 1, "numberReviews": 0}, {"name": "Shokudo Kiki Rara", "type": "restaurant", "image": null, "address": "18-6-20 Sakaedori, Shiroishi-Ku Soma Bldg. 1F, Sapporo 003-0021 Hokkaido", "lat": 43.02652, "lng": 141.43388, "ref_id": 9902278, "rating": -1, "num_reviews": 0, "website": null, "contact_phone": "+81 11-376-5234", "contact_email": null, "status": 1, "source_type": 1, "numberReviews": 0}, {"name": "Seafood House, Waza", "type": "restaurant", "image": null, "address": "4-8-10 Atsubetsu Nishi Yonjo, Atsubetsu-Ku, Sapporo 004-0064 Hokkaido", "lat": 43.05414, "lng": 141.46506, "ref_id": 9899542, "rating": -1, "num_reviews": 0, "website": null, "contact_phone": "+81 11-893-8124", "contact_email": null, "status": 1, "source_type": 1, "numberReviews": 0}, {"name": "Shunsai Toridori", "type": "restaurant", "image": null, "address": "13-1-17 Toyohira Sanjo, Toyohira-Ku, Sapporo 062-0903 Hokkaido", "lat": 43.045307, "lng": 141.38246, "ref_id": 9903281, "rating": -1, "num_reviews": 0, "website": null, "contact_phone": "+81 11-831-8722", "contact_email": null, "status": 1, "source_type": 1, "numberReviews": 0}, {"name": "Ramen Shop Suezo", "type": "restaurant", "image": null, "address": "6-700-126 Atsubetsunishi 4-Jo, Atsubetsu-Ku, Sapporo 004-0064 Hokkaido", "lat": 43.053524, "lng": 141.46936, "ref_id": 6520408, "rating": -1, "num_reviews": 0, "website": null, "contact_phone": "+81 11-896-7510", "contact_email": null, "status": 1, "source_type": 1, "numberReviews": 0}, {"name": "Sukiya Sapporo Kitago", "type": "restaurant", "image": null, "address": "8-1-1 Kitago 3Jo, Shiroishi-Ku, Sapporo 003-0833 Hokkaido", "lat": 43.05285, "lng": 141.42471, "ref_id": 17843793, "rating": -1, "num_reviews": 0, "website": null, "contact_phone": "+81 120-498-007", "contact_email": null, "status": 1, "source_type": 1, "numberReviews": 0}, {"name": "Yashima", "type": "restaurant", "image": null, "address": "1-4 Higashi 5jo, Minamimachi, Obihiro 080-0855 Hokkaido", "lat": 42.91645, "lng": 143.1846, "ref_id": 9626659, "rating": -1, "num_reviews": 0, "website": null, "contact_phone": "+81 155-47-1233", "contact_email": null, "status": 1, "source_type": 1, "numberReviews": 0}, {"name": "Cabin Cafe & Ramen", "type": "restaurant", "image": null, "address": "17 Nishi 2-16-27 Jo Kita, Obihiro 080-0047 Hokkaido", "lat": 42.93466, "lng": 143.16788, "ref_id": 9966650, "rating": -1, "num_reviews": 0, "website": null, "contact_phone": "+81 155-35-8828", "contact_email": null, "status": 1, "source_type": 1, "numberReviews": 0}, {"name": "Tsuki", "type": "restaurant", "image": null, "address": "9-3-2 Odoriminami, Obihiro 080-0010 Hokkaido", "lat": 42.922474, "lng": 143.20464, "ref_id": 9617882, "rating": -1, "num_reviews": 0, "website": null, "contact_phone": "+81 155-26-4550", "contact_email": null, "status": 1, "source_type": 1, "numberReviews": 0}, {"name": "Champa", "type": "restaurant", "image": null, "address": "8-11 o-Dori Minami Eight Gai, Obihiro 080-0010 Hokkaido", "lat": 42.923264, "lng": 143.20451, "ref_id": 9641143, "rating": -1, "num_reviews": 0, "website": null, "contact_phone": "+81 155-22-2323", "contact_email": null, "status": 1, "source_type": 1, "numberReviews": 0}, {"name": "Kushi Kura", "type": "restaurant", "image": null, "address": "4-24-18 Nishi 19-jo Minami, Obihiro 080-2469 Hokkaido", "lat": 42.90879, "lng": 143.15524, "ref_id": 9937930, "rating": -1, "num_reviews": 0, "website": null, "contact_phone": "+81 155-34-5034", "contact_email": null, "status": 1, "source_type": 1, "numberReviews": 0}, {"name": "Matsumura Shoten", "type": "restaurant", "image": null, "address": "361-2 Satsunai Chuomachi, Makubetsu-cho, Nakagawa-gun 089-0543 Hokkaido", "lat": 42.915424, "lng": 143.25804, "ref_id": 10016887, "rating": -1, "num_reviews": 0, "website": null, "contact_phone": "+81 155-56-6383", "contact_email": null, "status": 1, "source_type": 1, "numberReviews": 0}, {"name": "Dione", "type": "restaurant", "image": null, "address": "18 Nishi 5-31-1 Jo Minami, Obihiro 080-0028 Hokkaido", "lat": 42.908783, "lng": 143.16551, "ref_id": 9943949, "rating": -1, "num_reviews": 0, "website": null, "contact_phone": "+81 155-67-4776", "contact_email": null, "status": 1, "source_type": 1, "numberReviews": 0}, {"name": "Sanpei Ramen Hayashi", "type": "restaurant", "image": null, "address": "18 Nishi 5-32-12 Jo Minami, Obihiro 080-0028 Hokkaido", "lat": 42.908634, "lng": 143.16408, "ref_id": 9898690, "rating": -1, "num_reviews": 0, "website": null, "contact_phone": "+81 155-33-9420", "contact_email": null, "status": 1, "source_type": 1, "numberReviews": 0}, {"name": "Ramen Akira", "type": "restaurant", "image": null, "address": "32-1 Nishi 5 Jominami, Obihiro 080-0015 Hokkaido", "lat": 42.894417, "lng": 143.20119, "ref_id": 13049880, "rating": -1, "num_reviews": 0, "website": null, "contact_phone": "+81 155-48-8686", "contact_email": null, "status": 1, "source_type": 1, "numberReviews": 0}, {"name": "Asuka", "type": "restaurant", "image": null, "address": "1 Nishi 18-18 Jo Minami, Obihiro 080-0011 Hokkaido", "lat": 42.91132, "lng": 143.20578, "ref_id": 9961990, "rating": -1, "num_reviews": 0, "website": null, "contact_phone": "+81 155-22-2888", "contact_email": null, "status": 1, "source_type": 1, "numberReviews": 0}, {"name": "Kikirin", "type": "restaurant", "image": null, "address": "6 Nishi 4-12-5 Jo Minami, Obihiro 080-0016 Hokkaido", "lat": 42.927223, "lng": 143.1952, "ref_id": 9933511, "rating": -1, "num_reviews": 0, "website": null, "contact_phone": "+81 155-23-6506", "contact_email": null, "status": 1, "source_type": 1, "numberReviews": 0}, {"name": "Loincloth Museum Cafe", "type": "restaurant", "image": null, "address": "12-17-3 Higashi 6-2-8 Jo Minami, Obihiro 080-0802 Hokkaido", "lat": 42.918533, "lng": 143.2083, "ref_id": 13259105, "rating": -1, "num_reviews": 0, "website": null, "contact_phone": "+81 155-22-4762", "contact_email": null, "status": 1, "source_type": 1, "numberReviews": 0}, {"name": "Pub Tm", "type": "restaurant", "image": null, "address": "11-1-1 Odori Minami, Obihiro 080-0010 Hokkaido", "lat": 42.92026, "lng": 143.20506, "ref_id": 14860341, "rating": -1, "num_reviews": 0, "website": null, "contact_phone": "+81 155-25-8710", "contact_email": null, "status": 1, "source_type": 1, "numberReviews": 0}, {"name": "Shinwa", "type": "restaurant", "image": null, "address": "3-43-10 Nishi 17Jo Minami, Obihiro 080-0027 Hokkaido", "lat": 42.915855, "lng": 143.16563, "ref_id": 13961409, "rating": -1, "num_reviews": 0, "website": null, "contact_phone": "+81 155-41-3183", "contact_email": null, "status": 1, "source_type": 1, "numberReviews": 0}, {"name": "Taimu Nishiobi", "type": "restaurant", "image": null, "address": "3-5-1 Nishiniju Ichijominami, Obihiro 080-2471 Hokkaido", "lat": 42.91288, "lng": 143.14401, "ref_id": 14743948, "rating": -1, "num_reviews": 0, "website": null, "contact_phone": "+81 155-29-2345", "contact_email": null, "status": 1, "source_type": 1, "numberReviews": 0}, {"name": "Ramen Gyoza Aoba", "type": "restaurant", "image": null, "address": "6-10 Satsunai Aobacho, Makubetsu-cho, Nakagawa-gun 089-0541 Hokkaido", "lat": 42.915382, "lng": 143.26543, "ref_id": 10017620, "rating": -1, "num_reviews": 0, "website": null, "contact_phone": "+81 155-56-7163", "contact_email": null, "status": 1, "source_type": 1, "numberReviews": 0}, {"name": "Okonomiyaki Fuji", "type": "restaurant", "image": null, "address": "2-20-2 Nishi 24-Jo Minami, Obihiro 080-2474 Hokkaido", "lat": 42.918472, "lng": 143.12354, "ref_id": 9920212, "rating": -1, "num_reviews": 0, "website": null, "contact_phone": "+81 155-37-3007", "contact_email": null, "status": 1, "source_type": 1, "numberReviews": 0}, {"name": "Mishokuya", "type": "restaurant", "image": null, "address": "22-2 Odori Minami, Obihiro 080-0010 Hokkaido", "lat": 42.907433, "lng": 143.20772, "ref_id": 13567303, "rating": -1, "num_reviews": 0, "website": null, "contact_phone": "+81 155-22-3658", "contact_email": null, "status": 1, "source_type": 1, "numberReviews": 0}, {"name": "Loisir", "type": "restaurant", "image": null, "address": "18-3 Nishi Juichijo Minami, Obihiro 080-0021 Hokkaido", "lat": 42.910397, "lng": 143.18983, "ref_id": 10652409, "rating": -1, "num_reviews": 0, "website": null, "contact_phone": "+81 155-22-3059", "contact_email": null, "status": 1, "source_type": 1, "numberReviews": 0}, {"name": "Kanpai", "type": "restaurant", "image": null, "address": "10-2 West 1 2, Memuro-cho, Kasai-gun 082-0031 Hokkaido", "lat": 42.911118, "lng": 143.04639, "ref_id": 19264745, "rating": -1, "num_reviews": 0, "website": null, "contact_phone": "+81 155-67-8818", "contact_email": null, "status": 1, "source_type": 1, "numberReviews": 0}, {"name": "Family Restaurant Irendo", "type": "restaurant", "image": null, "address": "10-1 8sen Nishi, Inadacho Minami, Obihiro 080-0831 Hokkaido", "lat": 42.88976, "lng": 143.19795, "ref_id": 13244854, "rating": -1, "num_reviews": 0, "website": null, "contact_phone": "+81 155-66-7145", "contact_email": null, "status": 1, "source_type": 1, "numberReviews": 0}, {"name": "Obanzai Shino", "type": "restaurant", "image": null, "address": "11-5-1 Odori Minami 11bangai Bldg, Obihiro 080-0010 Hokkaido", "lat": 42.920116, "lng": 143.2051, "ref_id": 9919198, "rating": -1, "num_reviews": 0, "website": null, "contact_phone": "+81 155-26-8161", "contact_email": null, "status": 1, "source_type": 1, "numberReviews": 0}, {"name": "Tokachi Meat Sakaba Sanzo", "type": "restaurant", "image": null, "address": "9-7-3 Nishi 1jo Minami, Obihiro 080-0011 Hokkaido", "lat": 42.922173, "lng": 143.20306, "ref_id": 17362281, "rating": -1, "num_reviews": 0, "website": null, "contact_phone": "+81 155-66-4629", "contact_email": null, "status": 1, "source_type": 1, "numberReviews": 0}, {"name": "Kushigo", "type": "restaurant", "image": null, "address": "2-5 Shirakaba16Jo Higashi, Obihiro 080-0050 Hokkaido", "lat": 42.91982, "lng": 143.17627, "ref_id": 14776306, "rating": -1, "num_reviews": 0, "website": null, "contact_phone": "+81 155-33-1300", "contact_email": null, "status": 1, "source_type": 1, "numberReviews": 0}, {"name": "Nadai Hitokuchi Chaya Nishi Obihiro Piazza Fukuhara", "type": "restaurant", "image": null, "address": "3-62-3 Nishi Nijusan-Jo Minami Piaza Fukuhara Nishi Obihiro 1F, Obihiro 080-2473 Hokkaido", "lat": 42.915688, "lng": 143.12524, "ref_id": 9916339, "rating": -1, "num_reviews": 0, "website": null, "contact_phone": "+81 155-37-6280", "contact_email": null, "status": 1, "source_type": 1, "numberReviews": 0}, {"name": "Yakiniku Suzuya", "type": "restaurant", "image": null, "address": "4-1-14 Nishi 13-Jo Kita, Obihiro 080-0043 Hokkaido", "lat": 42.935368, "lng": 143.18166, "ref_id": 9893385, "rating": -1, "num_reviews": 0, "website": null, "contact_phone": "+81 155-41-5554", "contact_email": null, "status": 1, "source_type": 1, "numberReviews": 0}, {"name": "Tokachi Sakaba Issin", "type": "restaurant", "image": null, "address": "3-1 West 1 Jo Nam 10 Tokachi nozoya 3-1Tokachinonagaya, Obihiro 080-0011 Hokkaido", "lat": 42.920933, "lng": 143.20424, "ref_id": 17181986, "rating": -1, "num_reviews": 0, "website": null, "contact_phone": "+81 155-22-7000", "contact_email": null, "status": 1, "source_type": 1, "numberReviews": 0}, {"name": "Butaniwatoricha", "type": "restaurant", "image": null, "address": "12-3 Nishi 4jo Minami, Obihiro 080-0014 Hokkaido", "lat": 42.91792, "lng": 143.19922, "ref_id": 13269168, "rating": -1, "num_reviews": 0, "website": null, "contact_phone": "+81 155-24-7815", "contact_email": null, "status": 1, "source_type": 1, "numberReviews": 0}, {"name": "Soba No Bunkichi", "type": "restaurant", "image": null, "address": "21-19-2 Nishi Nijo Minami, Obihiro 080-0012 Hokkaido", "lat": 42.90739, "lng": 143.20334, "ref_id": 9903912, "rating": -1, "num_reviews": 0, "website": null, "contact_phone": "+81 155-27-1166", "contact_email": null, "status": 1, "source_type": 1, "numberReviews": 0}, {"name": "Kame Sushi", "type": "restaurant", "image": null, "address": "5-23-12 Nishi 17 Jo Minami, Obihiro 080-0027 Hokkaido", "lat": 42.90768, "lng": 143.17087, "ref_id": 13137475, "rating": -1, "num_reviews": 0, "website": null, "contact_phone": "+81 155-34-1727", "contact_email": null, "status": 1, "source_type": 1, "numberReviews": 0}, {"name": "Restaurant Suimei", "type": "restaurant", "image": null, "address": "Shikotsukonsen, Chitose 066-0281 Hokkaido", "lat": 42.77406, "lng": 141.40544, "ref_id": 6072212, "rating": -1, "num_reviews": 0, "website": null, "contact_phone": "+81 123-25-2131", "contact_email": null, "status": 1, "source_type": 1, "numberReviews": 0}, {"name": "Sosaku Izakaya Leo", "type": "restaurant", "image": null, "address": "1-5 Saiwaicho 2f, Chitose 066-0063 Hokkaido", "lat": 42.822506, "lng": 141.64641, "ref_id": 9904501, "rating": -1, "num_reviews": 0, "website": null, "contact_phone": "+81 123-29-3686", "contact_email": null, "status": 1, "source_type": 1, "numberReviews": 0}, {"name": "Yakitoriganchan", "type": "restaurant", "image": null, "address": "65 Sakaemachi, Eniwa 061-1443 Hokkaido", "lat": 42.879375, "lng": 141.58047, "ref_id": 13050339, "rating": -1, "num_reviews": 0, "website": null, "contact_phone": "+81 123-32-3433", "contact_email": null, "status": 1, "source_type": 1, "numberReviews": 0}, {"name": "Snack Noble Man", "type": "restaurant", "image": null, "address": "2 Shimizucho, Chitose 066-0041 Hokkaido", "lat": 42.822334, "lng": 141.64737, "ref_id": 13260453, "rating": -1, "num_reviews": 0, "website": null, "contact_phone": "+81 123-42-7277", "contact_email": null, "status": 1, "source_type": 1, "numberReviews": 0}, {"name": "Homemade Buckwheat Matsuki", "type": "restaurant", "image": null, "address": "1-15-4 Fukuzumi-Cho, Eniwa 061-1447 Hokkaido", "lat": 42.88582, "lng": 141.57716, "ref_id": 13049287, "rating": -1, "num_reviews": 0, "website": null, "contact_phone": "+81 123-34-3480", "contact_email": null, "status": 1, "source_type": 1, "numberReviews": 0}, {"name": "Uchiwa", "type": "restaurant", "image": null, "address": "2-10 Shimizucho, Chitose 066-0041 Hokkaido", "lat": 42.821987, "lng": 141.6481, "ref_id": 9889603, "rating": -1, "num_reviews": 0, "website": null, "contact_phone": "+81 123-42-7833", "contact_email": null, "status": 1, "source_type": 1, "numberReviews": 0}, {"name": "Nagomiya Den", "type": "restaurant", "image": null, "address": "5-1-2 Saiwaicho, Chitose 066-0063 Hokkaido", "lat": 42.82478, "lng": 141.65039, "ref_id": 14743654, "rating": -1, "num_reviews": 0, "website": null, "contact_phone": "+81 123-49-6075", "contact_email": null, "status": 1, "source_type": 1, "numberReviews": 0}, {"name": "Kozosushi Chitose Branch", "type": "restaurant", "image": null, "address": "2-31-10 Hokuei, Chitose 066-0036 Hokkaido", "lat": 42.834095, "lng": 141.64291, "ref_id": 13049557, "rating": -1, "num_reviews": 0, "website": null, "contact_phone": "+81 123-27-2778", "contact_email": null, "status": 1, "source_type": 1, "numberReviews": 0}, {"name": "Bar Choiwaru Oyaji", "type": "restaurant", "image": null, "address": "120 Sakaemachi, Eniwa 061-1443 Hokkaido", "lat": 42.88026, "lng": 141.5789, "ref_id": 14743392, "rating": -1, "num_reviews": 0, "website": null, "contact_phone": "+81 123-34-3055", "contact_email": null, "status": 1, "source_type": 1, "numberReviews": 0}, {"name": "Kuraunmen Tarou", "type": "restaurant", "image": null, "address": "5-13-14 Jiyugaoka, Chitose 066-0072 Hokkaido", "lat": 42.84008, "lng": 141.61629, "ref_id": 9671187, "rating": -1, "num_reviews": 0, "website": null, "contact_phone": "+81 123-24-1024", "contact_email": null, "status": 1, "source_type": 1, "numberReviews": 0}, {"name": "Tandoori Chicken Asa Eniwa", "type": "restaurant", "image": null, "address": "109-3 Sakaecho, Eniwa 061-1443 Hokkaido", "lat": 42.879635, "lng": 141.5792, "ref_id": 20813834, "rating": -1, "num_reviews": 0, "website": null, "contact_phone": "+81 123-33-7802", "contact_email": null, "status": 1, "source_type": 1, "numberReviews": 0}, {"name": "Darts Bar Queen's Eye", "type": "restaurant", "image": null, "address": "38 Sakaemachi Sato Bldg. 2F-B, Eniwa 061-1443 Hokkaido", "lat": 42.879932, "lng": 141.57983, "ref_id": 9943167, "rating": -1, "num_reviews": 0, "website": null, "contact_phone": "+81 123-34-9500", "contact_email": null, "status": 1, "source_type": 1, "numberReviews": 0}, {"name": "Shokusai", "type": "restaurant", "image": "https://dynamic-media-cdn.tripadvisor.com/media/photo-o/0a/ec/d9/f4/caption.jpg?w=1000&s=1", "address": "919 Motonopporo, Ebetsu 069-0805 Hokkaido", "lat": 43.10656, "lng": 141.50299, "ref_id": 8675003, "rating": 4, "num_reviews": 0, "website": "http://ebetsuart.net", "contact_phone": "+81 11-802-6688", "contact_email": null, "status": 1, "source_type": 1, "numberReviews": 3}, {"name": "K-TYs CAFE", "type": "restaurant", "image": "https://dynamic-media-cdn.tripadvisor.com/media/photo-o/12/dc/77/4c/photo1jpg.jpg?w=1000&s=1", "address": "5-3-7 Chuo 4-Jo, Atsubetsu, Atsubetsu-Ku, Sapporo 004-0054 Hokkaido", "lat": 43.044876, "lng": 141.4707, "ref_id": 13241835, "rating": 4.5, "num_reviews": 0, "website": "http://k-tyscafe.shopinfo.jp", "contact_phone": "+81 11-375-7223", "contact_email": "k-tys@kind.ocn.ne.jp", "status": 1, "source_type": 1, "numberReviews": 3}, {"name": "Tonden Atsubetsu", "type": "restaurant", "image": "https://dynamic-media-cdn.tripadvisor.com/media/photo-o/10/7e/0e/e7/caption.jpg?w=1000&s=1", "address": "4 Atsubetsuchuo 2-Jo, Atsubetsu-Ku, Sapporo 004-0052 Hokkaido", "lat": 43.037415, "lng": 141.4659, "ref_id": 9639617, "rating": 3.5, "num_reviews": 0, "website": "http://www.tonden.co.jp/shopsearch/hokkaido/atsubetsu/", "contact_phone": "+81 11-893-3355", "contact_email": null, "status": 1, "source_type": 1, "numberReviews": 9}, {"name": "Otaru Narutoya Shin Sapporo Qualite Prix", "type": "restaurant", "image": null, "address": "5-7-3 Atsubetsu Chuo 2Jo, Atsubetsu-ku, Sapporo 004-0052 Hokkaido", "lat": 43.037434, "lng": 141.47295, "ref_id": 13958070, "rating": 4, "num_reviews": 0, "website": "http://www.naruto-ya.com/", "contact_phone": "+81 11-890-1129", "contact_email": null, "status": 1, "source_type": 1, "numberReviews": 3}, {"name": "Shinsapporo Bar Uno", "type": "restaurant", "image": "https://dynamic-media-cdn.tripadvisor.com/media/photo-o/0d/fd/4a/d2/spanish-tortilla-and.jpg?w=1000&s=1", "address": "5-6-1 Atsubetsu Chuo 2 Jo, Atsubetsu-ku, Sapporo Hokkaido", "lat": 43.038567, "lng": 141.47263, "ref_id": 3843849, "rating": 3.5, "num_reviews": 0, "website": null, "contact_phone": "+81 11-895-0008", "contact_email": null, "status": 1, "source_type": 1, "numberReviews": 11}, {"name": "Jiyujinsha Jikan", "type": "restaurant", "image": "https://dynamic-media-cdn.tripadvisor.com/media/photo-o/13/53/4a/24/caption.jpg?w=1000&s=1", "address": "11-31 Bunkyodai Higashimachi Oasa Minami Bldg. 1F, Ebetsu 069-0834 Hokkaido", "lat": 43.07176, "lng": 141.4971, "ref_id": 6867275, "rating": 3.5, "num_reviews": 0, "website": "http://www.jikan.co.jp", "contact_phone": "+81 11-386-9968", "contact_email": null, "status": 1, "source_type": 1, "numberReviews": 14}, {"name": "Katsuten Duo Shin-Sapporo", "type": "restaurant", "image": "https://dynamic-media-cdn.tripadvisor.com/media/photo-o/16/7e/b2/d4/599.jpg?w=1000&s=1", "address": "5-6-2 Atsubetsu Chuo Nijo, Atsubetsu-Ku Shin Sapporo Duo, Sapporo 004-0052 Hokkaido", "lat": 43.038925, "lng": 141.47244, "ref_id": 10645820, "rating": 3.5, "num_reviews": 0, "website": null, "contact_phone": "+81 11-890-2530", "contact_email": null, "status": 1, "source_type": 1, "numberReviews": 8}, {"name": "Tama Shinsapporo", "type": "restaurant", "image": null, "address": "5-2-35 Atsubetsuchuo 2-Jo, Atsubetsu-Ku, Sapporo 004-0052 Hokkaido", "lat": 43.03818, "lng": 141.47064, "ref_id": 6519077, "rating": 3.5, "num_reviews": 0, "website": "https://www.aix-group.co.jp/food/tama/shops/", "contact_phone": "+81 11-896-2929", "contact_email": null, "status": 1, "source_type": 1, "numberReviews": 7}, {"name": "Ramenkobushi", "type": "restaurant", "image": "https://dynamic-media-cdn.tripadvisor.com/media/photo-o/09/ed/dd/dd/caption.jpg?w=1000&s=1", "address": "Atsubetsunishi, Atsubetsuku, Sapporo 004-0068 Hokkaido", "lat": 43.055458, "lng": 141.4672, "ref_id": 1702016, "rating": 4, "num_reviews": 0, "website": null, "contact_phone": "+81 11-892-1477", "contact_email": "", "status": 1, "source_type": 1, "numberReviews": 5}, {"name": "Sunrise", "type": "restaurant", "image": "https://dynamic-media-cdn.tripadvisor.com/media/photo-o/1a/81/81/da/photo0jpg.jpg?w=1000&s=1", "address": "5-5-10 Atsubetsunishi 4-Jo, Atsubetsu-Ku, Sapporo 004-0064 Hokkaido", "lat": 43.054443, "lng": 141.4659, "ref_id": 19526546, "rating": 4.5, "num_reviews": 0, "website": "", "contact_phone": "+81 11-895-7550", "contact_email": null, "status": 1, "source_type": 1, "numberReviews": 2}, {"name": "Sushidokoro Hasegawa", "type": "restaurant", "image": "https://dynamic-media-cdn.tripadvisor.com/media/photo-o/07/a4/a9/dc/caption.jpg?w=1000&s=1", "address": "4-4-1 Atsubetsu Higashi 3 Jo, Atsubetsu-Ku, Sapporo 004-0003 Hokkaido", "lat": 43.046597, "lng": 141.4846, "ref_id": 7907560, "rating": 4, "num_reviews": 0, "website": null, "contact_phone": "+81 11-897-3155", "contact_email": null, "status": 1, "source_type": 1, "numberReviews": 4}, {"name": "Earth", "type": "restaurant", "image": "https://dynamic-media-cdn.tripadvisor.com/media/photo-o/11/b6/27/6a/photo1jpg.jpg?w=1000&s=1", "address": "1-74-24 Sakuraoka, Kuriyama-cho, Yubari-gun 069-1501 Hokkaido", "lat": 43.06454, "lng": 141.78227, "ref_id": 11868185, "rating": 4, "num_reviews": 0, "website": null, "contact_phone": "+81 123-72-3077", "contact_email": "myearth087@gmail.com", "status": 1, "source_type": 1, "numberReviews": 5}, {"name": "Nishiguchi Ekimae Shokudo", "type": "restaurant", "image": "https://dynamic-media-cdn.tripadvisor.com/media/photo-o/19/37/3f/db/caption.jpg?w=1000&s=1", "address": "3-22-5 Nakajimacho 1F Esta Bldg., Muroran 050-0074 Hokkaido", "lat": 42.34889, "lng": 141.02402, "ref_id": 18919929, "rating": 3, "num_reviews": 0, "website": null, "contact_phone": "+81 143-83-4070", "contact_email": null, "status": 1, "source_type": 1, "numberReviews": 5}, {"name": "Nakayoshi West Entrance Shiten", "type": "restaurant", "image": "https://dynamic-media-cdn.tripadvisor.com/media/photo-o/19/27/76/a0/caption.jpg?w=1000&s=1", "address": "3-24-15 Nakajimacho, Muroran 050-0074 Hokkaido", "lat": 42.349575, "lng": 141.02527, "ref_id": 9645726, "rating": 2.5, "num_reviews": 0, "website": null, "contact_phone": "+81 143-45-6320", "contact_email": null, "status": 1, "source_type": 1, "numberReviews": 2}, {"name": "Gohandoki, Muroran", "type": "restaurant", "image": "https://dynamic-media-cdn.tripadvisor.com/media/photo-o/08/4a/0f/63/caption.jpg?w=1000&s=1", "address": "1-12-3 Nakajimahoncho Maruhan Muroran, Muroran 050-0075 Hokkaido", "lat": 42.352673, "lng": 141.00563, "ref_id": 8325122, "rating": 1, "num_reviews": 0, "website": null, "contact_phone": "+81 143-42-3111", "contact_email": null, "status": 1, "source_type": 1, "numberReviews": 1}, {"name": "Yakitori No Ippei Manabitei", "type": "restaurant", "image": "https://dynamic-media-cdn.tripadvisor.com/media/photo-o/17/5a/fe/6c/good-service-and-taste.jpg?w=1000&s=1", "address": "5-6-17 Takasagocho, Muroran 050-0072 Hokkaido", "lat": 42.376316, "lng": 141.0348, "ref_id": 9623045, "rating": 3, "num_reviews": 0, "website": null, "contact_phone": "+81 143-41-0550", "contact_email": null, "status": 1, "source_type": 1, "numberReviews": 5}, {"name": "Kogane Soba Shop Shiomi", "type": "restaurant", "image": "https://dynamic-media-cdn.tripadvisor.com/media/photo-o/17/da/23/82/caption.jpg?w=1000&s=1", "address": "4-1-12 Higashimachi, Muroran 050-0083 Hokkaido", "lat": 42.34179, "lng": 141.0237, "ref_id": 9935509, "rating": 2, "num_reviews": 0, "website": null, "contact_phone": "+81 143-44-0155", "contact_email": null, "status": 1, "source_type": 1, "numberReviews": 2}, {"name": "Childcare", "type": "restaurant", "image": null, "address": "1-6-6 Motowa Nishicho, Muroran 050-0065 Hokkaido", "lat": 42.362488, "lng": 140.98074, "ref_id": 13259438, "rating": -1, "num_reviews": 0, "website": null, "contact_phone": "+81 143-55-3986", "contact_email": null, "status": 1, "source_type": 1, "numberReviews": 0}, {"name": "Teuchi Soba", "type": "restaurant", "image": "https://dynamic-media-cdn.tripadvisor.com/media/photo-o/1a/43/31/12/caption.jpg?w=1000&s=1", "address": "1-18 4 Chuocho, Noboribetsu 059-0012 Hokkaido", "lat": 42.41002, "lng": 141.10368, "ref_id": 19264801, "rating": -1, "num_reviews": 0, "website": null, "contact_phone": "+81 143-83-7758", "contact_email": null, "status": 1, "source_type": 1, "numberReviews": 0}, {"name": "Yellow Submarine", "type": "restaurant", "image": null, "address": "1-15-19 Masuichicho, Muroran 051-0034 Hokkaido", "lat": 42.32522, "lng": 140.95096, "ref_id": 9895412, "rating": -1, "num_reviews": 0, "website": null, "contact_phone": "+81 143-22-6254", "contact_email": null, "status": 1, "source_type": 1, "numberReviews": 0}, {"name": "Juju", "type": "restaurant", "image": null, "address": "2-13-1 Nakajimacho, Muroran 050-0074 Hokkaido", "lat": 42.35054, "lng": 141.01701, "ref_id": 9929742, "rating": -1, "num_reviews": 0, "website": null, "contact_phone": "+81 143-44-7530", "contact_email": null, "status": 1, "source_type": 1, "numberReviews": 0}, {"name": "Kinpachi", "type": "restaurant", "image": null, "address": "1-9-10 Nakajimacho, Muroran 050-0074 Hokkaido", "lat": 42.352016, "lng": 141.01407, "ref_id": 9933928, "rating": -1, "num_reviews": 0, "website": null, "contact_phone": "+81 143-43-3262", "contact_email": null, "status": 1, "source_type": 1, "numberReviews": 0}, {"name": "Kiraku", "type": "restaurant", "image": null, "address": "1-15-5 Nakajimacho, Muroran 050-0074 Hokkaido", "lat": 42.352608, "lng": 141.01564, "ref_id": 9934100, "rating": -1, "num_reviews": 0, "website": null, "contact_phone": "+81 143-44-8233", "contact_email": null, "status": 1, "source_type": 1, "numberReviews": 0}, {"name": "Restaurant Hakucho", "type": "restaurant", "image": null, "address": "293-1 Sakimoricho Muroran Golf Club 2F, Muroran 050-0055 Hokkaido", "lat": 42.384773, "lng": 140.955, "ref_id": 13049770, "rating": -1, "num_reviews": 0, "website": null, "contact_phone": "+81 143-84-6120", "contact_email": null, "status": 1, "source_type": 1, "numberReviews": 0}, {"name": "Yagura Zushi", "type": "restaurant", "image": null, "address": "1-9-20 Nakajimacho, Muroran 050-0074 Hokkaido", "lat": 42.35133, "lng": 141.013, "ref_id": 9892617, "rating": -1, "num_reviews": 0, "website": null, "contact_phone": "+81 143-44-0209", "contact_email": null, "status": 1, "source_type": 1, "numberReviews": 0}, {"name": "Naninani Confectionery Honten", "type": "restaurant", "image": null, "address": "1-38-5 Nakajimacho 1F, Muroran 050-0074 Hokkaido", "lat": 42.35397, "lng": 141.01538, "ref_id": 14743129, "rating": -1, "num_reviews": 0, "website": null, "contact_phone": "+81 143-83-6854", "contact_email": null, "status": 1, "source_type": 1, "numberReviews": 0}, {"name": "Aoba", "type": "restaurant", "image": null, "address": "1-19 Aobacho, Noboribetsu 059-0027 Hokkaido", "lat": 42.403873, "lng": 141.08646, "ref_id": 9665579, "rating": -1, "num_reviews": 0, "website": null, "contact_phone": "+81 143-88-0760", "contact_email": null, "status": 1, "source_type": 1, "numberReviews": 0}, {"name": "Donmai", "type": "restaurant", "image": null, "address": "3-19-12 Chuocho, Noboribetsu 059-0012 Hokkaido", "lat": 42.409412, "lng": 141.10365, "ref_id": 9641095, "rating": -1, "num_reviews": 0, "website": null, "contact_phone": "+81 143-88-1771", "contact_email": null, "status": 1, "source_type": 1, "numberReviews": 0}, {"name": "Nyukeshi", "type": "restaurant", "image": null, "address": "1-41-7 Takasagocho, Muroran 050-0072 Hokkaido", "lat": 42.359825, "lng": 141.04214, "ref_id": 13243936, "rating": -1, "num_reviews": 0, "website": null, "contact_phone": "+81 143-45-6356", "contact_email": null, "status": 1, "source_type": 1, "numberReviews": 0}, {"name": "Oichi", "type": "restaurant", "image": null, "address": "4-19-5 Higashimachi, Muroran 050-0083 Hokkaido", "lat": 42.34186, "lng": 141.025, "ref_id": 13265360, "rating": -1, "num_reviews": 0, "website": null, "contact_phone": "+81 143-45-1172", "contact_email": null, "status": 1, "source_type": 1, "numberReviews": 0}, {"name": "DesertTeriaBar Kankudo", "type": "restaurant", "image": null, "address": "1-15-7 Nakajimacho, Muroran 050-0074 Hokkaido", "lat": 42.35234, "lng": 141.0158, "ref_id": 17328508, "rating": -1, "num_reviews": 0, "website": "https://www.facebook.com/%E3%81%8B%E3%82%93%E3%81%8F%E5%A0%82-1316707038462761/", "contact_phone": "+81 143-47-8288", "contact_email": null, "status": 1, "source_type": 1, "numberReviews": 0}, {"name": "Ajidokoro Inaba", "type": "restaurant", "image": "https://dynamic-media-cdn.tripadvisor.com/media/photo-o/18/23/05/95/caption.jpg?w=1000&s=1", "address": "2-10-6 Shukuzucho, Muroran 051-0036 Hokkaido", "lat": 42.340237, "lng": 140.9496, "ref_id": 9959590, "rating": -1, "num_reviews": 0, "website": null, "contact_phone": "+81 143-27-1337", "contact_email": null, "status": 1, "source_type": 1, "numberReviews": 0}, {"name": "Aji No Daio Ramen Wanishi", "type": "restaurant", "image": null, "address": "1-18-2 Wanishicho, Muroran 050-0085 Hokkaido", "lat": 42.332664, "lng": 141.00854, "ref_id": 9683073, "rating": -1, "num_reviews": 0, "website": null, "contact_phone": "+81 143-44-8786", "contact_email": null, "status": 1, "source_type": 1, "numberReviews": 0}, {"name": "5Chome Tavern Shokichi", "type": "restaurant", "image": null, "address": "5-18-1 Takasagocho, Muroran 050-0072 Hokkaido", "lat": 42.37585, "lng": 141.03525, "ref_id": 14743125, "rating": -1, "num_reviews": 0, "website": null, "contact_phone": "+81 143-50-6979", "contact_email": null, "status": 1, "source_type": 1, "numberReviews": 0}, {"name": "Poppo Ya", "type": "restaurant", "image": "https://dynamic-media-cdn.tripadvisor.com/media/photo-o/1a/3c/97/70/caption.jpg?w=1000&s=1", "address": "3-23-8 Nakajimacho, Muroran 050-0074 Hokkaido", "lat": 42.34956, "lng": 141.02571, "ref_id": 13246196, "rating": -1, "num_reviews": 0, "website": null, "contact_phone": "+81 143-45-8685", "contact_email": null, "status": 1, "source_type": 1, "numberReviews": 0}, {"name": "Karaoke Tsubotchi Horobetsu", "type": "restaurant", "image": null, "address": "1-4 Chuocho, Noboribetsu 059-0012 Hokkaido", "lat": 42.411625, "lng": 141.1069, "ref_id": 13252908, "rating": -1, "num_reviews": 0, "website": null, "contact_phone": "+81 143-81-2828", "contact_email": null, "status": 1, "source_type": 1, "numberReviews": 0}, {"name": "Armin", "type": "restaurant", "image": null, "address": "1-34-4 Nakajimacho, Muroran 050-0074 Hokkaido", "lat": 42.352116, "lng": 141.01268, "ref_id": 9961486, "rating": -1, "num_reviews": 0, "website": null, "contact_phone": "+81 143-45-6668", "contact_email": null, "status": 1, "source_type": 1, "numberReviews": 0}, {"name": "Karaoke Snacks Kazu", "type": "restaurant", "image": null, "address": "Mother Love Kitamachi 2-4-6, Muroran 051-0004 Hokkaido", "lat": 42.314327, "lng": 140.99054, "ref_id": 20166231, "rating": -1, "num_reviews": 0, "website": null, "contact_phone": "+81 143-23-4600", "contact_email": null, "status": 1, "source_type": 1, "numberReviews": 0}, {"name": "Izakaya Shokudo Minori", "type": "restaurant", "image": null, "address": "2-16-10 Shinseicho, Noboribetsu 059-0032 Hokkaido", "lat": 42.379375, "lng": 141.06879, "ref_id": 14743191, "rating": -1, "num_reviews": 0, "website": null, "contact_phone": "+81 143-86-6700", "contact_email": null, "status": 1, "source_type": 1, "numberReviews": 0}, {"name": "Amusement Bar Ideal", "type": "restaurant", "image": null, "address": "1-17-17 Nakajimacho 2f, Muroran 050-0074 Hokkaido", "lat": 42.352642, "lng": 141.0161, "ref_id": 9960703, "rating": -1, "num_reviews": 0, "website": null, "contact_phone": "+81 143-83-6302", "contact_email": null, "status": 1, "source_type": 1, "numberReviews": 0}, {"name": "Kushihachi", "type": "restaurant", "image": null, "address": "2 Nishi 3-17-1 Jo Minami, Obihiro 080-0012 Hokkaido", "lat": 42.928493, "lng": 143.20094, "ref_id": 9938087, "rating": -1, "num_reviews": 0, "website": null, "contact_phone": "+81 155-25-5839", "contact_email": null, "status": 1, "source_type": 1, "numberReviews": 0}, {"name": "Miyoshi-Zushi", "type": "restaurant", "image": null, "address": "2-8-53 Nishi 24-Jo Minami, Obihiro 080-2474 Hokkaido", "lat": 42.920338, "lng": 143.12233, "ref_id": 9914530, "rating": -1, "num_reviews": 0, "website": null, "contact_phone": "+81 155-37-2400", "contact_email": null, "status": 1, "source_type": 1, "numberReviews": 0},