[{"name": "Chinese Restaurant Mikoen", "type": "restaurant", "image": "https://dynamic-media-cdn.tripadvisor.com/media/photo-o/0e/46/23/01/dsc-2631-largejpg.jpg?w=1000&s=1", "address": "3-12-36 Yatsu, Narashino Qu\u00e2\u0323n Chiba", "lat": 35.683258, "lng": 140.00656, "ref_id": 7572814, "rating": 4, "num_reviews": 0, "website": null, "contact_phone": "+81 47-451-2851", "contact_email": null, "status": 1, "source_type": 1, "numberReviews": 5}, {"name": "Toritetsu Funabashi Eki-Mae", "type": "restaurant", "image": "https://dynamic-media-cdn.tripadvisor.com/media/photo-o/10/11/d1/3e/dsc-3873-largejpg.jpg?w=1000&s=1", "address": "4-5-26 Honcho Funefuku Bldg. 2F, Funabashi 273-0005 Qu\u00e2\u0323n Chiba", "lat": 35.701244, "lng": 139.98714, "ref_id": 6066514, "rating": 4.5, "num_reviews": 0, "website": null, "contact_phone": "+81 47-460-0260", "contact_email": null, "status": 1, "source_type": 1, "numberReviews": 18}, {"name": "Agito Dining Cafe Bar", "type": "restaurant", "image": "https://dynamic-media-cdn.tripadvisor.com/media/photo-o/11/5a/d5/f1/photo0jpg.jpg?w=1000&s=1", "address": "609-3 Hongocho K2-House 2F, Funabashi 273-0033 Qu\u00e2\u0323n Chiba", "lat": 35.70821, "lng": 139.95139, "ref_id": 9959143, "rating": 4.5, "num_reviews": 0, "website": null, "contact_phone": "+81 47-334-7686", "contact_email": null, "status": 1, "source_type": 1, "numberReviews": 4}, {"name": "Rairaiken", "type": "restaurant", "image": "https://dynamic-media-cdn.tripadvisor.com/media/photo-o/18/33/b8/e5/caption.jpg?w=1000&s=1", "address": "1336-2 Amadocho Hanamigawa-Ku, Chiba 262-0043 Qu\u00e2\u0323n Chiba", "lat": 35.681644, "lng": 140.09462, "ref_id": 7416115, "rating": 4, "num_reviews": 0, "website": null, "contact_phone": "+81 43-250-2409", "contact_email": null, "status": 1, "source_type": 1, "numberReviews": 3}, {"name": "Nakau Nishi Funabashi Ekimae", "type": "restaurant", "image": "https://dynamic-media-cdn.tripadvisor.com/media/photo-o/18/22/28/2a/photo1jpg.jpg?w=1000&s=1", "address": "4-22-3 Nishifuna Hikka Hikari Bldg. 1 to 2F, Funabashi 273-0031 Qu\u00e2\u0323n Chiba", "lat": 35.708458, "lng": 139.95872, "ref_id": 17432237, "rating": 4, "num_reviews": 0, "website": "https://maps.nakau.co.jp/jp/detail/2378.html", "contact_phone": "+81 120-295-770", "contact_email": null, "status": 1, "source_type": 1, "numberReviews": 3}, {"name": "Shanghai Home Cuisine XieXie Funabashi Ekimae South Entrance", "type": "restaurant", "image": "https://dynamic-media-cdn.tripadvisor.com/media/photo-o/10/bd/cf/c1/dsc-0028-largejpg.jpg?w=1000&s=1", "address": "1-4-8 Honcho, Funabashi 273-0005 Qu\u00e2\u0323n Chiba", "lat": 35.700294, "lng": 139.98506, "ref_id": 3790390, "rating": 3.5, "num_reviews": 0, "website": null, "contact_phone": "+81 47-423-5510", "contact_email": null, "status": 1, "source_type": 1, "numberReviews": 6}, {"name": "Kamehachi Sushi", "type": "restaurant", "image": "https://dynamic-media-cdn.tripadvisor.com/media/photo-o/1a/5c/26/ed/jr-5.jpg?w=1000&s=1", "address": "4-806 Makuharicho Hanamigawa-Ku, Chiba Qu\u00e2\u0323n Chiba", "lat": 35.660004, "lng": 140.05266, "ref_id": 7415906, "rating": 4.5, "num_reviews": 0, "website": null, "contact_phone": "+81 43-271-3641", "contact_email": null, "status": 1, "source_type": 1, "numberReviews": 2}, {"name": "Sumishun Funabashi Nakadori", "type": "restaurant", "image": "https://dynamic-media-cdn.tripadvisor.com/media/photo-o/12/52/ff/e0/photo2jpg.jpg?w=1000&s=1", "address": "4-43-19 Hommachi Fukunoya Bldg. 1F, Funabashi 273-0005 Qu\u00e2\u0323n Chiba", "lat": 35.6991, "lng": 139.9868, "ref_id": 9906412, "rating": 4, "num_reviews": 0, "website": null, "contact_phone": "+81 47-460-8025", "contact_email": null, "status": 1, "source_type": 1, "numberReviews": 4}, {"name": "Restaurant Rose", "type": "restaurant", "image": "https://dynamic-media-cdn.tripadvisor.com/media/photo-o/13/9b/84/de/photo0jpg.jpg?w=1000&s=1", "address": "755 Owada Shinden Keisei Baraen Rose Garden, Yachiyo 276-0046 Qu\u00e2\u0323n Chiba", "lat": 35.73097, "lng": 140.08734, "ref_id": 10647769, "rating": 3.5, "num_reviews": 0, "website": null, "contact_phone": "+81 47-459-6388", "contact_email": null, "status": 1, "source_type": 1, "numberReviews": 7}, {"name": "Honke Seppin Nikomi Katsu Curry shop", "type": "restaurant", "image": "https://dynamic-media-cdn.tripadvisor.com/media/photo-o/16/93/3c/25/photo0jpg.jpg?w=1000&s=1", "address": "5-417-112 Makuharicho, Hanamigawa-ku, Chiba Qu\u00e2\u0323n Chiba", "lat": 35.656464, "lng": 140.05447, "ref_id": 3922739, "rating": 3.5, "num_reviews": 0, "website": "http://nikokatsu.com/", "contact_phone": "+81 43-213-6388", "contact_email": null, "status": 1, "source_type": 1, "numberReviews": 10}, {"name": "Shoya Nishi Funabashi North Entrance", "type": "restaurant", "image": "https://dynamic-media-cdn.tripadvisor.com/media/photo-o/13/08/13/6d/dsc-6464-largejpg.jpg?w=1000&s=1", "address": "4-28-1 Nishifuna, Funabashi 273-0031 Qu\u00e2\u0323n Chiba", "lat": 35.708454, "lng": 139.96017, "ref_id": 9902819, "rating": 3.5, "num_reviews": 0, "website": null, "contact_phone": "+81 47-433-9250", "contact_email": null, "status": 1, "source_type": 1, "numberReviews": 7}, {"name": "Shanghai Nikuman", "type": "restaurant", "image": "https://dynamic-media-cdn.tripadvisor.com/media/photo-o/0e/5e/a5/cc/caption.jpg?w=1000&s=1", "address": "4-9-8 Kitasuna, Koto 136-0073 Qu\u00e2\u0323n Tokyo", "lat": 35.67935, "lng": 139.82901, "ref_id": 9900485, "rating": 4.5, "num_reviews": 0, "website": null, "contact_phone": "+81 3-6458-6762", "contact_email": null, "status": 1, "source_type": 1, "numberReviews": 8}, {"name": "Caress", "type": "restaurant", "image": "https://dynamic-media-cdn.tripadvisor.com/media/photo-o/05/d6/8e/e4/caress.jpg?w=1000&s=1", "address": "1-3-5, Daiba, Minato 135-0091 Qu\u00e2\u0323n Tokyo", "lat": 35.630737, "lng": 139.77924, "ref_id": 3608189, "rating": 4, "num_reviews": 0, "website": "http://caress.jp/", "contact_phone": "+81 3-6382-9966", "contact_email": null, "status": 1, "source_type": 1, "numberReviews": 21}, {"name": "Anticaosteria Gondoletta", "type": "restaurant", "image": "https://dynamic-media-cdn.tripadvisor.com/media/photo-o/14/0a/cc/d1/photo1jpg.jpg?w=1000&s=1", "address": "7-50-4 Nishi Kamata, Ota Qu\u00e2\u0323n Tokyo", "lat": 35.56261, "lng": 139.71213, "ref_id": 7492582, "rating": 4.5, "num_reviews": 0, "website": null, "contact_phone": "+81 3-3733-4515", "contact_email": null, "status": 1, "source_type": 1, "numberReviews": 9}, {"name": "Yoshinoya Higashiabiko", "type": "restaurant", "image": null, "address": "2-36 Higashiabiko, Abiko 270-1144 Qu\u00e2\u0323n Chiba", "lat": 35.865536, "lng": 140.04135, "ref_id": 21045274, "rating": -1, "num_reviews": 0, "website": "https://stores.yoshinoya.com/ysn_048458", "contact_phone": "+81 4-7190-5569", "contact_email": null, "status": 1, "source_type": 1, "numberReviews": 0}, {"name": "Takozeni", "type": "restaurant", "image": null, "address": "754 Nareumamachi, Ryugasaki Ibaraki Prefecture", "lat": 35.90984, "lng": 140.1756, "ref_id": 7569491, "rating": -1, "num_reviews": 0, "website": null, "contact_phone": "+81 297-64-6708", "contact_email": null, "status": 1, "source_type": 1, "numberReviews": 0}, {"name": "Moment Sakura", "type": "restaurant", "image": null, "address": "167-6 Mutsuzaki, Sakura 285-0812 Qu\u00e2\u0323n Chiba", "lat": 35.7093, "lng": 140.22545, "ref_id": 9666507, "rating": -1, "num_reviews": 0, "website": null, "contact_phone": "+81 43-481-1701", "contact_email": null, "status": 1, "source_type": 1, "numberReviews": 0}, {"name": "Ramen Shop Naka", "type": "restaurant", "image": null, "address": "292-7 Nakanotai, Shiroi 270-1406 Qu\u00e2\u0323n Chiba", "lat": 35.81728, "lng": 140.05515, "ref_id": 14753672, "rating": -1, "num_reviews": 0, "website": null, "contact_phone": "+81 47-491-4932", "contact_email": null, "status": 1, "source_type": 1, "numberReviews": 0}, {"name": "Aeon Usui Goodies", "type": "restaurant", "image": null, "address": "1-23 Ojidai Aeon Usuiten 1F, Sakura 285-0837 Qu\u00e2\u0323n Chiba", "lat": 35.73014, "lng": 140.183, "ref_id": 10645600, "rating": -1, "num_reviews": 0, "website": null, "contact_phone": "+81 43-463-1888", "contact_email": null, "status": 1, "source_type": 1, "numberReviews": 0}, {"name": "Taishoya", "type": "restaurant", "image": null, "address": "754 Nareuma-Machi, Ryugasaki Ibaraki Prefecture", "lat": 35.909798, "lng": 140.17558, "ref_id": 7569549, "rating": -1, "num_reviews": 0, "website": null, "contact_phone": "+81 297-64-6715", "contact_email": null, "status": 1, "source_type": 1, "numberReviews": 0}, {"name": "Chidori", "type": "restaurant", "image": null, "address": "5756 Shibasaki, Inashiki 300-1412 Ibaraki Prefecture", "lat": 35.905712, "lng": 140.29326, "ref_id": 9642625, "rating": -1, "num_reviews": 0, "website": null, "contact_phone": "+81 297-87-4586", "contact_email": null, "status": 1, "source_type": 1, "numberReviews": 0}, {"name": "Chojuan", "type": "restaurant", "image": null, "address": "1-22-10 Osakidai, Sakura 285-0817 Qu\u00e2\u0323n Chiba", "lat": 35.7084, "lng": 140.22227, "ref_id": 1716726, "rating": -1, "num_reviews": 0, "website": "", "contact_phone": "+81 43-486-5539", "contact_email": "", "status": 1, "source_type": 1, "numberReviews": 0}, {"name": "Tanoshiya", "type": "restaurant", "image": null, "address": "1099-3 Igodai Narita Heights Bell 1F, Narita 286-0035 Qu\u00e2\u0323n Chiba", "lat": 35.773327, "lng": 140.30904, "ref_id": 9636158, "rating": -1, "num_reviews": 0, "website": null, "contact_phone": "+81 476-36-7818", "contact_email": null, "status": 1, "source_type": 1, "numberReviews": 0}, {"name": "Tonton", "type": "restaurant", "image": null, "address": "754 Nareumamachi, Ryugasaki 301-0004 Ibaraki Prefecture", "lat": 35.90981, "lng": 140.17558, "ref_id": 13029795, "rating": -1, "num_reviews": 0, "website": null, "contact_phone": "+81 297-64-6716", "contact_email": null, "status": 1, "source_type": 1, "numberReviews": 0}, {"name": "Restaurant Ito", "type": "restaurant", "image": null, "address": "1408-2 Konodacho, Funabashi Qu\u00e2\u0323n Chiba", "lat": 35.778564, "lng": 140.07219, "ref_id": 7642283, "rating": -1, "num_reviews": 0, "website": null, "contact_phone": "+81 47-457-1084", "contact_email": null, "status": 1, "source_type": 1, "numberReviews": 0}, {"name": "The Senny's", "type": "restaurant", "image": null, "address": "558-1 Kamicho, Narita 286-0032 Qu\u00e2\u0323n Chiba", "lat": 35.781918, "lng": 140.31622, "ref_id": 14858087, "rating": -1, "num_reviews": 0, "website": null, "contact_phone": "+81 476-85-4115", "contact_email": null, "status": 1, "source_type": 1, "numberReviews": 0}, {"name": "Terada Shop Narita Misatodai", "type": "restaurant", "image": null, "address": "1450-101 Gobu, Narita 286-0014 Qu\u00e2\u0323n Chiba", "lat": 35.789, "lng": 140.30772, "ref_id": 13789529, "rating": -1, "num_reviews": 0, "website": null, "contact_phone": "+81 476-36-5226", "contact_email": null, "status": 1, "source_type": 1, "numberReviews": 0}, {"name": "Wakaba", "type": "restaurant", "image": null, "address": "545-8 Edosaki Otsu, Inashiki 300-0509 Ibaraki Prefecture", "lat": 35.94779, "lng": 140.314, "ref_id": 9625422, "rating": -1, "num_reviews": 0, "website": null, "contact_phone": "+81 29-892-5775", "contact_email": null, "status": 1, "source_type": 1, "numberReviews": 0}, {"name": "Tsutaya", "type": "restaurant", "image": null, "address": "252 Azumacho, Narita Qu\u00e2\u0323n Chiba", "lat": 35.78369, "lng": 140.32019, "ref_id": 7416764, "rating": -1, "num_reviews": 0, "website": null, "contact_phone": "+81 476-22-1843", "contact_email": null, "status": 1, "source_type": 1, "numberReviews": 0}, {"name": "Kozuchi", "type": "restaurant", "image": null, "address": "92-3 Azumacho, Narita 286-0025 Qu\u00e2\u0323n Chiba", "lat": 35.781216, "lng": 140.32382, "ref_id": 9937220, "rating": -1, "num_reviews": 0, "website": null, "contact_phone": "+81 476-22-0636", "contact_email": null, "status": 1, "source_type": 1, "numberReviews": 0}, {"name": "Ramen Tsukemen Oguri", "type": "restaurant", "image": null, "address": "3-26-12 Ojidai Takatabiru 1F, Sakura 285-0837 Qu\u00e2\u0323n Chiba", "lat": 35.72446, "lng": 140.17932, "ref_id": 14754278, "rating": -1, "num_reviews": 0, "website": null, "contact_phone": "+81 43-310-5880", "contact_email": null, "status": 1, "source_type": 1, "numberReviews": 0}, {"name": "Umezono", "type": "restaurant", "image": null, "address": "3-16-14 Nishijimacho, Fukaya Saitama Prefecture", "lat": 36.1944, "lng": 139.28111, "ref_id": 7430602, "rating": -1, "num_reviews": 0, "website": null, "contact_phone": "+81 48-571-0068", "contact_email": null, "status": 1, "source_type": 1, "numberReviews": 0}, {"name": "Yakiniku Hana Mizuki", "type": "restaurant", "image": null, "address": "585 Higashihirai, Fujioka 375-0043 Gunma Prefecture", "lat": 36.225952, "lng": 139.04622, "ref_id": 14757159, "rating": -1, "num_reviews": 0, "website": null, "contact_phone": "+81 274-50-8411", "contact_email": null, "status": 1, "source_type": 1, "numberReviews": 0}, {"name": "Sobadokoro Sansui", "type": "restaurant", "image": null, "address": "472-1 Kamimogi, Tamamura-machi, Sawa-gun 370-1122 Gunma Prefecture", "lat": 36.301502, "lng": 139.12944, "ref_id": 10009100, "rating": -1, "num_reviews": 0, "website": null, "contact_phone": "+81 270-65-4739", "contact_email": null, "status": 1, "source_type": 1, "numberReviews": 0}, {"name": "Kupu Kupu", "type": "restaurant", "image": null, "address": "2002-40 Naka, Fujioka Gunma Prefecture", "lat": 36.274353, "lng": 139.0719, "ref_id": 7568639, "rating": -1, "num_reviews": 0, "website": null, "contact_phone": "+81 274-24-3313", "contact_email": null, "status": 1, "source_type": 1, "numberReviews": 0}, {"name": "Sakaetsuki", "type": "restaurant", "image": null, "address": "1590-4 Oaza Sueno, Yorii-machi, Osato-gun 369-1205 Saitama Prefecture", "lat": 36.118603, "lng": 139.17372, "ref_id": 13270728, "rating": -1, "num_reviews": 0, "website": null, "contact_phone": "+81 48-586-0311", "contact_email": null, "status": 1, "source_type": 1, "numberReviews": 0}, {"name": "Southern Italy's Kitchen Partiretakasaki", "type": "restaurant", "image": null, "address": "656-5 Yanakacho, Takasaki Gunma Prefecture", "lat": 36.309395, "lng": 139.05542, "ref_id": 7430172, "rating": -1, "num_reviews": 0, "website": null, "contact_phone": "+81 27-346-6399", "contact_email": null, "status": 1, "source_type": 1, "numberReviews": 0}, {"name": "Sushi Sei", "type": "restaurant", "image": null, "address": "1090-24 Mamizuka-Machi, Isesaki Gunma Prefecture", "lat": 36.275814, "lng": 139.21022, "ref_id": 7567519, "rating": -1, "num_reviews": 0, "website": null, "contact_phone": "+81 270-32-0096", "contact_email": null, "status": 1, "source_type": 1, "numberReviews": 0}, {"name": "Koryori Kanazawa", "type": "restaurant", "image": null, "address": "2-4-52 Ojimaminami, Honjo 367-0062 Saitama Prefecture", "lat": 36.241512, "lng": 139.16896, "ref_id": 13040244, "rating": -1, "num_reviews": 0, "website": null, "contact_phone": "+81 495-21-0577", "contact_email": null, "status": 1, "source_type": 1, "numberReviews": 0}, {"name": "Jardino", "type": "restaurant", "image": null, "address": "329-1 Imaicho, Isesaki Gunma Prefecture", "lat": 36.303814, "lng": 139.18011, "ref_id": 7567284, "rating": -1, "num_reviews": 0, "website": null, "contact_phone": "+81 270-21-8838", "contact_email": null, "status": 1, "source_type": 1, "numberReviews": 0}, {"name": "Chosen Hanten Kamezato", "type": "restaurant", "image": null, "address": "350-5 Kamesatocho, Maebashi Gunma Prefecture", "lat": 36.344067, "lng": 139.0884, "ref_id": 7417451, "rating": -1, "num_reviews": 0, "website": null, "contact_phone": "+81 27-265-2929", "contact_email": null, "status": 1, "source_type": 1, "numberReviews": 0}, {"name": "Wa Cafe Fato", "type": "restaurant", "image": null, "address": "3084-3 Tsunatorimachi, Isesaki 372-0812 Gunma Prefecture", "lat": 36.314632, "lng": 139.1776, "ref_id": 12988571, "rating": -1, "num_reviews": 0, "website": null, "contact_phone": "+81 270-27-5792", "contact_email": null, "status": 1, "source_type": 1, "numberReviews": 0}, {"name": "Izakaya Ai", "type": "restaurant", "image": null, "address": "2-14-14 Maehara, Honjo 367-0047 Saitama Prefecture", "lat": 36.240845, "lng": 139.17586, "ref_id": 9685283, "rating": -1, "num_reviews": 0, "website": null, "contact_phone": "+81 495-21-8828", "contact_email": null, "status": 1, "source_type": 1, "numberReviews": 0}, {"name": "Menya Haru Ga Kita", "type": "restaurant", "image": null, "address": "5-4-8 Mifuku, Honjo 367-0044 Saitama Prefecture", "lat": 36.228977, "lng": 139.17636, "ref_id": 9942901, "rating": -1, "num_reviews": 0, "website": "http://shichifuku1129.com", "contact_phone": "+81 495-71-7199", "contact_email": null, "status": 1, "source_type": 1, "numberReviews": 0}, {"name": "Izakaya Yuko", "type": "restaurant", "image": null, "address": "1-2-29 Ginza, Honjo 367-0052 Saitama Prefecture", "lat": 36.238262, "lng": 139.18414, "ref_id": 13040011, "rating": -1, "num_reviews": 0, "website": null, "contact_phone": "+81 495-23-3358", "contact_email": null, "status": 1, "source_type": 1, "numberReviews": 0}, {"name": "Sariharo", "type": "restaurant", "image": null, "address": "3-2-2 Ginza, Honjo Saitama Prefecture", "lat": 36.23885, "lng": 139.18585, "ref_id": 7539654, "rating": -1, "num_reviews": 0, "website": null, "contact_phone": "+81 495-24-2407", "contact_email": null, "status": 1, "source_type": 1, "numberReviews": 0}, {"name": "Yanagi Sushi", "type": "restaurant", "image": null, "address": "1-12-4 Hirayanagi-Machi, Tochigi Tochigi Prefecture", "lat": 36.38932, "lng": 139.73802, "ref_id": 7671511, "rating": -1, "num_reviews": 0, "website": null, "contact_phone": "+81 282-24-8705", "contact_email": null, "status": 1, "source_type": 1, "numberReviews": 0}, {"name": "Izakaya en", "type": "restaurant", "image": null, "address": "3-13-1 Asakuracho, Ashikaga Tochigi Prefecture", "lat": 36.319023, "lng": 139.44273, "ref_id": 7540086, "rating": -1, "num_reviews": 0, "website": null, "contact_phone": "+81 284-72-9573", "contact_email": null, "status": 1, "source_type": 1, "numberReviews": 0}, {"name": "Furusato", "type": "restaurant", "image": null, "address": "4-39-1 Adachi Irisawa Heights 1F, Adachi 120-0015 Qu\u00e2\u0323n Tokyo", "lat": 35.766594, "lng": 139.80676, "ref_id": 9947729, "rating": -1, "num_reviews": 0, "website": null, "contact_phone": "+81 3-3887-6236", "contact_email": null, "status": 1, "source_type": 1, "numberReviews": 0}, {"name": "Toriaezu Kenchan", "type": "restaurant", "image": null, "address": "3-14-1 Ichikawa Minami, Ichikawa 272-0033 Qu\u00e2\u0323n Chiba", "lat": 35.729733, "lng": 139.90573, "ref_id": 9887588, "rating": -1, "num_reviews": 0, "website": null, "contact_phone": "+81 47-321-3311", "contact_email": null, "status": 1, "source_type": 1, "numberReviews": 0}, {"name": "Echigoya", "type": "restaurant", "image": null, "address": "2-3-3 Onigoe, Ichikawa 272-0022 Qu\u00e2\u0323n Chiba", "lat": 35.71846, "lng": 139.93658, "ref_id": 14920615, "rating": -1, "num_reviews": 0, "website": null, "contact_phone": "+81 47-334-7457", "contact_email": null, "status": 1, "source_type": 1, "numberReviews": 0}, {"name": "Iroha Sushi", "type": "restaurant", "image": null, "address": "5-20-11 Higashi Koiwa, Edogawa 133-0052 Qu\u00e2\u0323n Tokyo", "lat": 35.733562, "lng": 139.88933, "ref_id": 14746446, "rating": -1, "num_reviews": 0, "website": null, "contact_phone": "+81 3-3650-5077", "contact_email": null, "status": 1, "source_type": 1, "numberReviews": 0}, {"name": "Kitchen", "type": "restaurant", "image": null, "address": "5-10-3 Minamiyawata, Ichikawa Qu\u00e2\u0323n Chiba", "lat": 35.720955, "lng": 139.9248, "ref_id": 7631031, "rating": -1, "num_reviews": 0, "website": null, "contact_phone": "+81 47-379-5771", "contact_email": null, "status": 1, "source_type": 1, "numberReviews": 0}, {"name": "Ponta", "type": "restaurant", "image": null, "address": "7-26-4 Minami Koiwa, Edogawa Qu\u00e2\u0323n Tokyo", "lat": 35.733402, "lng": 139.88266, "ref_id": 7489917, "rating": -1, "num_reviews": 0, "website": null, "contact_phone": "+81 3-5668-7257", "contact_email": null, "status": 1, "source_type": 1, "numberReviews": 0}, {"name": "Osaka Horumon Marukiya", "type": "restaurant", "image": null, "address": "4-13-20 Matsubaracho 2f, Akishima 196-0003 Qu\u00e2\u0323n Tokyo", "lat": 35.721054, "lng": 139.34279, "ref_id": 9921299, "rating": -1, "num_reviews": 0, "website": null, "contact_phone": "+81 42-543-7080", "contact_email": null, "status": 1, "source_type": 1, "numberReviews": 0}, {"name": "Sankeien", "type": "restaurant", "image": null, "address": "10-3-15 Kawabemachi, Ome 198-0036 Qu\u00e2\u0323n Tokyo", "lat": 35.78401, "lng": 139.28699, "ref_id": 13064336, "rating": -1, "num_reviews": 0, "website": null, "contact_phone": "+81 428-22-5729", "contact_email": null, "status": 1, "source_type": 1, "numberReviews": 0}, {"name": "Private LoungeG&K", "type": "restaurant", "image": null, "address": "97 Aburadai, Akiruno 197-0827 Qu\u00e2\u0323n Tokyo", "lat": 35.726368, "lng": 139.28789, "ref_id": 14750452, "rating": -1, "num_reviews": 0, "website": null, "contact_phone": "+81 42-595-5033", "contact_email": null, "status": 1, "source_type": 1, "numberReviews": 0}, {"name": "Patisserie Frame Sur", "type": "restaurant", "image": null, "address": "2-6-11 Ogidai, Iruma 358-0023 Saitama Prefecture", "lat": 35.828968, "lng": 139.39075, "ref_id": 13040752, "rating": -1, "num_reviews": 0, "website": null, "contact_phone": "+81 4-2964-9023", "contact_email": null, "status": 1, "source_type": 1, "numberReviews": 0}, {"name": "Raja Sayamagaoka", "type": "restaurant", "image": null, "address": "1-180-45 Wagahara, Tokorozawa 359-1162 Saitama Prefecture", "lat": 35.806244, "lng": 139.40894, "ref_id": 9924268, "rating": -1, "num_reviews": 0, "website": null, "contact_phone": "+81 4-2947-8125", "contact_email": null, "status": 1, "source_type": 1, "numberReviews": 0}, {"name": "Inaka Manju", "type": "restaurant", "image": null, "address": "2637-1 Kawaguchi Machi, Hachioji 193-0801 Qu\u00e2\u0323n Tokyo", "lat": 35.69359, "lng": 139.28204, "ref_id": 13236520, "rating": -1, "num_reviews": 0, "website": null, "contact_phone": "+81 42-654-0622", "contact_email": null, "status": 1, "source_type": 1, "numberReviews": 0}, {"name": "Izumi Shushi", "type": "restaurant", "image": null, "address": "668-1 Yotsuyacho, Hachioji Qu\u00e2\u0323n Tokyo", "lat": 35.67838, "lng": 139.29836, "ref_id": 7509581, "rating": -1, "num_reviews": 0, "website": null, "contact_phone": "+81 42-626-1650", "contact_email": null, "status": 1, "source_type": 1, "numberReviews": 0}, {"name": "Ramen Land Akiruno", "type": "restaurant", "image": null, "address": "1092 Ina, Akiruno 190-0142 Qu\u00e2\u0323n Tokyo", "lat": 35.72639, "lng": 139.25098, "ref_id": 6108957, "rating": -1, "num_reviews": 0, "website": null, "contact_phone": "+81 42-596-2389", "contact_email": null, "status": 1, "source_type": 1, "numberReviews": 0}, {"name": "Kushi Jin Nakagami", "type": "restaurant", "image": null, "address": "1176-32 Nakagamicho, Akishima Qu\u00e2\u0323n Tokyo", "lat": 35.709892, "lng": 139.37718, "ref_id": 7511105, "rating": -1, "num_reviews": 0, "website": null, "contact_phone": "+81 42-542-4888", "contact_email": null, "status": 1, "source_type": 1, "numberReviews": 0}, {"name": "Bikkuri Donkey Nagaizumi", "type": "restaurant", "image": "https://dynamic-media-cdn.tripadvisor.com/media/photo-o/1b/82/bf/a6/caption.jpg?w=1000&s=1", "address": "8-1 Taihei Minamiisshiki, Nagaizumi-cho, Sunto-gun 411-0932 Shizuoka Prefecture", "lat": 35.150467, "lng": 138.89333, "ref_id": 10014913, "rating": 3.5, "num_reviews": 0, "website": "http://www.bikkuri-donkey.com/", "contact_phone": "+81 55-988-0663", "contact_email": null, "status": 1, "source_type": 1, "numberReviews": 9}, {"name": "Winds", "type": "restaurant", "image": "https://dynamic-media-cdn.tripadvisor.com/media/photo-o/0a/a5/19/aa/caption.jpg?w=1000&s=1", "address": "37-5 Mishuku, Susono 410-1107 Shizuoka Prefecture", "lat": 35.201035, "lng": 138.91199, "ref_id": 7586133, "rating": 4.5, "num_reviews": 0, "website": null, "contact_phone": "+81 55-997-3529", "contact_email": null, "status": 1, "source_type": 1, "numberReviews": 4}, {"name": "Shokusai Mamagoto", "type": "restaurant", "image": "https://dynamic-media-cdn.tripadvisor.com/media/photo-o/1c/b8/3d/a2/caption.jpg?w=1000&s=1", "address": "18-16 Chuocho 2f, Atami 413-0015 Shizuoka Prefecture", "lat": 35.09506, "lng": 139.07108, "ref_id": 4905092, "rating": 5, "num_reviews": 0, "website": "http://www.facebook.com/%E9%A3%9F%E5%BD%A9-%E9%A3%AF%E4%BA%8B-210643478978897/", "contact_phone": "+81 557-82-7272", "contact_email": null, "status": 1, "source_type": 1, "numberReviews": 2}, {"name": "Mister Donut", "type": "restaurant", "image": "https://dynamic-media-cdn.tripadvisor.com/media/photo-o/12/8d/55/f3/photo0jpg.jpg?w=1000&s=1", "address": "341 Mamiyateramaedai, Kannami-cho, Tagata-gun Shizuoka Prefecture", "lat": 35.08507, "lng": 138.93729, "ref_id": 7477703, "rating": 4, "num_reviews": 0, "website": null, "contact_phone": "+81 55-970-2577", "contact_email": null, "status": 1, "source_type": 1, "numberReviews": 5}, {"name": "Atami Rin", "type": "restaurant", "image": "https://dynamic-media-cdn.tripadvisor.com/media/photo-o/10/da/35/b5/caption.jpg?w=1000&s=1", "address": "9-1 Kasugacho, Atami 413-0005 Shizuoka Prefecture", "lat": 35.102924, "lng": 139.07967, "ref_id": 12932392, "rating": 4, "num_reviews": 0, "website": "http://www.atami-rin.com/", "contact_phone": "+81 120-486-606", "contact_email": null, "status": 1, "source_type": 1, "numberReviews": 5}, {"name": "Denny's Mishima-kita", "type": "restaurant", "image": "https://dynamic-media-cdn.tripadvisor.com/media/photo-o/04/9f/e2/d7/denny-s-mishima-kita.jpg?w=1000&s=1", "address": "268-2 Hagi, Mishima 411-0045 Shizuoka Prefecture", "lat": 35.14905, "lng": 138.90833, "ref_id": 4899895, "rating": 3.5, "num_reviews": 0, "website": null, "contact_phone": "+81 55-988-9890", "contact_email": null, "status": 1, "source_type": 1, "numberReviews": 11}, {"name": "Mendokoro Nanakorobi Yaoki", "type": "restaurant", "image": "https://dynamic-media-cdn.tripadvisor.com/media/photo-o/1a/0e/24/2c/caption.jpg?w=1000&s=1", "address": "6-1 Yanagigochi Yamada Heights Room 103, Mishima 411-0806 Shizuoka Prefecture", "lat": 35.11518, "lng": 138.93942, "ref_id": 17838480, "rating": 4.5, "num_reviews": 0, "website": null, "contact_phone": "+81 55-960-8777", "contact_email": null, "status": 1, "source_type": 1, "numberReviews": 3}, {"name": "Marugame Seimen Mishima Aoki", "type": "restaurant", "image": "https://dynamic-media-cdn.tripadvisor.com/media/photo-o/10/aa/59/a1/caption.jpg?w=1000&s=1", "address": "143-1 Aoki, Mishima 411-0811 Shizuoka Prefecture", "lat": 35.10366, "lng": 138.92215, "ref_id": 7577168, "rating": 4, "num_reviews": 0, "website": "", "contact_phone": "+81 55-991-5080", "contact_email": null, "status": 1, "source_type": 1, "numberReviews": 14}, {"name": "Indian Restaurant River Ganges Gotemba", "type": "restaurant", "image": "https://dynamic-media-cdn.tripadvisor.com/media/photo-o/15/28/99/ce/caption.jpg?w=1000&s=1", "address": "209-2 Hagiwara, Gotemba 412-0042 Shizuoka Prefecture", "lat": 35.31218, "lng": 138.92885, "ref_id": 9653480, "rating": 4.5, "num_reviews": 0, "website": "http://nepal-curry.com/003/index.html", "contact_phone": "+81 550-82-4572", "contact_email": null, "status": 1, "source_type": 1, "numberReviews": 4}, {"name": "Robroy", "type": "restaurant", "image": "https://dynamic-media-cdn.tripadvisor.com/media/photo-o/10/8e/88/dc/caption.jpg?w=1000&s=1", "address": "24-1 Odoi, Kannami-cho, Tagata-gun 419-0113 Shizuoka Prefecture", "lat": 35.087425, "lng": 138.94492, "ref_id": 7477713, "rating": 4.5, "num_reviews": 0, "website": null, "contact_phone": "+81 55-979-2966", "contact_email": null, "status": 1, "source_type": 1, "numberReviews": 3}, {"name": "Rai4", "type": "restaurant", "image": "https://dynamic-media-cdn.tripadvisor.com/media/photo-o/1b/66/d4/6b/rai4.jpg?w=1000&s=1", "address": "12-11 Hirokojicho, Mishima 411-0856 Shizuoka Prefecture", "lat": 35.11782, "lng": 138.9119, "ref_id": 4897199, "rating": 4, "num_reviews": 0, "website": "", "contact_phone": "+81 55-991-2828", "contact_email": null, "status": 1, "source_type": 1, "numberReviews": 6}, {"name": "Ogon No Hana", "type": "restaurant", "image": null, "address": "368 Nishiobokatacho Sumaku Isesaki 3F, Isesaki 379-2224 Gunma Prefecture", "lat": 36.339565, "lng": 139.2329, "ref_id": 14757305, "rating": -1, "num_reviews": 0, "website": null, "contact_phone": "+81 270-75-6550", "contact_email": null, "status": 1, "source_type": 1, "numberReviews": 0}, {"name": "Trattoria E Pizzeria Lupino", "type": "restaurant", "image": null, "address": "754 Oaza Shimo Shinden, Tamamura-machi, Sawa-gun 370-1132 Gunma Prefecture", "lat": 36.30202, "lng": 139.11775, "ref_id": 10009388, "rating": -1, "num_reviews": 0, "website": null, "contact_phone": "+81 270-27-4199", "contact_email": null, "status": 1, "source_type": 1, "numberReviews": 0}, {"name": "Sake Dokoro Matsuya", "type": "restaurant", "image": null, "address": "2334-10 Tsunatorimachi, Isesaki 372-0812 Gunma Prefecture", "lat": 36.311188, "lng": 139.18474, "ref_id": 9677346, "rating": -1, "num_reviews": 0, "website": null, "contact_phone": "+81 270-50-0383", "contact_email": null, "status": 1, "source_type": 1, "numberReviews": 0}, {"name": "Highball", "type": "restaurant", "image": null, "address": "69-3 Sannocho, Isesaki Gunma Prefecture", "lat": 36.30341, "lng": 139.1892, "ref_id": 7567342, "rating": -1, "num_reviews": 0, "website": null, "contact_phone": "+81 270-25-3632", "contact_email": null, "status": 1, "source_type": 1, "numberReviews": 0}, {"name": "Toriyaki Kakunoshin", "type": "restaurant", "image": null, "address": "3-57 Tsukuba, Kumagaya Saitama Prefecture", "lat": 36.140827, "lng": 139.39136, "ref_id": 7462475, "rating": -1, "num_reviews": 0, "website": null, "contact_phone": "+81 50-5788-0712", "contact_email": null, "status": 1, "source_type": 1, "numberReviews": 0}, {"name": "Japantei (Take-Away Lunch Box) Kadoi", "type": "restaurant", "image": null, "address": "11-12-2 Oshiagecho, Gyoda 361-0045 Saitama Prefecture", "lat": 36.117188, "lng": 139.43552, "ref_id": 13040021, "rating": -1, "num_reviews": 0, "website": null, "contact_phone": "+81 48-553-5218", "contact_email": null, "status": 1, "source_type": 1, "numberReviews": 0}, {"name": "Hokkaido Ramen", "type": "restaurant", "image": null, "address": "1-16-2 Akatsukashinmachi, Itabashi 175-0093 Qu\u00e2\u0323n Tokyo", "lat": 35.76878, "lng": 139.64711, "ref_id": 9953336, "rating": 4, "num_reviews": 0, "website": null, "contact_phone": "+81 3-3933-3057", "contact_email": null, "status": 1, "source_type": 1, "numberReviews": 1}, {"name": "Unashige", "type": "restaurant", "image": "https://dynamic-media-cdn.tripadvisor.com/media/photo-o/0c/fe/1d/c8/dsc-0002-largejpg.jpg?w=1000&s=1", "address": "366-1 Kamiuchimagi, Asaka Saitama Prefecture", "lat": 35.82201, "lng": 139.61307, "ref_id": 7562693, "rating": 4, "num_reviews": 0, "website": null, "contact_phone": "+81 48-456-3267", "contact_email": null, "status": 1, "source_type": 1, "numberReviews": 1}, {"name": "Keizan", "type": "restaurant", "image": null, "address": "5-18-9 Higashi Michinobe, Kamagaya Qu\u00e2\u0323n Chiba", "lat": 35.748352, "lng": 139.99812, "ref_id": 7574844, "rating": 3.5, "num_reviews": 0, "website": null, "contact_phone": "+81 47-443-2496", "contact_email": null, "status": 1, "source_type": 1, "numberReviews": 9}, {"name": "Panke", "type": "restaurant", "image": null, "address": "1-9-3 Yachiyodaikita, Yachiyo Qu\u00e2\u0323n Chiba", "lat": 35.702435, "lng": 140.09013, "ref_id": 3778965, "rating": 4.5, "num_reviews": 0, "website": null, "contact_phone": "+81 47-483-6436", "contact_email": null, "status": 1, "source_type": 1, "numberReviews": 2}, {"name": "Yoro Notaki Shin Narashino", "type": "restaurant", "image": "https://dynamic-media-cdn.tripadvisor.com/media/photo-o/15/6c/5a/5c/1542540396586-largejpg.jpg?w=1000&s=1", "address": "2-1-8 Akanehama, Narashino Qu\u00e2\u0323n Chiba", "lat": 35.666985, "lng": 140.01347, "ref_id": 7572885, "rating": 4, "num_reviews": 0, "website": null, "contact_phone": "+81 47-453-4649", "contact_email": null, "status": 1, "source_type": 1, "numberReviews": 5}, {"name": "Taishu Horumon Tatsuya Nishifunabashi", "type": "restaurant", "image": "https://dynamic-media-cdn.tripadvisor.com/media/photo-o/12/c9/a5/4e/photo2jpg.jpg?w=1000&s=1", "address": "4-26-2 Nishifuna Nishifuna Sound Bldg. Hirata 2F, Funabashi 273-0031 Qu\u00e2\u0323n Chiba", "lat": 35.708515, "lng": 139.95995, "ref_id": 10648831, "rating": 3.5, "num_reviews": 0, "website": null, "contact_phone": "+81 47-437-8929", "contact_email": null, "status": 1, "source_type": 1, "numberReviews": 6}, {"name": "Yoshinoya JRA Nakayama Racecourse", "type": "restaurant", "image": null, "address": "1-1-1 Kosaku JRA Nakayama Racecourse, Funabashi 273-0037 Qu\u00e2\u0323n Chiba", "lat": 35.72612, "lng": 139.96046, "ref_id": 4663276, "rating": 3.5, "num_reviews": 0, "website": "https://stores.yoshinoya.com/ysn_048429", "contact_phone": "+81 47-302-2510", "contact_email": null, "status": 1, "source_type": 1, "numberReviews": 10}, {"name": "Nanohana Soba, Dila Nishifunabashi", "type": "restaurant", "image": "https://dynamic-media-cdn.tripadvisor.com/media/photo-o/0f/62/b5/b7/photo0jpg.jpg?w=1000&s=1", "address": "4-27-7 Nishifuna JR Nishifunabashi Station, Funabashi 273-0031 Qu\u00e2\u0323n Chiba", "lat": 35.711353, "lng": 139.95499, "ref_id": 1692173, "rating": 3, "num_reviews": 0, "website": "http://www.nre.co.jp/shop/tabid/223/stoid/646/brnid/4/Default.aspx", "contact_phone": "+81 47-495-5177", "contact_email": "", "status": 1, "source_type": 1, "numberReviews": 15}, {"name": "Chojuan", "type": "restaurant", "image": "https://dynamic-media-cdn.tripadvisor.com/media/photo-o/1a/f5/7c/bb/caption.jpg?w=1000&s=1", "address": "5-8-5 Minami Yawata, Ichikawa 272-0023 Qu\u00e2\u0323n Chiba", "lat": 35.720722, "lng": 139.92355, "ref_id": 9677176, "rating": 3.5, "num_reviews": 0, "website": null, "contact_phone": "+81 47-377-1246", "contact_email": null, "status": 1, "source_type": 1, "numberReviews": 3}, {"name": "Sukiya Funabashi Kosaku", "type": "restaurant", "image": "https://dynamic-media-cdn.tripadvisor.com/media/photo-o/0b/e6/b6/a8/caption.jpg?w=1000&s=1", "address": "2-1-1 Kosaku, Funabashi 273-0037 Qu\u00e2\u0323n Chiba", "lat": 35.721798, "lng": 139.95856, "ref_id": 10000057, "rating": 3.5, "num_reviews": 0, "website": "http://www.sukiya.jp/", "contact_phone": null, "contact_email": null, "status": 1, "source_type": 1, "numberReviews": 8}, {"name": "Tokiwa Shokudo Kanamachi", "type": "restaurant", "image": "https://dynamic-media-cdn.tripadvisor.com/media/photo-o/16/b6/66/24/photo0jpg.jpg?w=1000&s=1", "address": "1-19-10 Higashikanamachi, Katsushika Qu\u00e2\u0323n Tokyo", "lat": 35.7711, "lng": 139.86873, "ref_id": 3816687, "rating": 4, "num_reviews": 0, "website": null, "contact_phone": "+81 3-3627-8043", "contact_email": null, "status": 1, "source_type": 1, "numberReviews": 8}, {"name": "Ful Bari", "type": "restaurant", "image": null, "address": "1-3-26 Takasago, Soka Saitama Prefecture", "lat": 35.825615, "lng": 139.80408, "ref_id": 7561814, "rating": 5, "num_reviews": 0, "website": "http://fulbari.gorp.jp/", "contact_phone": "+81 48-924-9919", "contact_email": null, "status": 1, "source_type": 1, "numberReviews": 4}, {"name": "Hisanoya", "type": "restaurant", "image": null, "address": "410 Kajiya, Yugawara-machi, Ashigarashimo-gun 259-0313 tinh Kanagawa", "lat": 35.156235, "lng": 139.10931, "ref_id": 13052007, "rating": -1, "num_reviews": 0, "website": null, "contact_phone": "+81 465-62-2831", "contact_email": null, "status": 1, "source_type": 1, "numberReviews": 0}, {"name": "Mos Burger Nishi-Kasai Kitaguchi", "type": "restaurant", "image": "https://dynamic-media-cdn.tripadvisor.com/media/photo-o/0f/b9/e6/fc/dsc-0667-largejpg_rotated_90.jpg?w=1000&s=1", "address": "3-22-16 Nishi Kasai, Edogawa 134-0088 Qu\u00e2\u0323n Tokyo", "lat": 35.666718, "lng": 139.85919, "ref_id": 9915412, "rating": 3.5, "num_reviews": 0, "website": null, "contact_phone": "+81 3-5659-1201", "contact_email": null, "status": 1, "source_type": 1, "numberReviews": 9}, {"name": "Jonathan Higashi-Ojima Ekimae", "type": "restaurant", "image": "https://dynamic-media-cdn.tripadvisor.com/media/photo-o/0d/77/f3/03/caption.jpg?w=1000&s=1", "address": "8-41-13 Oshima, Koto 136-0072 Qu\u00e2\u0323n Tokyo", "lat": 35.689552, "lng": 139.84465, "ref_id": 9929440, "rating": 3.5, "num_reviews": 0, "website": null, "contact_phone": "+81 3-3637-8701", "contact_email": null, "status": 1, "source_type": 1, "numberReviews": 8}, {"name": "Yokohama Iekei Ramen Nozomiya Ueno", "type": "restaurant", "image": "https://dynamic-media-cdn.tripadvisor.com/media/photo-o/10/1e/ff/d5/caption.jpg?w=1000&s=1", "address": "3-39-7 Higashiueno Choshundo building 1F, Taito 110-0015 Qu\u00e2\u0323n Tokyo", "lat": 35.711796, "lng": 139.77863, "ref_id": 7050474, "rating": 3.5, "num_reviews": 0, "website": null, "contact_phone": "+81 3-5817-4996", "contact_email": null, "status": 1, "source_type": 1, "numberReviews": 10}, {"name": "Chikusen", "type": "restaurant", "image": "https://dynamic-media-cdn.tripadvisor.com/media/photo-o/11/44/80/a6/photo1jpg.jpg?w=1000&s=1", "address": "3-11-2 Uchikanda, Chiyoda 101-0047 Qu\u00e2\u0323n Tokyo", "lat": 35.691128, "lng": 139.76962, "ref_id": 6060454, "rating": 4.5, "num_reviews": 0, "website": null, "contact_phone": "+81 3-3252-1428", "contact_email": null, "status": 1, "source_type": 1, "numberReviews": 3}, {"name": "Hidakaya, Monzennakacho Fudomae", "type": "restaurant", "image": "https://dynamic-media-cdn.tripadvisor.com/media/photo-o/0a/b4/6a/1d/caption.jpg?w=1000&s=1", "address": "1-7-6 Tomioka, Koto 135-0047 Qu\u00e2\u0323n Tokyo", "lat": 35.67149, "lng": 139.79643, "ref_id": 5587852, "rating": 4, "num_reviews": 0, "website": "http://hidakaya.hiday.co.jp/shop/page300.html", "contact_phone": "+81 3-5245-1655", "contact_email": null, "status": 1, "source_type": 1, "numberReviews": 6}, {"name": "Coco Ichibanya Tokyo Metro Machiya Ekimae Dori", "type": "restaurant", "image": "https://dynamic-media-cdn.tripadvisor.com/media/photo-o/11/34/28/64/chicken-and-spinach-curry.jpg?w=1000&s=1", "address": "1-4-5 Machiya Horii Bldg. 1F, Arakawa 116-0001 Qu\u00e2\u0323n Tokyo", "lat": 35.744484, "lng": 139.78186, "ref_id": 9972102, "rating": 4.5, "num_reviews": 0, "website": null, "contact_phone": "+81 3-5855-1175", "contact_email": null, "status": 1, "source_type": 1, "numberReviews": 3}, {"name": "Jasmine Thai Express Tokyo Skytree Town Solamachi", "type": "restaurant", "image": "https://dynamic-media-cdn.tripadvisor.com/media/photo-o/25/c9/60/03/caption.jpg?w=1000&s=1", "address": "1-1-2 Tokyo Skytree Town Solamachi West Yard 3F, Oshiage, Sumida 131-0045 Qu\u00e2\u0323n Tokyo", "lat": 35.710114, "lng": 139.8107, "ref_id": 16871094, "rating": 3.5, "num_reviews": 0, "website": "http://www.jasmine-thai.co.jp/about/soramachi.html", "contact_phone": "+81 3-6456-1642", "contact_email": null, "status": 1, "source_type": 1, "numberReviews": 5}, {"name": "Kappo Tanaka", "type": "restaurant", "image": "https://dynamic-media-cdn.tripadvisor.com/media/photo-o/13/f4/15/dc/photo1jpg.jpg?w=1000&s=1", "address": "1-16 Kanda Sakumacho Ohashi Bldg. 1F, Chiyoda 101-0025 Qu\u00e2\u0323n Tokyo", "lat": 35.697952, "lng": 139.77458, "ref_id": 9931730, "rating": 4.5, "num_reviews": 0, "website": null, "contact_phone": "+81 3-3253-5152", "contact_email": null, "status": 1, "source_type": 1, "numberReviews": 2}, {"name": "Tsukemenya Yasubee Akihabara", "type": "restaurant", "image": null, "address": "1-15-11 Sotokanda Akihabara Nishikawa Bldg. B1F, Chiyoda 101-0021 Qu\u00e2\u0323n Tokyo", "lat": 35.69788, "lng": 139.77275, "ref_id": 25459063, "rating": 5, "num_reviews": 0, "website": "http://www.yasubee.com/shop#akihabara", "contact_phone": "+81 3-5296-5411", "contact_email": null, "status": 1, "source_type": 1, "numberReviews": 1}, {"name": "Azuma Arare Ryogoku Main Store", "type": "restaurant", "image": "https://dynamic-media-cdn.tripadvisor.com/media/photo-o/07/51/fd/7a/caption.jpg?w=1000&s=1", "address": "2-15-10 Kamezawa, Sumida Qu\u00e2\u0323n Tokyo", "lat": 35.697327, "lng": 139.80087, "ref_id": 7493821, "rating": 3.5, "num_reviews": 0, "website": null, "contact_phone": "+81 3-3624-9733", "contact_email": null, "status": 1, "source_type": 1, "numberReviews": 7}, {"name": "Marumura Higashi Yomachi", "type": "restaurant", "image": "https://dynamic-media-cdn.tripadvisor.com/media/photo-o/15/ce/74/49/photo2jpg.jpg?w=1000&s=1", "address": "3-17-14 Toyo, Koto 135-0016 Qu\u00e2\u0323n Tokyo", "lat": 35.669548, "lng": 139.81165, "ref_id": 9941609, "rating": 4, "num_reviews": 0, "website": null, "contact_phone": "+81 3-3646-7999", "contact_email": null, "status": 1, "source_type": 1, "numberReviews": 4}, {"name": "Le Gouter", "type": "restaurant", "image": "https://dynamic-media-cdn.tripadvisor.com/media/photo-o/1b/85/6a/b7/photo3jpg.jpg?w=1000&s=1", "address": "1-31-1, Asakusabashi, Taito Qu\u00e2\u0323n Tokyo", "lat": 35.698208, "lng": 139.7861, "ref_id": 3867929, "rating": 4, "num_reviews": 0, "website": null, "contact_phone": "+81 3-3851-8184", "contact_email": null, "status": 1, "source_type": 1, "numberReviews": 4}, {"name": "Ramen Restaurant Hao! Shinurayasu", "type": "restaurant", "image": "https://dynamic-media-cdn.tripadvisor.com/media/photo-o/17/25/1a/0f/photo0jpg.jpg?w=1000&s=1", "address": "1-1-1 Tekkodori, Urayasu Qu\u00e2\u0323n Chiba", "lat": 35.64045, "lng": 139.90184, "ref_id": 7417058, "rating": 3.5, "num_reviews": 0, "website": null, "contact_phone": "+81 47-354-3514", "contact_email": null, "status": 1, "source_type": 1, "numberReviews": 10}, {"name": "Cure Maid Cafe'", "type": "restaurant", "image": "https://dynamic-media-cdn.tripadvisor.com/media/photo-o/26/66/ee/72/cure-maid-cafe.jpg?w=1000&s=1", "address": "Sotokanda, Chiyoda Qu\u00e2\u0323n Tokyo", "lat": 35.70181, "lng": 139.77124, "ref_id": 1690820, "rating": 3, "num_reviews": 0, "website": "http://www.curemaid.jp/", "contact_phone": "+81 3-3258-3161", "contact_email": "", "status": 1, "source_type": 1, "numberReviews": 13}, {"name": "Kaisen Yatai Okuman Kuramae", "type": "restaurant", "image": null, "address": "2-13-4 Kuramae, Taito 111-0051 Qu\u00e2\u0323n Tokyo", "lat": 35.70416, "lng": 139.79243, "ref_id": 9930586, "rating": 4, "num_reviews": 0, "website": null, "contact_phone": "+81 50-5788-8590", "contact_email": null, "status": 1, "source_type": 1, "numberReviews": 4}, {"name": "Charcoal Fire Hormone Sakai Shokudo", "type": "restaurant", "image": "https://dynamic-media-cdn.tripadvisor.com/media/photo-o/1a/63/98/67/caption.jpg?w=1000&s=1", "address": "2-15-3 Higashimukojima, Sumida 131-0032 Qu\u00e2\u0323n Tokyo", "lat": 35.717934, "lng": 139.81586, "ref_id": 3818830, "rating": 4, "num_reviews": 0, "website": null, "contact_phone": "+81 3-3616-8929", "contact_email": null, "status": 1, "source_type": 1, "numberReviews": 9}, {"name": "Tokyo Chubo Kanda Ogawamachi", "type": "restaurant", "image": "https://dynamic-media-cdn.tripadvisor.com/media/photo-o/07/16/ce/70/caption.jpg?w=1000&s=1", "address": "2-1-7 Kandaogawamachi, Chiyoda Qu\u00e2\u0323n Tokyo", "lat": 35.693924, "lng": 139.76488, "ref_id": 3852488, "rating": 3.5, "num_reviews": 0, "website": null, "contact_phone": "+81 3-3233-8030", "contact_email": null, "status": 1, "source_type": 1, "numberReviews": 10}, {"name": "Quirinale", "type": "restaurant", "image": null, "address": "3-16 Kandaogawamachi 1f, Chiyoda 101-0052 Qu\u00e2\u0323n Tokyo", "lat": 35.696705, "lng": 139.7603, "ref_id": 8377586, "rating": 4.5, "num_reviews": 0, "website": null, "contact_phone": null, "contact_email": null, "status": 1, "source_type": 1, "numberReviews": 3}, {"name": "Taishusakaba Aburu", "type": "restaurant", "image": "https://dynamic-media-cdn.tripadvisor.com/media/photo-o/28/cf/fc/ad/caption.jpg?w=1000&s=1", "address": "3-18-8 Uchikanda Narumi Bldg. 2F, Chiyoda 101-0047 Qu\u00e2\u0323n Tokyo", "lat": 35.69204, "lng": 139.77051, "ref_id": 23144464, "rating": 5, "num_reviews": 0, "website": "https://aburu.owst.jp/", "contact_phone": "+81 3-6260-9772", "contact_email": null, "status": 1, "source_type": 1, "numberReviews": 1}, {"name": "McDonald's Asakusa", "type": "restaurant", "image": "https://dynamic-media-cdn.tripadvisor.com/media/photo-o/0d/a0/a5/71/20161109-202513-largejpg.jpg?w=1000&s=1", "address": "1-33-3, Asakusa, Taito Qu\u00e2\u0323n Tokyo", "lat": 35.711636, "lng": 139.7975, "ref_id": 3858216, "rating": 3.5, "num_reviews": 0, "website": "https://map.mcdonalds.co.jp/map/13107", "contact_phone": "+81 3-3843-4746", "contact_email": null, "status": 1, "source_type": 1, "numberReviews": 49}, {"name": "Kawamura", "type": "restaurant", "image": "https://dynamic-media-cdn.tripadvisor.com/media/photo-o/15/bb/38/21/caption.jpg?w=1000&s=1", "address": "3-2-1, Nishinippori, Arakawa 116-0013 Qu\u00e2\u0323n Tokyo", "lat": 35.72786, "lng": 139.76932, "ref_id": 1689373, "rating": 3.5, "num_reviews": 0, "website": "", "contact_phone": "+81 3-3821-0737", "contact_email": "", "status": 1, "source_type": 1, "numberReviews": 23}, {"name": "Dekamori Sentai Buta Ranger", "type": "restaurant", "image": "https://dynamic-media-cdn.tripadvisor.com/media/photo-o/14/a0/95/8d/photo1jpg.jpg?w=1000&s=1", "address": "21-26 Honcho, Wako 351-0114 Saitama Prefecture", "lat": 35.784695, "lng": 139.60738, "ref_id": 13039397, "rating": 4.5, "num_reviews": 0, "website": null, "contact_phone": "+81 48-424-5348", "contact_email": null, "status": 1, "source_type": 1, "numberReviews": 8}, {"name": "Higashiikebukuro Taishoken Ibuki", "type": "restaurant", "image": "https://dynamic-media-cdn.tripadvisor.com/media/photo-o/0c/fd/d6/fc/photo1jpg.jpg?w=1000&s=1", "address": "Tagara, Nerima 179-0073 Qu\u00e2\u0323n Tokyo", "lat": 35.758698, "lng": 139.63214, "ref_id": 1680162, "rating": 3.5, "num_reviews": 0, "website": "http://taishoken-ibuki.com/index.html", "contact_phone": "+81 3-3577-4112", "contact_email": "", "status": 1, "source_type": 1, "numberReviews": 32}, {"name": "Daini Gyoson Hamayaki Center Aburiya", "type": "restaurant", "image": null, "address": "1-11-2 Hayakawa, Odawara 250-0021 tinh Kanagawa", "lat": 35.241264, "lng": 139.14752, "ref_id": 9677732, "rating": 3, "num_reviews": 0, "website": "http://www.gyoson.com/gaiyo/", "contact_phone": "+81 50-5786-9220", "contact_email": null, "status": 1, "source_type": 1, "numberReviews": 3}, {"name": "Gyukaku Ashikaga Kaiseimachi", "type": "restaurant", "image": null, "address": "240-1 Miyanodai Kaisei-Machi, Kaisei-machi, Ashigarakami-gun 258-0023 tinh Kanagawa", "lat": 35.32839, "lng": 139.1225, "ref_id": 4669144, "rating": 2.5, "num_reviews": 0, "website": null, "contact_phone": "+81 465-85-3729", "contact_email": null, "status": 1, "source_type": 1, "numberReviews": 3}, {"name": "Yakiniku Kingodawara Nishisakawa", "type": "restaurant", "image": "https://dynamic-media-cdn.tripadvisor.com/media/photo-o/07/8e/06/d7/caption.jpg?w=1000&s=1", "address": "1-3-43 Nishi Sakawa, Odawara tinh Kanagawa", "lat": 35.265026, "lng": 139.18301, "ref_id": 7551594, "rating": 3, "num_reviews": 0, "website": null, "contact_phone": "+81 465-46-0057", "contact_email": null, "status": 1, "source_type": 1, "numberReviews": 5}, {"name": "Mama`S Harmony", "type": "restaurant", "image": null, "address": "694 Nakahinata Fuji Speedway Shopping Terrace, Oyama-cho, Sunto-gun 410-1307 Shizuoka Prefecture", "lat": 35.37144, "lng": 138.92859, "ref_id": 10007778, "rating": 2.5, "num_reviews": 0, "website": "http://www.fsw.tv/guide/facility/eat.html", "contact_phone": "+81 550-78-1234", "contact_email": null, "status": 1, "source_type": 1, "numberReviews": 2}, {"name": "Izakaya Renga", "type": "restaurant", "image": null, "address": "1-3-8 Magarimatsu, Hadano 259-1321 tinh Kanagawa", "lat": 35.373245, "lng": 139.18488, "ref_id": 9958497, "rating": 2, "num_reviews": 0, "website": null, "contact_phone": "+81 463-88-2234", "contact_email": null, "status": 1, "source_type": 1, "numberReviews": 1}, {"name": "Jukusei Yakiniku Ichiban Gotemba", "type": "restaurant", "image": null, "address": "496-3 Shimbashi, Gotemba 412-0043 Shizuoka Prefecture", "lat": 35.301395, "lng": 138.93295, "ref_id": 11798571, "rating": 3, "num_reviews": 0, "website": "http://www.jukusei-ichiban.jp/jp/", "contact_phone": "+81 550-78-6640", "contact_email": null, "status": 1, "source_type": 1, "numberReviews": 4}, {"name": "Katsuichi", "type": "restaurant", "image": null, "address": "1992-4 Niihashi, Gotemba 412-0043 Shizuoka Prefecture", "lat": 35.30053, "lng": 138.9327, "ref_id": 6774472, "rating": 3, "num_reviews": 0, "website": null, "contact_phone": "+81 550-82-2244", "contact_email": null, "status": 1, "source_type": 1, "numberReviews": 4}, {"name": "Jolly Pasta Gotemba", "type": "restaurant", "image": null, "address": "3-16-1 Higashitanaka, Gotemba 412-0026 Shizuoka Prefecture", "lat": 35.304245, "lng": 138.94275, "ref_id": 13260171, "rating": 3, "num_reviews": 0, "website": null, "contact_phone": "+81 550-88-8335", "contact_email": null, "status": 1, "source_type": 1, "numberReviews": 4}, {"name": "Kuimonoya Wan Gotenba", "type": "restaurant", "image": "https://dynamic-media-cdn.tripadvisor.com/media/photo-o/04/9f/eb/78/kuimonoya-wan-gotenba.jpg?w=1000&s=1", "address": "1990-10 Niihashi Be-one Bldg. 1F, Gotemba 412-0043 Shizuoka Prefecture", "lat": 35.3004, "lng": 138.93365, "ref_id": 4898892, "rating": 3, "num_reviews": 0, "website": null, "contact_phone": "+81 550-70-1659", "contact_email": null, "status": 1, "source_type": 1, "numberReviews": 8}, {"name": "Mutsugoro", "type": "restaurant", "image": null, "address": "507-3 Kawashimata, Gotemba Shizuoka Prefecture", "lat": 35.296436, "lng": 138.9292, "ref_id": 7434253, "rating": 3, "num_reviews": 0, "website": null, "contact_phone": "+81 550-83-9657", "contact_email": null, "status": 1, "source_type": 1, "numberReviews": 2}, {"name": "Yumean Yokohama Sasage", "type": "restaurant", "image": "https://dynamic-media-cdn.tripadvisor.com/media/photo-o/0e/48/29/65/caption.jpg?w=1000&s=1", "address": "3-14-10 Sasage Konan-Ku, Yokohama tinh Kanagawa", "lat": 35.389355, "lng": 139.6018, "ref_id": 7422711, "rating": 3.5, "num_reviews": 0, "website": null, "contact_phone": "+81 45-845-1081", "contact_email": null, "status": 1, "source_type": 1, "numberReviews": 9}, {"name": "Kanton Meisai Fukkoro", "type": "restaurant", "image": "https://dynamic-media-cdn.tripadvisor.com/media/photo-o/1c/44/36/0f/photo3jpg.jpg?w=1000&s=1", "address": "1-2-13 Kamiookahigashi, Konan-Ku, Yokohama tinh Kanagawa", "lat": 35.41128, "lng": 139.59744, "ref_id": 3789458, "rating": 4, "num_reviews": 0, "website": null, "contact_phone": "+81 45-225-8692", "contact_email": null, "status": 1, "source_type": 1, "numberReviews": 2}, {"name": "Zushi Monogatari", "type": "restaurant", "image": null, "address": "1-5-4 Zushi, Zushi tinh Kanagawa", "lat": 35.296696, "lng": 139.57942, "ref_id": 7552016, "rating": 3.5, "num_reviews": 0, "website": null, "contact_phone": "+81 46-872-3353", "contact_email": null, "status": 1, "source_type": 1, "numberReviews": 4}, {"name": "Issai", "type": "restaurant", "image": "https://dynamic-media-cdn.tripadvisor.com/media/photo-o/0b/a4/46/21/caption.jpg?w=1000&s=1", "address": "1-1 Takaracho Shonan Station Bldg. Hiratsuka Lusca 5F, Hiratsuka 254-0034 tinh Kanagawa", "lat": 35.328274, "lng": 139.35045, "ref_id": 6044166, "rating": 4.5, "num_reviews": 0, "website": null, "contact_phone": "+81 463-23-2895", "contact_email": null, "status": 1, "source_type": 1, "numberReviews": 10}, {"name": "Chiyoda Sushi Zushi", "type": "restaurant", "image": null, "address": "5-2-50 Zushi, Zushi 249-0006 tinh Kanagawa", "lat": 35.296215, "lng": 139.57976, "ref_id": 13077636, "rating": 4, "num_reviews": 0, "website": "http://www.chiyoda-sushi.co.jp/search/serch.php?ca2=7&ca3=63", "contact_phone": "+81 46-871-1419", "contact_email": null, "status": 1, "source_type": 1, "numberReviews": 2}, {"name": "Arigato", "type": "restaurant", "image": "https://dynamic-media-cdn.tripadvisor.com/media/photo-o/09/9e/e4/7e/caption.jpg?w=1000&s=1", "address": "2-1-2 Minami Fujisawa Prime Bldg 3F, Fujisawa 251-0055 tinh Kanagawa", "lat": 35.338432, "lng": 139.48839, "ref_id": 3871891, "rating": 3.5, "num_reviews": 0, "website": "http://fujisawa-shouren.or.jp/", "contact_phone": "+81 466-23-5594", "contact_email": null, "status": 1, "source_type": 1, "numberReviews": 9}, {"name": "Chiyoda Sushi Gumyoji", "type": "restaurant", "image": null, "address": "133-6 Gumyojicho, Minami-ku, Yokohama 232-0067 tinh Kanagawa", "lat": 35.423725, "lng": 139.59917, "ref_id": 13083823, "rating": 4, "num_reviews": 0, "website": "http://www.chiyoda-sushi.co.jp/search/serch.php?ca2=7&ca3=98", "contact_phone": "+81 45-716-3965", "contact_email": null, "status": 1, "source_type": 1, "numberReviews": 2}, {"name": "Kanogawa", "type": "restaurant", "image": "https://dynamic-media-cdn.tripadvisor.com/media/photo-o/0a/77/df/23/caption.jpg?w=1000&s=1", "address": "2-14-6 Kandaogawamachi, Chiyoda Qu\u00e2\u0323n Tokyo", "lat": 35.695435, "lng": 139.76472, "ref_id": 1682933, "rating": 4, "num_reviews": 0, "website": "", "contact_phone": "+81 3-3293-2006", "contact_email": "", "status": 1, "source_type": 1, "numberReviews": 5}, {"name": "Uogashinihonichi", "type": "restaurant", "image": null, "address": "Misakicho, Chiyoda Qu\u00e2\u0323n Tokyo", "lat": 35.700016, "lng": 139.75583, "ref_id": 1687114, "rating": 3.5, "num_reviews": 0, "website": null, "contact_phone": "+81 3-3238-0250", "contact_email": "", "status": 1, "source_type": 1, "numberReviews": 6}, {"name": "Bincho Charcoal Grill Ginshamo", "type": "restaurant", "image": "https://dynamic-media-cdn.tripadvisor.com/media/photo-o/05/d5/4d/6f/bincho-charcoal-grill.jpg?w=1000&s=1", "address": "2-3-4 Komagata 1st Arai Bldg. 1F, Taito 111-0043 Qu\u00e2\u0323n Tokyo", "lat": 35.705345, "lng": 139.7938, "ref_id": 6056946, "rating": 4.5, "num_reviews": 0, "website": null, "contact_phone": "+81 3-5828-5727", "contact_email": null, "status": 1, "source_type": 1, "numberReviews": 3}, {"name": "Isomaru Suisan Okachimachi Minamiguchi", "type": "restaurant", "image": "https://dynamic-media-cdn.tripadvisor.com/media/photo-o/08/c0/a6/f5/caption.jpg?w=1000&s=1", "address": "5-25-1 1/2F Endo Bldg., Ueno, Taito 110-0005 Qu\u00e2\u0323n Tokyo", "lat": 35.706734, "lng": 139.77548, "ref_id": 8411777, "rating": 3.5, "num_reviews": 0, "website": null, "contact_phone": "+81 3-5816-8200", "contact_email": null, "status": 1, "source_type": 1, "numberReviews": 6}, {"name": "Moheji Ryogoku Edo Noren", "type": "restaurant", "image": "https://dynamic-media-cdn.tripadvisor.com/media/photo-o/14/7b/46/ae/noren.jpg?w=1000&s=1", "address": "1-3-20 Yokoami Both countries Edo NOREN, Sumida 130-0015 Qu\u00e2\u0323n Tokyo", "lat": 35.695847, "lng": 139.79227, "ref_id": 13875435, "rating": 3.5, "num_reviews": 0, "website": "http://kano-corp.tokyo/store/", "contact_phone": "+81 3-6658-5159", "contact_email": null, "status": 1, "source_type": 1, "numberReviews": 6}, {"name": "Coco Ichibanya Kanda North Entrance", "type": "restaurant", "image": "https://dynamic-media-cdn.tripadvisor.com/media/photo-o/09/34/9a/4a/caption.jpg?w=1000&s=1", "address": "3-3 Kandakajicho, Chiyoda 101-0045 Qu\u00e2\u0323n Tokyo", "lat": 35.693417, "lng": 139.77077, "ref_id": 6062420, "rating": 3.5, "num_reviews": 0, "website": null, "contact_phone": "+81 3-5207-5498", "contact_email": null, "status": 1, "source_type": 1, "numberReviews": 18}, {"name": "Kinukawa", "type": "restaurant", "image": "https://dynamic-media-cdn.tripadvisor.com/media/photo-o/05/d6/c6/bf/kinukawa.jpg?w=1000&s=1", "address": "2-16-4 Nishiasakusa, Taito Qu\u00e2\u0323n Tokyo", "lat": 35.71313, "lng": 139.79056, "ref_id": 3790818, "rating": 4, "num_reviews": 0, "website": null, "contact_phone": "+81 3-5828-3313", "contact_email": null, "status": 1, "source_type": 1, "numberReviews": 11}, {"name": "Minatoya Ueno No. 2 Store", "type": "restaurant", "image": "https://dynamic-media-cdn.tripadvisor.com/media/photo-o/0a/94/52/f4/photo4jpg.jpg?w=1000&s=1", "address": "4-10-17, Ueno, Taito 110-0005 Qu\u00e2\u0323n Tokyo", "lat": 35.70839, "lng": 139.77467, "ref_id": 9913497, "rating": 3, "num_reviews": 0, "website": "http://www.ameyoko.net/shop/284", "contact_phone": "+81 3-5818-5611", "contact_email": null, "status": 1, "source_type": 1, "numberReviews": 18}, {"name": "Nomuzo", "type": "restaurant", "image": "https://dynamic-media-cdn.tripadvisor.com/media/photo-o/18/a9/1f/91/photo1jpg.jpg?w=1000&s=1", "address": "2-17-41 Utsukushigaoka Aoba-Ku, Yokohama tinh Kanagawa", "lat": 35.579716, "lng": 139.55951, "ref_id": 7422602, "rating": 4.5, "num_reviews": 0, "website": null, "contact_phone": "+81 45-902-9822", "contact_email": null, "status": 1, "source_type": 1, "numberReviews": 5}, {"name": "Ushikazu", "type": "restaurant", "image": "https://dynamic-media-cdn.tripadvisor.com/media/photo-o/08/35/57/06/caption.jpg?w=1000&s=1", "address": "4-1-14 Setagaya 2F Rowa Shoin, Setagaya 154-0017 Qu\u00e2\u0323n Tokyo", "lat": 35.642532, "lng": 139.6548, "ref_id": 7493061, "rating": 5, "num_reviews": 0, "website": null, "contact_phone": "+81 3-5779-6229", "contact_email": null, "status": 1, "source_type": 1, "numberReviews": 5}, {"name": "Sobadokoro Sakamoto", "type": "restaurant", "image": "https://dynamic-media-cdn.tripadvisor.com/media/photo-o/0e/49/2c/d4/caption.jpg?w=1000&s=1", "address": "1-1-1 Mizusawa Miyamae-Ku, Kawasaki tinh Kanagawa", "lat": 35.590775, "lng": 139.54944, "ref_id": 7419377, "rating": 4.5, "num_reviews": 0, "website": null, "contact_phone": "+81 44-975-2857", "contact_email": null, "status": 1, "source_type": 1, "numberReviews": 9}, {"name": "Chojiro Futako-Tamagawa", "type": "restaurant", "image": "https://dynamic-media-cdn.tripadvisor.com/media/photo-o/0e/d9/f3/21/photo2jpg.jpg?w=1000&s=1", "address": "2-23 Tamagawa Futakotamagawa Rise Dogwood Plaza 8F, Setagaya 158-0094 Qu\u00e2\u0323n Tokyo", "lat": 35.613033, "lng": 139.62741, "ref_id": 6055951, "rating": 3.5, "num_reviews": 0, "website": "http://www.chojiro-kyoto.com/shop/shop.php?id=43", "contact_phone": "+81 3-6431-0658", "contact_email": null, "status": 1, "source_type": 1, "numberReviews": 32}, {"name": "Rairaitei, Kawasaki Sugao", "type": "restaurant", "image": "https://dynamic-media-cdn.tripadvisor.com/media/photo-o/13/9b/be/53/dsc-0806-largejpg.jpg?w=1000&s=1", "address": "1-1-3 Sugao, Miyamae-Ku, Kawasaki 216-0015 tinh Kanagawa", "lat": 35.596046, "lng": 139.55794, "ref_id": 7420148, "rating": 4, "num_reviews": 0, "website": "http://www.rairaitei.co.jp/", "contact_phone": "+81 44-976-8727", "contact_email": null, "status": 1, "source_type": 1, "numberReviews": 9}, {"name": "Arirang Korean Katei Ryori", "type": "restaurant", "image": null, "address": "1727-1 Oshima, Inashiki 300-0721 Ibaraki Prefecture", "lat": 35.936474, "lng": 140.55171, "ref_id": 9666700, "rating": -1, "num_reviews": 0, "website": null, "contact_phone": "+81 299-77-5787", "contact_email": null, "status": 1, "source_type": 1, "numberReviews": 0}, {"name": "Kuimono Ichiba Yagura", "type": "restaurant", "image": null, "address": "3-24 Kitakisadayawarairiai, Kashima 314-0026 Ibaraki Prefecture", "lat": 35.95482, "lng": 140.63857, "ref_id": 6956057, "rating": -1, "num_reviews": 0, "website": null, "contact_phone": "+81 120-847-203", "contact_email": null, "status": 1, "source_type": 1, "numberReviews": 0}, {"name": "Ikoi Sushi", "type": "restaurant", "image": null, "address": "91 Aso, Namegata 311-3832 Ibaraki Prefecture", "lat": 35.98637, "lng": 140.48746, "ref_id": 9666723, "rating": -1, "num_reviews": 0, "website": null, "contact_phone": "+81 299-72-0115", "contact_email": null, "status": 1, "source_type": 1, "numberReviews": 0}, {"name": "Azuma", "type": "restaurant", "image": null, "address": "2847-5 Nishishiro, Inashiki 300-0726 Ibaraki Prefecture", "lat": 35.92253, "lng": 140.4875, "ref_id": 9666704, "rating": -1, "num_reviews": 0, "website": null, "contact_phone": "+81 299-78-3305", "contact_email": null, "status": 1, "source_type": 1, "numberReviews": 0}, {"name": "Gohei", "type": "restaurant", "image": null, "address": "822-7 Wa, Kashima 311-2215 Ibaraki Prefecture", "lat": 36.040962, "lng": 140.61127, "ref_id": 9949062, "rating": -1, "num_reviews": 0, "website": null, "contact_phone": "+81 299-69-0741", "contact_email": null, "status": 1, "source_type": 1, "numberReviews": 0}, {"name": "Teryouriya Uchinotyama", "type": "restaurant", "image": null, "address": "1617 Kasukawacho, Isesaki 372-0023 Gunma Prefecture", "lat": 36.31511, "lng": 139.21275, "ref_id": 25078585, "rating": -1, "num_reviews": 0, "website": "https://www.uchino-chanoma.jp/", "contact_phone": "+81 270-61-9456", "contact_email": null, "status": 1, "source_type": 1, "numberReviews": 0}, {"name": "Hisadaya Soba", "type": "restaurant", "image": null, "address": "1-30-15 Bunkyocho, Maebashi 371-0801 Gunma Prefecture", "lat": 36.38086, "lng": 139.07767, "ref_id": 9630225, "rating": -1, "num_reviews": 0, "website": null, "contact_phone": "+81 27-224-2137", "contact_email": null, "status": 1, "source_type": 1, "numberReviews": 0}, {"name": "Gentle Men", "type": "restaurant", "image": null, "address": "5-5-2 Chiyodacho, Maebashi 371-0022 Gunma Prefecture", "lat": 36.390575, "lng": 139.0727, "ref_id": 10655137, "rating": -1, "num_reviews": 0, "website": null, "contact_phone": "+81 27-233-5233", "contact_email": null, "status": 1, "source_type": 1, "numberReviews": 0}, {"name": "Restaurant Jin", "type": "restaurant", "image": null, "address": "74-1 Yahatacho, Isesaki Gunma Prefecture", "lat": 36.336338, "lng": 139.19954, "ref_id": 7635109, "rating": -1, "num_reviews": 0, "website": null, "contact_phone": "+81 270-26-7342", "contact_email": null, "status": 1, "source_type": 1, "numberReviews": 0}, {"name": "Senryu", "type": "restaurant", "image": null, "address": "387 Shimouekicho, Isesaki Gunma Prefecture", "lat": 36.319107, "lng": 139.20825, "ref_id": 7567456, "rating": -1, "num_reviews": 0, "website": null, "contact_phone": "+81 270-24-3296", "contact_email": null, "status": 1, "source_type": 1, "numberReviews": 0}, {"name": "Tetsu", "type": "restaurant", "image": null, "address": "17-15 Hommachi The 7NA Bldg. 1F, Isesaki 372-0047 Gunma Prefecture", "lat": 36.31961, "lng": 139.19499, "ref_id": 14960593, "rating": -1, "num_reviews": 0, "website": null, "contact_phone": "+81 270-75-3377", "contact_email": null, "status": 1, "source_type": 1, "numberReviews": 0}, {"name": "Miraaju", "type": "restaurant", "image": null, "address": "5-3-4 Chiyodamachi, Maebashi 371-0022 Gunma Prefecture", "lat": 36.389965, "lng": 139.07265, "ref_id": 14756949, "rating": -1, "num_reviews": 0, "website": null, "contact_phone": "+81 27-234-5275", "contact_email": null, "status": 1, "source_type": 1, "numberReviews": 0}, {"name": "Miyazawa Seimen Kojo", "type": "restaurant", "image": null, "address": "1-25-1 Omotemachi, Maebashi 371-0024 Gunma Prefecture", "lat": 36.383896, "lng": 139.06885, "ref_id": 9685453, "rating": -1, "num_reviews": 0, "website": null, "contact_phone": "+81 27-221-5515", "contact_email": null, "status": 1, "source_type": 1, "numberReviews": 0}, {"name": "Kissa Port Gunmaken Shakai Fukushi Sogo Center Main Store", "type": "restaurant", "image": null, "address": "6 Higashi Mukiminamimachi Nara Women's Center 1F, Maebashi 371-0843 Gunma Prefecture", "lat": 36.380253, "lng": 139.0495, "ref_id": 9685507, "rating": -1, "num_reviews": 0, "website": null, "contact_phone": "+81 27-255-6149", "contact_email": null, "status": 1, "source_type": 1, "numberReviews": 0}, {"name": "Yakiya Minami", "type": "restaurant", "image": "https://dynamic-media-cdn.tripadvisor.com/media/photo-o/05/d5/08/9b/yakiya-minami.jpg?w=1000&s=1", "address": "2-45-1 Minamicho Nanbu Heights 103, Maebashi 371-0805 Gunma Prefecture", "lat": 36.375416, "lng": 139.06549, "ref_id": 6057625, "rating": -1, "num_reviews": 0, "website": null, "contact_phone": "+81 27-257-6115", "contact_email": null, "status": 1, "source_type": 1, "numberReviews": 0}, {"name": "Tanuki", "type": "restaurant", "image": null, "address": "4-21-6 Chiyodacho, Maebashi Gunma Prefecture", "lat": 36.39253, "lng": 139.07216, "ref_id": 7417265, "rating": -1, "num_reviews": 0, "website": null, "contact_phone": "+81 27-233-3131", "contact_email": null, "status": 1, "source_type": 1, "numberReviews": 0}, {"name": "Horumon Hamayaki Kagero", "type": "restaurant", "image": null, "address": "3-5-12 Jotomachi, Maebashi 371-0016 Gunma Prefecture", "lat": 36.391865, "lng": 139.07494, "ref_id": 9636256, "rating": -1, "num_reviews": 0, "website": null, "contact_phone": "+81 27-289-4233", "contact_email": null, "status": 1, "source_type": 1, "numberReviews": 0}, {"name": "Sweet Basil Gumma-Machi", "type": "restaurant", "image": null, "address": "20-234 Sugaya-Machi, Takasaki Gunma Prefecture", "lat": 36.3813, "lng": 139.02019, "ref_id": 7430012, "rating": -1, "num_reviews": 0, "website": null, "contact_phone": "+81 27-372-5768", "contact_email": null, "status": 1, "source_type": 1, "numberReviews": 0}, {"name": "Poison", "type": "restaurant", "image": null, "address": "2159 Motosojacho, Maebashi Gunma Prefecture", "lat": 36.388206, "lng": 139.03297, "ref_id": 7417307, "rating": -1, "num_reviews": 0, "website": null, "contact_phone": "+81 27-254-1199", "contact_email": null, "status": 1, "source_type": 1, "numberReviews": 0}, {"name": "Kamoshiya", "type": "restaurant", "image": "https://dynamic-media-cdn.tripadvisor.com/media/photo-o/08/f4/b5/8f/photo2jpg.jpg?w=1000&s=1", "address": "39 Otsuka, Ogawa-machi, Hiki-gun 355-0328 Saitama Prefecture", "lat": 36.05641, "lng": 139.2597, "ref_id": 7474311, "rating": 5, "num_reviews": 0, "website": "http://www.kamoshiya.com/", "contact_phone": null, "contact_email": null, "status": 1, "source_type": 1, "numberReviews": 2}, {"name": "Jojo Udon", "type": "restaurant", "image": "https://dynamic-media-cdn.tripadvisor.com/media/photo-o/1b/2d/02/07/caption.jpg?w=1000&s=1", "address": "247 Oaza Minamiheizawa, Hidaka 350-1206 Saitama Prefecture", "lat": 35.90432, "lng": 139.33432, "ref_id": 14856939, "rating": 4, "num_reviews": 0, "website": null, "contact_phone": "+81 42-985-1116", "contact_email": null, "status": 1, "source_type": 1, "numberReviews": 1}, {"name": "Menya Ikko", "type": "restaurant", "image": "https://dynamic-media-cdn.tripadvisor.com/media/photo-o/09/d0/f5/f7/photo0jpg.jpg?w=1000&s=1", "address": "48-1 Yaenda, Hidaka 350-1236 Saitama Prefecture", "lat": 35.890697, "lng": 139.33194, "ref_id": 1671869, "rating": 3.5, "num_reviews": 0, "website": "", "contact_phone": "+81 42-986-0292", "contact_email": "", "status": 1, "source_type": 1, "numberReviews": 3}, {"name": "Office", "type": "restaurant", "image": null, "address": "3-31-1 Isobe, Mihama-Ku Chiba Kaihin Hospital 2F, Chiba 261-0012 Qu\u00e2\u0323n Chiba", "lat": 35.6277, "lng": 140.05132, "ref_id": 9919404, "rating": -1, "num_reviews": 0, "website": null, "contact_phone": "+81 43-277-7711", "contact_email": null, "status": 1, "source_type": 1, "numberReviews": 0}, {"name": "Kushi-Ya Yokocho Anesaki Ekimae", "type": "restaurant", "image": null, "address": "534-5 Anegasaki, Ichihara Qu\u00e2\u0323n Chiba", "lat": 35.47855, "lng": 140.04305, "ref_id": 7573693, "rating": -1, "num_reviews": 0, "website": "https://www.facebook.com/kusiyaanesaki01/about/?ref=page_internal", "contact_phone": "+81 436-61-5691", "contact_email": null, "status": 1, "source_type": 1, "numberReviews": 0}, {"name": "Cafe Triton", "type": "restaurant", "image": null, "address": "2-7-17 Kamo, Ichihara 290-0025 Qu\u00e2\u0323n Chiba", "lat": 35.505165, "lng": 140.10942, "ref_id": 13258662, "rating": -1, "num_reviews": 0, "website": null, "contact_phone": "+81 436-25-6273", "contact_email": null, "status": 1, "source_type": 1, "numberReviews": 0}, {"name": "Izakaya Komichi", "type": "restaurant", "image": null, "address": "8939 Goi, Ichihara Qu\u00e2\u0323n Chiba", "lat": 35.529922, "lng": 140.08504, "ref_id": 7573842, "rating": -1, "num_reviews": 0, "website": null, "contact_phone": "+81 436-22-5082", "contact_email": null, "status": 1, "source_type": 1, "numberReviews": 0}, {"name": "Tagawa", "type": "restaurant", "image": null, "address": "15-1 Aoyagi, Ichihara Qu\u00e2\u0323n Chiba", "lat": 35.504677, "lng": 140.07132, "ref_id": 7573994, "rating": -1, "num_reviews": 0, "website": null, "contact_phone": "+81 436-21-7264", "contact_email": null, "status": 1, "source_type": 1, "numberReviews": 0}, {"name": "Yakitori Kei", "type": "restaurant", "image": null, "address": "1147-3 Noman, Ichihara 290-0011 Qu\u00e2\u0323n Chiba", "lat": 35.51268, "lng": 140.1322, "ref_id": 14754386, "rating": -1, "num_reviews": 0, "website": null, "contact_phone": "+81 436-37-1967", "contact_email": null, "status": 1, "source_type": 1, "numberReviews": 0}, {"name": "France Ryori Cafe de Moemu", "type": "restaurant", "image": null, "address": "2227 Heizo, Ichihara 290-0056 Qu\u00e2\u0323n Chiba", "lat": 35.347015, "lng": 140.199, "ref_id": 9946456, "rating": -1, "num_reviews": 0, "website": null, "contact_phone": "+81 436-21-5533", "contact_email": null, "status": 1, "source_type": 1, "numberReviews": 0}, {"name": "Izakaya Meme", "type": "restaurant", "image": null, "address": "245-1 Imazu Asayama, Ichihara 299-0106 Qu\u00e2\u0323n Chiba", "lat": 35.488842, "lng": 140.05156, "ref_id": 9958148, "rating": -1, "num_reviews": 0, "website": null, "contact_phone": "+81 436-63-6688", "contact_email": null, "status": 1, "source_type": 1, "numberReviews": 0}, {"name": "Bar X Cafe 5", "type": "restaurant", "image": null, "address": "7-10 Hon Chibacho Chuo-Ku, Chiba Qu\u00e2\u0323n Chiba", "lat": 35.606827, "lng": 140.11888, "ref_id": 7415347, "rating": -1, "num_reviews": 0, "website": null, "contact_phone": "+81 43-224-5101", "contact_email": null, "status": 1, "source_type": 1, "numberReviews": 0}, {"name": "Kyukeidokoro Tamura", "type": "restaurant", "image": null, "address": "966-1 Tsukizaki, Ichihara 290-0547 Qu\u00e2\u0323n Chiba", "lat": 35.299866, "lng": 140.13423, "ref_id": 12518903, "rating": -1, "num_reviews": 0, "website": null, "contact_phone": "+81 436-96-0239", "contact_email": null, "status": 1, "source_type": 1, "numberReviews": 0}, {"name": "Kumagai", "type": "restaurant", "image": null, "address": "2-17-12 Fujimi Chuo-Ku, Chiba Qu\u00e2\u0323n Chiba", "lat": 35.608837, "lng": 140.11859, "ref_id": 7415469, "rating": -1, "num_reviews": 0, "website": null, "contact_phone": "+81 43-441-3666", "contact_email": null, "status": 1, "source_type": 1, "numberReviews": 0}, {"name": "Bar Encount Yawatajuku Main Store", "type": "restaurant", "image": null, "address": "1126 Yawata, Ichihara Qu\u00e2\u0323n Chiba", "lat": 35.53916, "lng": 140.11652, "ref_id": 7573532, "rating": -1, "num_reviews": 0, "website": null, "contact_phone": "+81 436-63-3556", "contact_email": null, "status": 1, "source_type": 1, "numberReviews": 0}, {"name": "Tempura Matsukawa", "type": "restaurant", "image": null, "address": "1-1-3 Shinjuku, Chuo-Ku, Chiba 260-0021 Qu\u00e2\u0323n Chiba", "lat": 35.60704, "lng": 140.11295, "ref_id": 9683911, "rating": -1, "num_reviews": 0, "website": null, "contact_phone": "+81 43-247-9701", "contact_email": null, "status": 1, "source_type": 1, "numberReviews": 0}, {"name": "Izumi Enterprise", "type": "restaurant", "image": null, "address": "4-28-15 Oyumino Minami Midori-Ku, Chiba Qu\u00e2\u0323n Chiba", "lat": 35.543648, "lng": 140.16821, "ref_id": 7416158, "rating": -1, "num_reviews": 0, "website": null, "contact_phone": "+81 43-293-6868", "contact_email": null, "status": 1, "source_type": 1, "numberReviews": 0}, {"name": "Spanish Bar & Restaurant Casa", "type": "restaurant", "image": null, "address": "1-11-39 Nishi Jonan, Oyama 323-0820 Tochigi Prefecture", "lat": 36.298725, "lng": 139.79863, "ref_id": 9643251, "rating": -1, "num_reviews": 0, "website": null, "contact_phone": "+81 285-38-8412", "contact_email": null, "status": 1, "source_type": 1, "numberReviews": 0}, {"name": "Wareichi During", "type": "restaurant", "image": null, "address": "3-15 Kauemoncho, Tochigi 328-0072 Tochigi Prefecture", "lat": 36.38912, "lng": 139.73438, "ref_id": 13066504, "rating": -1, "num_reviews": 0, "website": null, "contact_phone": "+81 282-22-2313", "contact_email": null, "status": 1, "source_type": 1, "numberReviews": 0}, {"name": "Cafe & Shot Bar Reversi", "type": "restaurant", "image": null, "address": "924 Tatsugi, Oyama 323-0062 Tochigi Prefecture", "lat": 36.329006, "lng": 139.78949, "ref_id": 14755283, "rating": -1, "num_reviews": 0, "website": null, "contact_phone": "+81 285-37-6492", "contact_email": null, "status": 1, "source_type": 1, "numberReviews": 0}, {"name": "Feel Relieved More Koyama Inuzuka", "type": "restaurant", "image": null, "address": "3-27-20 Inuzuka, Oyama 323-0811 Tochigi Prefecture", "lat": 36.313805, "lng": 139.835, "ref_id": 13065655, "rating": -1, "num_reviews": 0, "website": null, "contact_phone": "+81 285-30-4517", "contact_email": null, "status": 1, "source_type": 1, "numberReviews": 0}, {"name": "Arakawaya Main Store", "type": "restaurant", "image": null, "address": "1131 Oaza Shimo Kawarada, Oyama 323-0052 Tochigi Prefecture", "lat": 36.30611, "lng": 139.7386, "ref_id": 13065414, "rating": -1, "num_reviews": 0, "website": null, "contact_phone": "+81 285-38-0090", "contact_email": null, "status": 1, "source_type": 1, "numberReviews": 0}, {"name": "Kanoko Hermitage", "type": "restaurant", "image": null, "address": "1-1-25 Sonobecho, Tochigi 328-0074 Tochigi Prefecture", "lat": 36.37803, "lng": 139.72372, "ref_id": 13065894, "rating": -1, "num_reviews": 0, "website": null, "contact_phone": "+81 282-23-0111", "contact_email": null, "status": 1, "source_type": 1, "numberReviews": 0}, {"name": "Utakichi", "type": "restaurant", "image": null, "address": "1144-6 Oaza Nakakuki, Oyama 323-0806 Tochigi Prefecture", "lat": 36.3178, "lng": 139.8475, "ref_id": 10656071, "rating": -1, "num_reviews": 0, "website": null, "contact_phone": "+81 285-25-4025", "contact_email": null, "status": 1, "source_type": 1, "numberReviews": 0}, {"name": "Renard", "type": "restaurant", "image": null, "address": "461-1 Togacho Hirakawa, Tochigi 328-0112 Tochigi Prefecture", "lat": 36.408344, "lng": 139.74821, "ref_id": 14928818, "rating": -1, "num_reviews": 0, "website": null, "contact_phone": "+81 282-51-9160", "contact_email": null, "status": 1, "source_type": 1, "numberReviews": 0}, {"name": "Tsubomi", "type": "restaurant", "image": null, "address": "4-11-17 Katayanagicho, Tochigi 328-0053 Tochigi Prefecture", "lat": 36.366398, "lng": 139.7164, "ref_id": 9665596, "rating": -1, "num_reviews": 0, "website": null, "contact_phone": "+81 282-51-9014", "contact_email": null, "status": 1, "source_type": 1, "numberReviews": 0}, {"name": "Uosan Co., Ltd. Shimoishi-Zuka", "type": "restaurant", "image": null, "address": "473 Shimo Ishizuka, Oyama 323-0064 Tochigi Prefecture", "lat": 36.314247, "lng": 139.76955, "ref_id": 9620049, "rating": -1, "num_reviews": 0, "website": null, "contact_phone": "+81 285-38-1211", "contact_email": null, "status": 1, "source_type": 1, "numberReviews": 0}, {"name": "Kagakukan Lounge", "type": "restaurant", "image": null, "address": "567 Nishi Kawatacho Tochigi Prefecture Children's Science Museum, Utsunomiya 321-0151 Tochigi Prefecture", "lat": 36.513733, "lng": 139.83708, "ref_id": 9671932, "rating": -1, "num_reviews": 0, "website": null, "contact_phone": "+81 28-659-2348", "contact_email": null, "status": 1, "source_type": 1, "numberReviews": 0}, {"name": "Yamaya", "type": "restaurant", "image": null, "address": "14-1 Fujimicho, Tochigi Tochigi Prefecture", "lat": 36.376064, "lng": 139.72948, "ref_id": 7428469, "rating": -1, "num_reviews": 0, "website": null, "contact_phone": "+81 282-22-2779", "contact_email": null, "status": 1, "source_type": 1, "numberReviews": 0}, {"name": "Japanese Dining  Ajito Tsukuba Ebisu Town", "type": "restaurant", "image": null, "address": "Kenkyugakuen 4-2-14, Tsukuba 305-0817 Ibaraki Prefecture", "lat": 36.08545, "lng": 140.07974, "ref_id": 16827235, "rating": -1, "num_reviews": 0, "website": "https://ajito.horiifood.co.jp/ajito/ibaraki/9784440", "contact_phone": "+81 50-1705-3279", "contact_email": null, "status": 1, "source_type": 1, "numberReviews": 0}, {"name": "Italian Prime, Takezono Branch", "type": "restaurant", "image": null, "address": "2-3-17 Takezono Issei Bldg, Tsukuba 305-0032 Ibaraki Prefecture", "lat": 36.07893, "lng": 140.11914, "ref_id": 9660071, "rating": -1, "num_reviews": 0, "website": null, "contact_phone": "+81 29-852-8871", "contact_email": null, "status": 1, "source_type": 1, "numberReviews": 0}, {"name": "Botan", "type": "restaurant", "image": null, "address": "5-6-6 Kenkyugakuen, Tsukuba 305-0817 Ibaraki Prefecture", "lat": 36.083706, "lng": 140.08127, "ref_id": 18454053, "rating": -1, "num_reviews": 0, "website": null, "contact_phone": "+81 70-1301-3344", "contact_email": null, "status": 1, "source_type": 1, "numberReviews": 0}, {"name": "Yoshinoya Tsukuba Amakubo", "type": "restaurant", "image": null, "address": "2 Chome-15-1 Amakubo, Tsukuba 305-0005 Ibaraki Prefecture", "lat": 36.099037, "lng": 140.11012, "ref_id": 17467754, "rating": -1, "num_reviews": 0, "website": "https://stores.yoshinoya.com/ysn_046954", "contact_phone": "+81 29-893-3129", "contact_email": null, "status": 1, "source_type": 1, "numberReviews": 0}, {"name": "Shanghai Home Cooking Kintei", "type": "restaurant", "image": null, "address": "2640-13 Ami, Ami-machi, Inashiki-gun 300-0331 Ibaraki Prefecture", "lat": 36.040398, "lng": 140.20294, "ref_id": 17362302, "rating": -1, "num_reviews": 0, "website": null, "contact_phone": "+81 29-888-2588", "contact_email": null, "status": 1, "source_type": 1, "numberReviews": 0}, {"name": "Pork Cutlet Yamamura", "type": "restaurant", "image": null, "address": "1050-1 Shibasaki, Tsukuba 305-0004 Ibaraki Prefecture", "lat": 36.10916, "lng": 140.11955, "ref_id": 13029535, "rating": -1, "num_reviews": 0, "website": null, "contact_phone": "+81 29-857-4588", "contact_email": null, "status": 1, "source_type": 1, "numberReviews": 0}, {"name": "Hoshi", "type": "restaurant", "image": null, "address": "2-7-6 Sakuramachi, Tsuchiura 300-0037 Ibaraki Prefecture", "lat": 36.07857, "lng": 140.19989, "ref_id": 17301252, "rating": -1, "num_reviews": 0, "website": null, "contact_phone": "+81 29-824-1588", "contact_email": null, "status": 1, "source_type": 1, "numberReviews": 0}, {"name": "Inaka Nombe Tanuki", "type": "restaurant", "image": null, "address": "6293-7 Shishikura, Kasumigaura 300-0121 Ibaraki Prefecture", "lat": 36.119156, "lng": 140.26004, "ref_id": 9955441, "rating": -1, "num_reviews": 0, "website": null, "contact_phone": "+81 29-832-5500", "contact_email": null, "status": 1, "source_type": 1, "numberReviews": 0}, {"name": "Men-Ya Masagen Ami", "type": "restaurant", "image": null, "address": "2138-7 Nakamuranishine, Tsuchiura Ibaraki Prefecture", "lat": 36.044575, "lng": 140.15279, "ref_id": 7424276, "rating": -1, "num_reviews": 0, "website": null, "contact_phone": "+81 29-843-0755", "contact_email": null, "status": 1, "source_type": 1, "numberReviews": 0}, {"name": "Oishiya", "type": "restaurant", "image": null, "address": "2-1-18 Kokufu, Ishioka 315-0015 Ibaraki Prefecture", "lat": 36.19029, "lng": 140.27612, "ref_id": 13938689, "rating": -1, "num_reviews": 0, "website": null, "contact_phone": "+81 90-2525-5019", "contact_email": null, "status": 1, "source_type": 1, "numberReviews": 0}, {"name": "Kiyama Sushi Namiki", "type": "restaurant", "image": null, "address": "3488-3 Higashi Namikicho, Tsuchiura 300-0069 Ibaraki Prefecture", "lat": 36.107132, "lng": 140.18953, "ref_id": 9652913, "rating": -1, "num_reviews": 0, "website": null, "contact_phone": "+81 29-821-2160", "contact_email": null, "status": 1, "source_type": 1, "numberReviews": 0}, {"name": "Thai Bangkok", "type": "restaurant", "image": "https://dynamic-media-cdn.tripadvisor.com/media/photo-o/05/d5/25/f8/thai-bangkok.jpg?w=1000&s=1", "address": "1329-2 Arakawahongo Ami-Machi Okubo Tenant 102, Ami-machi, Inashiki-gun 300-1152 Ibaraki Prefecture", "lat": 36.02419, "lng": 140.1684, "ref_id": 6048953, "rating": -1, "num_reviews": 0, "website": null, "contact_phone": "+81 29-843-0866", "contact_email": null, "status": 1, "source_type": 1, "numberReviews": 0}, {"name": "Gonzo", "type": "restaurant", "image": null, "address": "2-11-15 Takezono, Tsukuba 305-0032 Ibaraki Prefecture", "lat": 36.078228, "lng": 140.12161, "ref_id": 6053831, "rating": -1, "num_reviews": 0, "website": "http://gonzo.gorp.jp/", "contact_phone": "+81 29-860-6715", "contact_email": null, "status": 1, "source_type": 1, "numberReviews": 10}, {"name": "Sakana Shunsai Kushiyaki Kintaro", "type": "restaurant", "image": null, "address": "2-1-60 Takamihara, Tsukuba 300-1252 Ibaraki Prefecture", "lat": 35.99315, "lng": 140.13263, "ref_id": 9671548, "rating": -1, "num_reviews": 0, "website": null, "contact_phone": "+81 29-871-0988", "contact_email": null, "status": 1, "source_type": 1, "numberReviews": 0}, {"name": "Sushi no Danbei", "type": "restaurant", "image": null, "address": "7-6 Yamatocho, Tsuchiura 300-0036 Ibaraki Prefecture", "lat": 36.078968, "lng": 140.20306, "ref_id": 4663709, "rating": -1, "num_reviews": 0, "website": "http://danbei.jp/", "contact_phone": "+81 29-822-1025", "contact_email": null, "status": 1, "source_type": 1, "numberReviews": 0}, {"name": "Chimmayatsuchiura Kandatsu", "type": "restaurant", "image": null, "address": "3440-3 Kandatsu, Tsuchiura Ibaraki Prefecture", "lat": 36.110386, "lng": 140.2181, "ref_id": 7424278, "rating": -1, "num_reviews": 0, "website": null, "contact_phone": "+81 29-834-7088", "contact_email": null, "status": 1, "source_type": 1, "numberReviews": 0}, {"name": "Raimugi", "type": "restaurant", "image": null, "address": "1-6-16 Sakuramachi, Tsuchiura Ibaraki Prefecture", "lat": 36.077374, "lng": 140.20433, "ref_id": 7424073, "rating": -1, "num_reviews": 0, "website": null, "contact_phone": "+81 29-822-8922", "contact_email": null, "status": 1, "source_type": 1, "numberReviews": 0}, {"name": "Dulce Mina", "type": "restaurant", "image": "https://dynamic-media-cdn.tripadvisor.com/media/photo-o/16/36/29/09/caption.jpg?w=1000&s=1", "address": "3-11-2 Higashino, Moriya 302-0131 Ibaraki Prefecture", "lat": 35.95016, "lng": 140.0001, "ref_id": 13028680, "rating": 4, "num_reviews": 0, "website": "http://dulcemina.jp/", "contact_phone": "+81 297-45-2740", "contact_email": null, "status": 1, "source_type": 1, "numberReviews": 3}, {"name": "Tonikaku Minamimoriya", "type": "restaurant", "image": "https://dynamic-media-cdn.tripadvisor.com/media/photo-o/12/a5/74/56/photo2jpg.jpg?w=1000&s=1", "address": "400-1 Koyama, Moriya 302-0122 Ibaraki Prefecture", "lat": 35.931705, "lng": 140.00768, "ref_id": 13029793, "rating": 4, "num_reviews": 0, "website": null, "contact_phone": "+81 297-21-4400", "contact_email": null, "status": 1, "source_type": 1, "numberReviews": 3}, {"name": "Osaka King Lotus Root Store", "type": "restaurant", "image": null, "address": "2-31-27 Hasune, Itabashi 174-0046 Qu\u00e2\u0323n Tokyo", "lat": 35.784946, "lng": 139.67899, "ref_id": 13268472, "rating": 3, "num_reviews": 0, "website": null, "contact_phone": "+81 3-6454-9235", "contact_email": null, "status": 1, "source_type": 1, "numberReviews": 1}, {"name": "Choryu", "type": "restaurant", "image": null, "address": "32-3 Shimizucho, Itabashi 174-0053 Qu\u00e2\u0323n Tokyo", "lat": 35.76215, "lng": 139.70679, "ref_id": 9982011, "rating": 3, "num_reviews": 0, "website": null, "contact_phone": "+81 3-3964-3926", "contact_email": null, "status": 1, "source_type": 1, "numberReviews": 2}, {"name": "Gyushige, Kawaguchi", "type": "restaurant", "image": null, "address": "3-9-11 Sakaecho Riva Bldg. 2F, Kawaguchi 332-0017 Saitama Prefecture", "lat": 35.803326, "lng": 139.71992, "ref_id": 5544648, "rating": 3, "num_reviews": 0, "website": "http://www.gyushige.com/shop/index_saitama.html", "contact_phone": "+81 48-240-2229", "contact_email": null, "status": 1, "source_type": 1, "numberReviews": 1}, {"name": "Chimma", "type": "restaurant", "image": "https://dynamic-media-cdn.tripadvisor.com/media/photo-o/11/4e/0f/21/dsc-0005-1502827567286.jpg?w=1000&s=1", "address": "8-3-3 Takashimadaira 1F Shinomoto Dai 2 Bldg., Itabashi 175-0082 Qu\u00e2\u0323n Tokyo", "lat": 35.789593, "lng": 139.66049, "ref_id": 13152910, "rating": 3, "num_reviews": 0, "website": null, "contact_phone": "+81 3-3936-8631", "contact_email": null, "status": 1, "source_type": 1, "numberReviews": 1}, {"name": "Noodle Shop", "type": "restaurant", "image": null, "address": "2104-16 Hikawacho, Soka 340-0034 Saitama Prefecture", "lat": 35.826767, "lng": 139.80067, "ref_id": 20165003, "rating": 3, "num_reviews": 0, "website": null, "contact_phone": "+81 48-948-8987", "contact_email": null, "status": 1, "source_type": 1, "numberReviews": 1}, {"name": "Sarashina", "type": "restaurant", "image": "https://dynamic-media-cdn.tripadvisor.com/media/photo-o/12/3b/19/af/caption.jpg?w=1000&s=1", "address": "1-12-3 Azusawa, Itabashi 174-0051 Qu\u00e2\u0323n Tokyo", "lat": 35.77342, "lng": 139.69862, "ref_id": 9899061, "rating": 3, "num_reviews": 0, "website": null, "contact_phone": "+81 3-3966-5438", "contact_email": null, "status": 1, "source_type": 1, "numberReviews": 1}, {"name": "Myorikido", "type": "restaurant", "image": "https://dynamic-media-cdn.tripadvisor.com/media/photo-o/1d/16/c5/1b/caption.jpg?w=1000&s=1", "address": "2-21-46 Nakaaoki, Kawaguchi 332-0032 Saitama Prefecture", "lat": 35.80965, "lng": 139.72221, "ref_id": 14755624, "rating": 3, "num_reviews": 0, "website": null, "contact_phone": "+81 48-251-5782", "contact_email": null, "status": 1, "source_type": 1, "numberReviews": 1}, {"name": "Yakitori Yatagarasu Oji", "type": "restaurant", "image": null, "address": "1-17-1 Oji 1F, Kita 114-0002 Qu\u00e2\u0323n Tokyo", "lat": 35.754772, "lng": 139.73814, "ref_id": 17411164, "rating": 3, "num_reviews": 0, "website": null, "contact_phone": "+81 3-5933-6825", "contact_email": null, "status": 1, "source_type": 1, "numberReviews": 1}, {"name": "Cafe Yui\uff70and", "type": "restaurant", "image": "https://dynamic-media-cdn.tripadvisor.com/media/photo-o/2a/ea/9a/ee/caption.jpg?w=1000&s=1", "address": "1-4-6 Nishiikuta, Tama-Ku, Kawasaki 214-0037 tinh Kanagawa", "lat": 35.6152, "lng": 139.52974, "ref_id": 13051479, "rating": 4, "num_reviews": 0, "website": null, "contact_phone": "+81 44-712-0038", "contact_email": null, "status": 1, "source_type": 1, "numberReviews": 1}, {"name": "Toshima", "type": "restaurant", "image": null, "address": "1-15-6 Miyanishicho, Fuchu 183-0022 Qu\u00e2\u0323n Tokyo", "lat": 35.672157, "lng": 139.47705, "ref_id": 13161893, "rating": -1, "num_reviews": 0, "website": null, "contact_phone": "+81 42-368-2471", "contact_email": null, "status": 1, "source_type": 1, "numberReviews": 0}, {"name": "Shunkato Masa", "type": "restaurant", "image": null, "address": "3-10-1 Midoricho, Fuchu 183-0006 Qu\u00e2\u0323n Tokyo", "lat": 35.67061, "lng": 139.49284, "ref_id": 19266535, "rating": -1, "num_reviews": 0, "website": null, "contact_phone": "+81 42-361-8315", "contact_email": null, "status": 1, "source_type": 1, "numberReviews": 0}, {"name": "Yakiniku Torisakaba Ishida Shoten Kokubunji", "type": "restaurant", "image": null, "address": "3-4-4 Honcho Sakae Bldg. B1F, Kokubunji 185-0012 Qu\u00e2\u0323n Tokyo", "lat": 35.700996, "lng": 139.47969, "ref_id": 25064720, "rating": -1, "num_reviews": 0, "website": "https://www.instagram.com/toribunji/", "contact_phone": "+81 42-328-0154", "contact_email": null, "status": 1, "source_type": 1, "numberReviews": 0}, {"name": "Allemande Hiro", "type": "restaurant", "image": null, "address": "2-6-5 Takagicho Grace-kunitachi 1F, Kokubunji 185-0036 Qu\u00e2\u0323n Tokyo", "lat": 35.710556, "lng": 139.44064, "ref_id": 23814871, "rating": -1, "num_reviews": 0, "website": "https://www.allemandehiro.tokyo", "contact_phone": "+81 42-848-5885", "contact_email": "infio@allemandehiro.tokyo", "status": 1, "source_type": 1, "numberReviews": 0}, {"name": "Coffee Ya Hachioji Kobo", "type": "restaurant", "image": null, "address": "10-14 Yokoyamacho 1F, Hachioji 192-0081 Qu\u00e2\u0323n Tokyo", "lat": 35.659695, "lng": 139.33455, "ref_id": 14750193, "rating": -1, "num_reviews": 0, "website": null, "contact_phone": "+81 42-649-2122", "contact_email": null, "status": 1, "source_type": 1, "numberReviews": 0}, {"name": "Sanremo", "type": "restaurant", "image": null, "address": "1-3-29 Hanakoganei, Kodaira 187-0002 Qu\u00e2\u0323n Tokyo", "lat": 35.72716, "lng": 139.5123, "ref_id": 9898715, "rating": -1, "num_reviews": 0, "website": null, "contact_phone": "+81 42-465-6321", "contact_email": null, "status": 1, "source_type": 1, "numberReviews": 0}, {"name": "Sukiyaki Ryusha Hachiouji", "type": "restaurant", "image": null, "address": "7-9 Asahimachi Sagami building 5F, Hachioji 192-0083 Qu\u00e2\u0323n Tokyo", "lat": 35.657238, "lng": 139.3378, "ref_id": 20032559, "rating": -1, "num_reviews": 0, "website": null, "contact_phone": "+81 42-649-7968", "contact_email": null, "status": 1, "source_type": 1, "numberReviews": 0}, {"name": "C Amuse Hishi Tokyo Izumi-Cho", "type": "restaurant", "image": null, "address": "2-14-13 Izumicho, Nishitokyo 202-0011 Qu\u00e2\u0323n Tokyo", "lat": 35.742344, "lng": 139.55098, "ref_id": 9966615, "rating": -1, "num_reviews": 0, "website": null, "contact_phone": "+81 42-438-6681", "contact_email": null, "status": 1, "source_type": 1, "numberReviews": 0}, {"name": "Blarney Stone", "type": "restaurant", "image": null, "address": "14-29 Higashimotocho, Higashikurume Qu\u00e2\u0323n Tokyo", "lat": 35.761936, "lng": 139.53493, "ref_id": 7633700, "rating": -1, "num_reviews": 0, "website": null, "contact_phone": "+81 42-472-1938", "contact_email": null, "status": 1, "source_type": 1, "numberReviews": 0}, {"name": "Torikizoku", "type": "restaurant", "image": null, "address": "5-19 Misakicho F-one forum B1, Hachioji 192-0084 Qu\u00e2\u0323n Tokyo", "lat": 35.657646, "lng": 139.33641, "ref_id": 13065059, "rating": -1, "num_reviews": 0, "website": "http://www.torikizoku.co.jp/shops/detail/182", "contact_phone": "+81 42-634-9723", "contact_email": null, "status": 1, "source_type": 1, "numberReviews": 0}, {"name": "Kadokizushi", "type": "restaurant", "image": null, "address": "344-1 Katakuracho, Hachioji Qu\u00e2\u0323n Tokyo", "lat": 35.64286, "lng": 139.33739, "ref_id": 7509814, "rating": -1, "num_reviews": 0, "website": null, "contact_phone": "+81 42-635-6393", "contact_email": null, "status": 1, "source_type": 1, "numberReviews": 0}, {"name": "Maruyasu Shokudo", "type": "restaurant", "image": null, "address": "2-204-43 Suzukicho, Kodaira Qu\u00e2\u0323n Tokyo", "lat": 35.726944, "lng": 139.50616, "ref_id": 7511995, "rating": -1, "num_reviews": 0, "website": null, "contact_phone": "+81 42-462-3309", "contact_email": null, "status": 1, "source_type": 1, "numberReviews": 0}, {"name": "Higetoku", "type": "restaurant", "image": null, "address": "3-19-13 Tamagawacho, Akishima Qu\u00e2\u0323n Tokyo", "lat": 35.704998, "lng": 139.38147, "ref_id": 7511070, "rating": -1, "num_reviews": 0, "website": null, "contact_phone": "+81 42-546-0205", "contact_email": null, "status": 1, "source_type": 1, "numberReviews": 0}, {"name": "Daisen'Ya Nishi Kokubunji", "type": "restaurant", "image": null, "address": "2-6-2 Nishikoigakubo, Kokubunji Qu\u00e2\u0323n Tokyo", "lat": 35.699932, "lng": 139.4653, "ref_id": 7487141, "rating": -1, "num_reviews": 0, "website": null, "contact_phone": "+81 42-320-4615", "contact_email": null, "status": 1, "source_type": 1, "numberReviews": 0}, {"name": "Nihombare", "type": "restaurant", "image": null, "address": "4-1-2 Sagamihara Chuo-Ku, Sagamihara tinh Kanagawa", "lat": 35.58029, "lng": 139.37233, "ref_id": 7552772, "rating": -1, "num_reviews": 0, "website": null, "contact_phone": "+81 42-750-3555", "contact_email": null, "status": 1, "source_type": 1, "numberReviews": 0}, {"name": "Fugetsu", "type": "restaurant", "image": null, "address": "3-13-8 Fuchucho, Fuchu 183-0055 Qu\u00e2\u0323n Tokyo", "lat": 35.676445, "lng": 139.4879, "ref_id": 14901373, "rating": -1, "num_reviews": 0, "website": null, "contact_phone": "+81 42-306-5514", "contact_email": null, "status": 1, "source_type": 1, "numberReviews": 0}, {"name": "Ramen Shoin", "type": "restaurant", "image": null, "address": "2-38-1 Sakae-Cho, Higashimurayama 189-0013 Qu\u00e2\u0323n Tokyo", "lat": 35.747902, "lng": 139.47021, "ref_id": 14750034, "rating": -1, "num_reviews": 0, "website": null, "contact_phone": "+81 42-392-2800", "contact_email": null, "status": 1, "source_type": 1, "numberReviews": 0}, {"name": "Satsuki", "type": "restaurant", "image": null, "address": "5-15-10 Sandamachi, Hachioji 193-0832 Qu\u00e2\u0323n Tokyo", "lat": 35.649883, "lng": 139.30351, "ref_id": 9899292, "rating": -1, "num_reviews": 0, "website": null, "contact_phone": "+81 42-664-1708", "contact_email": null, "status": 1, "source_type": 1, "numberReviews": 0}, {"name": "Sakai", "type": "restaurant", "image": null, "address": "945-9 Oshitate, Inagi Qu\u00e2\u0323n Tokyo", "lat": 35.644993, "lng": 139.51373, "ref_id": 7488184, "rating": -1, "num_reviews": 0, "website": null, "contact_phone": "+81 42-379-0505", "contact_email": null, "status": 1, "source_type": 1, "numberReviews": 0}, {"name": "Gindako Tachikawa Wakabacho", "type": "restaurant", "image": null, "address": "53-6/52-5 Wakabacho, Tachikawa 151-0061 Qu\u00e2\u0323n Tokyo", "lat": 35.71994, "lng": 139.43953, "ref_id": 21377372, "rating": -1, "num_reviews": 0, "website": "https://stores.gindaco.com/1010983", "contact_phone": "+81 42-534-9797", "contact_email": null, "status": 1, "source_type": 1, "numberReviews": 0}, {"name": "Yakiniku Yamato", "type": "restaurant", "image": null, "address": "6-1155-33 Mukaihara, Higashiyamato Qu\u00e2\u0323n Tokyo", "lat": 35.736282, "lng": 139.43875, "ref_id": 7487717, "rating": -1, "num_reviews": 0, "website": null, "contact_phone": "+81 42-565-4915", "contact_email": null, "status": 1, "source_type": 1, "numberReviews": 0}, {"name": "Tsukushi", "type": "restaurant", "image": "https://dynamic-media-cdn.tripadvisor.com/media/photo-o/05/d5/76/20/tsukushi.jpg?w=1000&s=1", "address": "1-8-20 Sakaecho, Atsugi 243-0017 tinh Kanagawa", "lat": 35.44111, "lng": 139.36038, "ref_id": 6052403, "rating": 4.5, "num_reviews": 0, "website": "http://tukusi294.com/", "contact_phone": "+81 46-223-5294", "contact_email": null, "status": 1, "source_type": 1, "numberReviews": 8}, {"name": "Menya Uehara", "type": "restaurant", "image": "https://dynamic-media-cdn.tripadvisor.com/media/photo-o/25/ce/2f/5c/caption.jpg?w=1000&s=1", "address": "2-14-6 Fukuda, Yamato 242-0024 tinh Kanagawa", "lat": 35.449852, "lng": 139.46407, "ref_id": 24177385, "rating": 5, "num_reviews": 0, "website": null, "contact_phone": "+81 46-240-0966", "contact_email": null, "status": 1, "source_type": 1, "numberReviews": 1}, {"name": "Sacura Chigasaki", "type": "restaurant", "image": "https://dynamic-media-cdn.tripadvisor.com/media/photo-o/1a/b5/44/b2/img-20200123-202132-largejpg.jpg?w=1000&s=1", "address": "24-13 Saiwaicho Ratan Bldg 1F 2F, Chigasaki 253-0052 tinh Kanagawa", "lat": 35.32822, "lng": 139.4066, "ref_id": 13947444, "rating": 4.5, "num_reviews": 0, "website": "http://sacurachigasaki.owst.jp/", "contact_phone": "+81 467-95-8866", "contact_email": null, "status": 1, "source_type": 1, "numberReviews": 2}, {"name": "Toriyoshi Shoten Hiratsuka Pearl Road", "type": "restaurant", "image": "https://dynamic-media-cdn.tripadvisor.com/media/photo-o/13/99/40/a3/caption.jpg?w=1000&s=1", "address": "10-3 Beniyacho 1f, Hiratsuka 254-0043 tinh Kanagawa", "lat": 35.329018, "lng": 139.3482, "ref_id": 13939514, "rating": 4, "num_reviews": 0, "website": null, "contact_phone": "+81 463-20-6117", "contact_email": null, "status": 1, "source_type": 1, "numberReviews": 3}, {"name": "Shiohorumon Motsunabe Hiratsuka Izawa", "type": "restaurant", "image": null, "address": "15-4 Beniyacho, Hiratsuka tinh Kanagawa", "lat": 35.32821, "lng": 139.34666, "ref_id": 3883308, "rating": 4.5, "num_reviews": 0, "website": null, "contact_phone": "+81 463-73-7320", "contact_email": null, "status": 1, "source_type": 1, "numberReviews": 3}, {"name": "Torimine", "type": "restaurant", "image": null, "address": "212-1 Yabata, Chigasaki 253-0085 tinh Kanagawa", "lat": 35.33679, "lng": 139.39374, "ref_id": 13968750, "rating": 4.5, "num_reviews": 0, "website": "https://www.facebook.com/torimine/", "contact_phone": "+81 467-81-4890", "contact_email": null, "status": 1, "source_type": 1, "numberReviews": 2}, {"name": "Tsuki Akari Hiratsuka Store", "type": "restaurant", "image": null, "address": "9-18 Beniya-Cho, Hiratsuka 254-0043 tinh Kanagawa", "lat": 35.32873, "lng": 139.3483, "ref_id": 13053826, "rating": 4, "num_reviews": 0, "website": null, "contact_phone": "+81 463-20-5225", "contact_email": null, "status": 1, "source_type": 1, "numberReviews": 4}, {"name": "Benkei Chuo-Dori", "type": "restaurant", "image": "https://dynamic-media-cdn.tripadvisor.com/media/photo-o/0f/45/d2/1d/photo0jpg.jpg?w=1000&s=1", "address": "4-16 Mitsukecho, Hiratsuka tinh Kanagawa", "lat": 35.330425, "lng": 139.34473, "ref_id": 7433829, "rating": 4.5, "num_reviews": 0, "website": null, "contact_phone": "+81 463-31-3932", "contact_email": null, "status": 1, "source_type": 1, "numberReviews": 2}, {"name": "Baobab Shokudo", "type": "restaurant", "image": "https://dynamic-media-cdn.tripadvisor.com/media/photo-o/09/d3/86/e8/caption.jpg?w=1000&s=1", "address": "5-28 Takaracho Kanda Bldg 2F, Hiratsuka 254-0034 tinh Kanagawa", "lat": 35.329285, "lng": 139.35133, "ref_id": 9020993, "rating": 4.5, "num_reviews": 0, "website": "http://www.baobab-shokudo.com/index.html", "contact_phone": "+81 463-23-4480", "contact_email": null, "status": 1, "source_type": 1, "numberReviews": 4}, {"name": "Asian Restaurant Chai", "type": "restaurant", "image": null, "address": "5-6-22 Sibuya, Yamato 242-0024 tinh Kanagawa", "lat": 35.43749, "lng": 139.46376, "ref_id": 9961922, "rating": 5, "num_reviews": 0, "website": "http://www.yamato-shoutenkai.com/kozashibuya_nishiguchi/chai/index.php?page=ANNAI", "contact_phone": "+81 46-216-9388", "contact_email": "gaijinconsultingservice300@gmail.com", "status": 1, "source_type": 1, "numberReviews": 1}, {"name": "Kazewa Minamikara", "type": "restaurant", "image": null, "address": "2-6-9 Sagamino, Zama tinh Kanagawa", "lat": 35.473003, "lng": 139.42796, "ref_id": 7554070, "rating": 4, "num_reviews": 0, "website": null, "contact_phone": "+81 46-253-6543", "contact_email": null, "status": 1, "source_type": 1, "numberReviews": 5}, {"name": "Kawairien", "type": "restaurant", "image": "https://dynamic-media-cdn.tripadvisor.com/media/photo-o/0c/6a/5b/02/photo0jpg.jpg?w=1000&s=1", "address": "1363 Shimokawairi, Atsugi tinh Kanagawa", "lat": 35.49388, "lng": 139.35011, "ref_id": 3866183, "rating": 4, "num_reviews": 0, "website": null, "contact_phone": "+81 46-245-0425", "contact_email": null, "status": 1, "source_type": 1, "numberReviews": 5},