[{"name": "Bummeiken", "type": "restaurant", "image": null, "address": "1-8-9 Kamikizaki, Urawa-Ku, Saitama 330-0071 Saitama Prefecture", "lat": 35.884983, "lng": 139.63821, "ref_id": 13039210, "rating": -1, "num_reviews": 0, "website": null, "contact_phone": "+81 48-831-4539", "contact_email": null, "status": 1, "source_type": 1, "numberReviews": 0}, {"name": "Kiseido Honpo Higashi Onari", "type": "restaurant", "image": null, "address": "2-365 Onaricho, Kita-Ku, Saitama 331-0814 Saitama Prefecture", "lat": 35.92728, "lng": 139.61688, "ref_id": 13040193, "rating": -1, "num_reviews": 0, "website": null, "contact_phone": "+81 48-668-8100", "contact_email": null, "status": 1, "source_type": 1, "numberReviews": 0}, {"name": "Chiaki Dango Kurohama", "type": "restaurant", "image": null, "address": "1587 Oaza Egasaki, Hasuda 349-0102 Saitama Prefecture", "lat": 35.9943, "lng": 139.68443, "ref_id": 13039283, "rating": -1, "num_reviews": 0, "website": null, "contact_phone": "+81 48-768-5234", "contact_email": null, "status": 1, "source_type": 1, "numberReviews": 0}, {"name": "Meatloaf & Steak Tapa Miyoshi", "type": "restaurant", "image": null, "address": "828-1 Fujikubo Miyoshi-Machi, Miyoshi-machi, Iruma-gun 354-0041 Saitama Prefecture", "lat": 35.841427, "lng": 139.52345, "ref_id": 4663520, "rating": -1, "num_reviews": 0, "website": null, "contact_phone": "+81 49-274-3855", "contact_email": null, "status": 1, "source_type": 1, "numberReviews": 0}, {"name": "Keyaki Beef Tongue Sugito", "type": "restaurant", "image": null, "address": "2351-1 Sugito, Sugito-machi, Kitakatsushika-gun 345-0036 Saitama Prefecture", "lat": 36.039516, "lng": 139.72118, "ref_id": 26300750, "rating": -1, "num_reviews": 0, "website": "http://www.blooooom.jp/gyutan_keyaki/", "contact_phone": "+81 480-53-5388", "contact_email": "pr@blooooom.jp", "status": 1, "source_type": 1, "numberReviews": 0}, {"name": "Naruse's Unagi Ageo", "type": "restaurant", "image": "https://dynamic-media-cdn.tripadvisor.com/media/photo-o/2a/a3/d0/cd/matsu.jpg?w=1000&s=1", "address": "Hommachi 4-1-31, Ageo 362-0014 Saitama Prefecture", "lat": null, "lng": null, "ref_id": 26640350, "rating": -1, "num_reviews": 0, "website": "http://www.unagi-naruse.com/", "contact_phone": "+81 50-5486-8972", "contact_email": null, "status": 1, "source_type": 1, "numberReviews": 0}, {"name": "La Maison", "type": "restaurant", "image": null, "address": "630 Nishikicho, Omiya-Ku, Saitama 330-0853 Saitama Prefecture", "lat": 35.906364, "lng": 139.62372, "ref_id": 13040340, "rating": -1, "num_reviews": 0, "website": null, "contact_phone": "+81 48-646-3309", "contact_email": null, "status": 1, "source_type": 1, "numberReviews": 0}, {"name": "Takaraya Hanare", "type": "restaurant", "image": null, "address": "Nrk Omiya 201, 1-56 Takahanacho, Omiya-Ku Nrk Omiya 201, Saitama 330-0803 Saitama Prefecture", "lat": 35.910213, "lng": 139.63004, "ref_id": 9685003, "rating": -1, "num_reviews": 0, "website": null, "contact_phone": "+81 50-5786-1726", "contact_email": null, "status": 1, "source_type": 1, "numberReviews": 0}, {"name": "Benkei", "type": "restaurant", "image": null, "address": "5-1-9 Jonan, Iwatsuki-ku, Saitama 339-0043 Saitama Prefecture", "lat": 35.94212, "lng": 139.71234, "ref_id": 13167175, "rating": -1, "num_reviews": 0, "website": null, "contact_phone": "+81 48-792-0882", "contact_email": null, "status": 1, "source_type": 1, "numberReviews": 0}, {"name": "Aka Tombo", "type": "restaurant", "image": null, "address": "3-281-4 Miyaharacho, Kita-Ku KM Residenz 1F, Saitama 331-0812 Saitama Prefecture", "lat": 35.938953, "lng": 139.61153, "ref_id": 14755559, "rating": -1, "num_reviews": 0, "website": null, "contact_phone": "+81 48-661-6771", "contact_email": null, "status": 1, "source_type": 1, "numberReviews": 0}, {"name": "Izakaya Yukari", "type": "restaurant", "image": null, "address": "7-1-37 Urawa-Ku Kamikizaki, Saitama 330-0071 Saitama Prefecture", "lat": 35.887398, "lng": 139.64893, "ref_id": 9684988, "rating": -1, "num_reviews": 0, "website": null, "contact_phone": "+81 48-824-4622", "contact_email": null, "status": 1, "source_type": 1, "numberReviews": 0}, {"name": "Yamamoto", "type": "restaurant", "image": null, "address": "2-14-12 Minami Urawa Minami-Ku, Saitama Saitama Prefecture", "lat": 35.85063, "lng": 139.67302, "ref_id": 7637530, "rating": -1, "num_reviews": 0, "website": null, "contact_phone": "+81 48-881-2002", "contact_email": null, "status": 1, "source_type": 1, "numberReviews": 0}, {"name": "Tezukuriya Shunsai Factory Mokusei", "type": "restaurant", "image": null, "address": "8-9-18 Nishibori, Sakuraku, Saitama 338-0832 Saitama Prefecture", "lat": 35.861214, "lng": 139.63333, "ref_id": 13041248, "rating": -1, "num_reviews": 0, "website": null, "contact_phone": "+81 48-857-5388", "contact_email": null, "status": 1, "source_type": 1, "numberReviews": 0}, {"name": "American Darts Bar Hattrick", "type": "restaurant", "image": null, "address": "2-1-2 Shimo Ochiai Chuo-Ku, Saitama Saitama Prefecture", "lat": 35.88176, "lng": 139.63643, "ref_id": 7462949, "rating": -1, "num_reviews": 0, "website": null, "contact_phone": "+81 48-825-5001", "contact_email": null, "status": 1, "source_type": 1, "numberReviews": 0}, {"name": "Inakatei", "type": "restaurant", "image": null, "address": "1-3-12 Minami Honcho Minami-Ku, Saitama Saitama Prefecture", "lat": 35.845825, "lng": 139.66974, "ref_id": 7463842, "rating": -1, "num_reviews": 0, "website": null, "contact_phone": "+81 48-864-6161", "contact_email": null, "status": 1, "source_type": 1, "numberReviews": 0}, {"name": "Tomo", "type": "restaurant", "image": null, "address": "3-33-11 Kuki Higashi, Kuki Saitama Prefecture", "lat": 36.062244, "lng": 139.68578, "ref_id": 7563289, "rating": -1, "num_reviews": 0, "website": null, "contact_phone": "+81 480-21-5405", "contact_email": null, "status": 1, "source_type": 1, "numberReviews": 0}, {"name": "Bob", "type": "restaurant", "image": null, "address": "3932-3 Kurohama, Hasuda 349-0101 Saitama Prefecture", "lat": 36.0035, "lng": 139.66237, "ref_id": 14756135, "rating": -1, "num_reviews": 0, "website": null, "contact_phone": "+81 48-878-8811", "contact_email": null, "status": 1, "source_type": 1, "numberReviews": 0}, {"name": "Rice Flour Bread Fuku", "type": "restaurant", "image": null, "address": "324-3 Obusuma, Kasukabe 344-0116 Saitama Prefecture", "lat": 35.9826, "lng": 139.80331, "ref_id": 13040857, "rating": -1, "num_reviews": 0, "website": null, "contact_phone": "+81 48-812-4444", "contact_email": null, "status": 1, "source_type": 1, "numberReviews": 0}, {"name": "Ranran", "type": "restaurant", "image": "https://dynamic-media-cdn.tripadvisor.com/media/photo-o/1b/72/0a/72/caption.jpg?w=1000&s=1", "address": "2141-4 Owada, Koga 306-0111 Ibaraki Prefecture", "lat": 36.187267, "lng": 139.78485, "ref_id": 9925202, "rating": -1, "num_reviews": 0, "website": null, "contact_phone": "+81 280-77-0605", "contact_email": null, "status": 1, "source_type": 1, "numberReviews": 0}, {"name": "Shoryu", "type": "restaurant", "image": null, "address": "721-1 8-, Kasukabe Saitama Prefecture", "lat": 35.987293, "lng": 139.76201, "ref_id": 7539322, "rating": -1, "num_reviews": 0, "website": null, "contact_phone": "+81 48-754-5060", "contact_email": null, "status": 1, "source_type": 1, "numberReviews": 0}, {"name": "Restaurant Pippo", "type": "restaurant", "image": null, "address": "934-1 Konosu, Koga 306-0041 Ibaraki Prefecture", "lat": 36.177677, "lng": 139.70645, "ref_id": 12327784, "rating": -1, "num_reviews": 0, "website": null, "contact_phone": "+81 280-33-6636", "contact_email": null, "status": 1, "source_type": 1, "numberReviews": 0}, {"name": "Izakaya Aki", "type": "restaurant", "image": null, "address": "2-7-53 Kurihashihigashi, Kuki Saitama Prefecture", "lat": 36.134605, "lng": 139.69868, "ref_id": 7563365, "rating": -1, "num_reviews": 0, "website": null, "contact_phone": "+81 480-53-0715", "contact_email": null, "status": 1, "source_type": 1, "numberReviews": 0}, {"name": "Hokkahoka Bento Nihon Tei Satte Higash", "type": "restaurant", "image": null, "address": "4-1-24 Higashi, Satte 340-0114 Saitama Prefecture", "lat": 36.077168, "lng": 139.72453, "ref_id": 13039683, "rating": -1, "num_reviews": 0, "website": null, "contact_phone": "+81 480-43-3424", "contact_email": null, "status": 1, "source_type": 1, "numberReviews": 0}, {"name": "Kogane Sushi", "type": "restaurant", "image": null, "address": "1396-7 Ushijima, Kasukabe Saitama Prefecture", "lat": 35.982864, "lng": 139.77596, "ref_id": 7539417, "rating": -1, "num_reviews": 0, "website": null, "contact_phone": "+81 48-754-1277", "contact_email": null, "status": 1, "source_type": 1, "numberReviews": 0}, {"name": "Yakiniku Kemuri", "type": "restaurant", "image": null, "address": "2-30-1 Mitsumata, Kazo 347-0009 Saitama Prefecture", "lat": 36.13152, "lng": 139.60648, "ref_id": 18339696, "rating": -1, "num_reviews": 0, "website": null, "contact_phone": "+81 480-31-8849", "contact_email": null, "status": 1, "source_type": 1, "numberReviews": 0}, {"name": "Mojn Mich Kinkado Sakaicho Fiss", "type": "restaurant", "image": null, "address": "1327-1 Kashimashita, Sakai-machi, Sashima-gun Ibaraki Prefecture", "lat": 36.102226, "lng": 139.79752, "ref_id": 7498537, "rating": -1, "num_reviews": 0, "website": null, "contact_phone": "+81 280-81-1886", "contact_email": null, "status": 1, "source_type": 1, "numberReviews": 0}, {"name": "Meat Maejima Hommachidori", "type": "restaurant", "image": null, "address": "1022-7 Koguki, Shiraoka 349-0217 Saitama Prefecture", "lat": 36.01838, "lng": 139.66309, "ref_id": 9645992, "rating": -1, "num_reviews": 0, "website": null, "contact_phone": "+81 480-92-0113", "contact_email": null, "status": 1, "source_type": 1, "numberReviews": 0}, {"name": "Juan", "type": "restaurant", "image": null, "address": "1-6-15 Yokoyamacho, Koga Ibaraki Prefecture", "lat": 36.19742, "lng": 139.70367, "ref_id": 7571466, "rating": -1, "num_reviews": 0, "website": null, "contact_phone": "+81 280-22-4507", "contact_email": null, "status": 1, "source_type": 1, "numberReviews": 0}, {"name": "Chateraise Satte", "type": "restaurant", "image": null, "address": "1753-1 Oaza Satte, Satte 340-0113 Saitama Prefecture", "lat": 36.073418, "lng": 139.72871, "ref_id": 13039273, "rating": -1, "num_reviews": 0, "website": null, "contact_phone": "+81 480-43-7100", "contact_email": null, "status": 1, "source_type": 1, "numberReviews": 0}, {"name": "Amiyakikobo Gu Binchotan-Yaki", "type": "restaurant", "image": null, "address": "3470-1 Kamihemi, Koga Ibaraki Prefecture", "lat": 36.177616, "lng": 139.7297, "ref_id": 7571520, "rating": -1, "num_reviews": 0, "website": null, "contact_phone": "+81 280-32-8925", "contact_email": null, "status": 1, "source_type": 1, "numberReviews": 0}, {"name": "Uobei Satte", "type": "restaurant", "image": "https://dynamic-media-cdn.tripadvisor.com/media/photo-o/29/51/57/94/caption.jpg?w=1000&s=1", "address": "1061-1 Kamitakano, Satte 340-0155 Saitama Prefecture", "lat": 36.062645, "lng": 139.71552, "ref_id": 25553540, "rating": -1, "num_reviews": 0, "website": "https://www.genkisushi.co.jp/search/map.php?id=545", "contact_phone": "+81 480-42-3911", "contact_email": null, "status": 1, "source_type": 1, "numberReviews": 0}, {"name": "Creative Cuisine Irodori", "type": "restaurant", "image": null, "address": "212-5 Nakada, Koga 306-0053 Ibaraki Prefecture", "lat": 36.14322, "lng": 139.71315, "ref_id": 9684332, "rating": -1, "num_reviews": 0, "website": null, "contact_phone": "+81 80-1379-1128", "contact_email": null, "status": 1, "source_type": 1, "numberReviews": 0}, {"name": "Star Grill", "type": "restaurant", "image": null, "address": "2268 Nakada, Koga 306-0053 Ibaraki Prefecture", "lat": 36.14823, "lng": 139.71204, "ref_id": 13242844, "rating": -1, "num_reviews": 0, "website": null, "contact_phone": "+81 280-47-1187", "contact_email": null, "status": 1, "source_type": 1, "numberReviews": 0}, {"name": "Torishin", "type": "restaurant", "image": null, "address": "4-2-17 Kuge, Kazo Saitama Prefecture", "lat": 36.120907, "lng": 139.61543, "ref_id": 7560652, "rating": -1, "num_reviews": 0, "website": null, "contact_phone": "+81 480-65-1576", "contact_email": null, "status": 1, "source_type": 1, "numberReviews": 0}, {"name": "Iseya", "type": "restaurant", "image": null, "address": "1933 Hase, Bando 306-0642 Ibaraki Prefecture", "lat": 36.029644, "lng": 139.87427, "ref_id": 9666702, "rating": -1, "num_reviews": 0, "website": null, "contact_phone": "+81 297-36-3138", "contact_email": null, "status": 1, "source_type": 1, "numberReviews": 0}, {"name": "Primavera", "type": "restaurant", "image": null, "address": "1-84 Nishikicho, Koga Ibaraki Prefecture", "lat": 36.195023, "lng": 139.69957, "ref_id": 7571377, "rating": -1, "num_reviews": 0, "website": null, "contact_phone": "+81 280-22-1185", "contact_email": null, "status": 1, "source_type": 1, "numberReviews": 0}, {"name": "Takano Chain Shiraoka", "type": "restaurant", "image": null, "address": "1064 Koguki, Shiraoka 349-0217 Saitama Prefecture", "lat": 36.01553, "lng": 139.6655, "ref_id": 13041196, "rating": -1, "num_reviews": 0, "website": null, "contact_phone": "+81 480-93-6435", "contact_email": null, "status": 1, "source_type": 1, "numberReviews": 0}, {"name": "Nakayoshi Bento", "type": "restaurant", "image": null, "address": "2-6-1 Aoba, Kuki 346-0013 Saitama Prefecture", "lat": 36.071735, "lng": 139.69408, "ref_id": 13040588, "rating": -1, "num_reviews": 0, "website": null, "contact_phone": "+81 480-24-1358", "contact_email": null, "status": 1, "source_type": 1, "numberReviews": 0}, {"name": "Yuinosuke", "type": "restaurant", "image": null, "address": "1-9-13 Chuo, Kasukabe Saitama Prefecture", "lat": 35.979603, "lng": 139.751, "ref_id": 7539186, "rating": -1, "num_reviews": 0, "website": null, "contact_phone": "+81 48-752-0101", "contact_email": null, "status": 1, "source_type": 1, "numberReviews": 0}, {"name": "Rakuichi", "type": "restaurant", "image": null, "address": "2-2-20 Hyakken, Miyashiro-machi, Minamisaitama-gun Saitama Prefecture", "lat": 36.02598, "lng": 139.72664, "ref_id": 7474750, "rating": -1, "num_reviews": 0, "website": null, "contact_phone": "+81 480-33-5681", "contact_email": null, "status": 1, "source_type": 1, "numberReviews": 0}, {"name": "Koneko", "type": "restaurant", "image": null, "address": "1-13-3 Kurihashi Chuo, Kuki 349-1102 Saitama Prefecture", "lat": 36.13676, "lng": 139.69476, "ref_id": 9936263, "rating": -1, "num_reviews": 0, "website": null, "contact_phone": "+81 480-52-0220", "contact_email": null, "status": 1, "source_type": 1, "numberReviews": 0}, {"name": "Komatsu-Ya", "type": "restaurant", "image": null, "address": "2-7-7 Chuo, Kazo Saitama Prefecture", "lat": 36.1254, "lng": 139.59787, "ref_id": 7637198, "rating": -1, "num_reviews": 0, "website": null, "contact_phone": "+81 480-61-0441", "contact_email": null, "status": 1, "source_type": 1, "numberReviews": 0}, {"name": "Full House", "type": "restaurant", "image": null, "address": "852-2 Kobayashi, Inzai 270-1318 Qu\u00e2\u0323n Chiba", "lat": 35.832703, "lng": 140.20113, "ref_id": 14920202, "rating": -1, "num_reviews": 0, "website": null, "contact_phone": "+81 476-40-2207", "contact_email": null, "status": 1, "source_type": 1, "numberReviews": 0}, {"name": "Tomo-Chan Bento", "type": "restaurant", "image": null, "address": "654-709 Nanae, Tomisato 286-0221 Qu\u00e2\u0323n Chiba", "lat": 35.732803, "lng": 140.33188, "ref_id": 13243638, "rating": -1, "num_reviews": 0, "website": null, "contact_phone": "+81 476-91-2095", "contact_email": null, "status": 1, "source_type": 1, "numberReviews": 0}, {"name": "Tomoeya", "type": "restaurant", "image": null, "address": "1882 Kobayashi, Inzai Qu\u00e2\u0323n Chiba", "lat": 35.825817, "lng": 140.18947, "ref_id": 7575647, "rating": -1, "num_reviews": 0, "website": null, "contact_phone": "+81 476-97-1447", "contact_email": null, "status": 1, "source_type": 1, "numberReviews": 0}, {"name": "Kagawa Ippuku Fululu Garden Yachiyo", "type": "restaurant", "image": null, "address": "1-4-1 Murakami Minami Fululu Garden Yachiyo 1F, Yachiyo 276-0029 Qu\u00e2\u0323n Chiba", "lat": 35.72232, "lng": 140.11755, "ref_id": 23873676, "rating": -1, "num_reviews": 0, "website": null, "contact_phone": "+81 47-407-4085", "contact_email": null, "status": 1, "source_type": 1, "numberReviews": 0}, {"name": "Ishii", "type": "restaurant", "image": null, "address": "3-15-14 Omotemachi, Sakura Qu\u00e2\u0323n Chiba", "lat": 35.712185, "lng": 140.22852, "ref_id": 7565441, "rating": -1, "num_reviews": 0, "website": null, "contact_phone": "+81 43-485-4936", "contact_email": null, "status": 1, "source_type": 1, "numberReviews": 0}, {"name": "Kotobuki-Ya", "type": "restaurant", "image": null, "address": "169 Shimmachi, Sakura Qu\u00e2\u0323n Chiba", "lat": 35.71956, "lng": 140.23297, "ref_id": 7565395, "rating": -1, "num_reviews": 0, "website": null, "contact_phone": "+81 43-484-0615", "contact_email": null, "status": 1, "source_type": 1, "numberReviews": 0}, {"name": "Aoyagi", "type": "restaurant", "image": null, "address": "646-110 Nanae, Tomisato Qu\u00e2\u0323n Chiba", "lat": 35.739544, "lng": 140.33319, "ref_id": 7575861, "rating": -1, "num_reviews": 0, "website": null, "contact_phone": "+81 476-93-0637", "contact_email": null, "status": 1, "source_type": 1, "numberReviews": 0}, {"name": "Yuzuniwa", "type": "restaurant", "image": null, "address": "126-68 Tokura, Tomisato 286-0212 Qu\u00e2\u0323n Chiba", "lat": 35.716118, "lng": 140.3526, "ref_id": 14754345, "rating": -1, "num_reviews": 0, "website": null, "contact_phone": "+81 476-93-6655", "contact_email": null, "status": 1, "source_type": 1, "numberReviews": 0}, {"name": "Yakirori Hikochan", "type": "restaurant", "image": null, "address": "176-62 Nanae, Tomisato 286-0221 Qu\u00e2\u0323n Chiba", "lat": 35.732784, "lng": 140.31482, "ref_id": 17361801, "rating": -1, "num_reviews": 0, "website": null, "contact_phone": "+81 476-92-3186", "contact_email": null, "status": 1, "source_type": 1, "numberReviews": 0}, {"name": "Kotobuki Sushi", "type": "restaurant", "image": null, "address": "5-17-7 Kotehashidai, Hanamigawa-Ku, Chiba 262-0005 Qu\u00e2\u0323n Chiba", "lat": 35.69213, "lng": 140.11728, "ref_id": 9937070, "rating": -1, "num_reviews": 0, "website": null, "contact_phone": "+81 43-258-9356", "contact_email": null, "status": 1, "source_type": 1, "numberReviews": 0}, {"name": "Hanahachi Soba", "type": "restaurant", "image": null, "address": "1-16-3 Kotehashidai, Hanamigawa-Ku, Chiba 262-0005 Qu\u00e2\u0323n Chiba", "lat": 35.686012, "lng": 140.12521, "ref_id": 9671275, "rating": -1, "num_reviews": 0, "website": null, "contact_phone": "+81 43-250-0750", "contact_email": null, "status": 1, "source_type": 1, "numberReviews": 0}, {"name": "Izakaya Hotaru", "type": "restaurant", "image": null, "address": "645-13 Nanae, Tomisato 286-0221 Qu\u00e2\u0323n Chiba", "lat": 35.74143, "lng": 140.3189, "ref_id": 14754316, "rating": -1, "num_reviews": 0, "website": null, "contact_phone": "+81 476-85-4377", "contact_email": null, "status": 1, "source_type": 1, "numberReviews": 0}, {"name": "Kawanami", "type": "restaurant", "image": null, "address": "3-15-13 Mugimachi, Sakura 285-0811 Qu\u00e2\u0323n Chiba", "lat": 35.712135, "lng": 140.22858, "ref_id": 9932761, "rating": -1, "num_reviews": 0, "website": null, "contact_phone": "+81 43-483-4353", "contact_email": null, "status": 1, "source_type": 1, "numberReviews": 0}, {"name": "Osushi", "type": "restaurant", "image": null, "address": "157-26 Iidacho, Narita Qu\u00e2\u0323n Chiba", "lat": 35.77011, "lng": 140.30116, "ref_id": 7416881, "rating": -1, "num_reviews": 0, "website": null, "contact_phone": "+81 476-26-1723", "contact_email": null, "status": 1, "source_type": 1, "numberReviews": 0}, {"name": "Omori", "type": "restaurant", "image": null, "address": "1-9-5 Kotehashidai Hanamigawa-Ku, Chiba Qu\u00e2\u0323n Chiba", "lat": 35.68655, "lng": 140.1265, "ref_id": 7416005, "rating": -1, "num_reviews": 0, "website": null, "contact_phone": "+81 43-259-3236", "contact_email": null, "status": 1, "source_type": 1, "numberReviews": 0}, {"name": "Yakitori Daikichi Murakami", "type": "restaurant", "image": null, "address": "1735-125 Murakami, Yachiyo Qu\u00e2\u0323n Chiba", "lat": 35.72541, "lng": 140.1265, "ref_id": 7574441, "rating": -1, "num_reviews": 0, "website": null, "contact_phone": "+81 47-483-5196", "contact_email": null, "status": 1, "source_type": 1, "numberReviews": 0}, {"name": "Yakitoriya Jiro", "type": "restaurant", "image": null, "address": "2-1-19 Nishitsuga Wakaba-Ku, Chiba Qu\u00e2\u0323n Chiba", "lat": 35.636833, "lng": 140.14722, "ref_id": 7415784, "rating": -1, "num_reviews": 0, "website": null, "contact_phone": "+81 43-252-5637", "contact_email": null, "status": 1, "source_type": 1, "numberReviews": 0}, {"name": "Cafe Waon", "type": "restaurant", "image": null, "address": "1-91 Nishisanrizuka, Narita Qu\u00e2\u0323n Chiba", "lat": 35.745785, "lng": 140.36874, "ref_id": 7416733, "rating": -1, "num_reviews": 0, "website": null, "contact_phone": "+81 476-35-8215", "contact_email": null, "status": 1, "source_type": 1, "numberReviews": 0}, {"name": "Anraku-Tei Yachimata", "type": "restaurant", "image": null, "address": "101-1 Yachimata Ni, Yachimata 289-1103 Qu\u00e2\u0323n Chiba", "lat": 35.661182, "lng": 140.3244, "ref_id": 9960971, "rating": -1, "num_reviews": 0, "website": null, "contact_phone": "+81 43-442-0703", "contact_email": null, "status": 1, "source_type": 1, "numberReviews": 0}, {"name": "Horai", "type": "restaurant", "image": null, "address": "7-14-12 Sakuragi Wakaba-Ku, Chiba Qu\u00e2\u0323n Chiba", "lat": 35.630833, "lng": 140.1601, "ref_id": 7416353, "rating": -1, "num_reviews": 0, "website": null, "contact_phone": "+81 43-231-8802", "contact_email": null, "status": 1, "source_type": 1, "numberReviews": 0}, {"name": "Uobun", "type": "restaurant", "image": null, "address": "3-13-33 Omote-Machi, Sakura Qu\u00e2\u0323n Chiba", "lat": 35.71161, "lng": 140.22711, "ref_id": 7565473, "rating": -1, "num_reviews": 0, "website": null, "contact_phone": "+81 43-485-8281", "contact_email": null, "status": 1, "source_type": 1, "numberReviews": 0}, {"name": "Horai", "type": "restaurant", "image": null, "address": "220 Houma, Shibayama-machi, Sanbu-gun 289-1622 Qu\u00e2\u0323n Chiba", "lat": 35.712723, "lng": 140.40332, "ref_id": 14754359, "rating": -1, "num_reviews": 0, "website": null, "contact_phone": "+81 479-77-0905", "contact_email": null, "status": 1, "source_type": 1, "numberReviews": 0}, {"name": "Sozaiya Torifuku", "type": "restaurant", "image": null, "address": "1306-2 Sonnocho, Inage-Ku, Chiba 263-0051 Qu\u00e2\u0323n Chiba", "lat": 35.65482, "lng": 140.12437, "ref_id": 17357263, "rating": -1, "num_reviews": 0, "website": null, "contact_phone": "+81 43-307-3077", "contact_email": null, "status": 1, "source_type": 1, "numberReviews": 0}, {"name": "Togura", "type": "restaurant", "image": null, "address": "1596-80 Nakazawa, Tomisato 286-0222 Qu\u00e2\u0323n Chiba", "lat": 35.70898, "lng": 140.3248, "ref_id": 14927347, "rating": -1, "num_reviews": 0, "website": null, "contact_phone": "+81 476-94-2133", "contact_email": null, "status": 1, "source_type": 1, "numberReviews": 0}, {"name": "Kotaro", "type": "restaurant", "image": null, "address": "945-91 Yachimata Ho, Yachimata 289-1115 Qu\u00e2\u0323n Chiba", "lat": 35.654133, "lng": 140.3036, "ref_id": 17602127, "rating": -1, "num_reviews": 0, "website": "http://kotarou9090.business.site/", "contact_phone": "+81 43-309-9090", "contact_email": null, "status": 1, "source_type": 1, "numberReviews": 0}, {"name": "Korean Food Kochujan", "type": "restaurant", "image": null, "address": "1-17-23 Osakidai, Sakura 285-0817 Qu\u00e2\u0323n Chiba", "lat": 35.707985, "lng": 140.22446, "ref_id": 13248098, "rating": -1, "num_reviews": 0, "website": null, "contact_phone": "+81 43-312-0240", "contact_email": null, "status": 1, "source_type": 1, "numberReviews": 0}, {"name": "Ishii Meat", "type": "restaurant", "image": null, "address": "1669-2 Kobayashi, Inzai 270-1318 Qu\u00e2\u0323n Chiba", "lat": 35.828472, "lng": 140.19617, "ref_id": 14753645, "rating": -1, "num_reviews": 0, "website": null, "contact_phone": "+81 476-97-0021", "contact_email": null, "status": 1, "source_type": 1, "numberReviews": 0}, {"name": "Korean Restaurant Minato", "type": "restaurant", "image": null, "address": "2-20-13 Hiyoshidai, Tomisato Qu\u00e2\u0323n Chiba", "lat": 35.770206, "lng": 140.3212, "ref_id": 7575865, "rating": -1, "num_reviews": 0, "website": null, "contact_phone": "+81 476-91-2989", "contact_email": null, "status": 1, "source_type": 1, "numberReviews": 0}, {"name": "Azumaya", "type": "restaurant", "image": null, "address": "3903-4 Kobayashi, Inzai Qu\u00e2\u0323n Chiba", "lat": 35.82774, "lng": 140.1981, "ref_id": 7575618, "rating": -1, "num_reviews": 0, "website": null, "contact_phone": "+81 476-97-0111", "contact_email": null, "status": 1, "source_type": 1, "numberReviews": 0}, {"name": "Pista Pista", "type": "restaurant", "image": null, "address": "1-4-2 Osakidai Yamasaki Bldg. B1F, Sakura 285-0817 Qu\u00e2\u0323n Chiba", "lat": 35.708042, "lng": 140.2282, "ref_id": 13823292, "rating": -1, "num_reviews": 0, "website": null, "contact_phone": "+81 43-235-8282", "contact_email": null, "status": 1, "source_type": 1, "numberReviews": 0}, {"name": "Saizeriya Kawaguchi Station East Entrance", "type": "restaurant", "image": "https://dynamic-media-cdn.tripadvisor.com/media/photo-o/15/b6/35/f2/caption.jpg?w=1000&s=1", "address": "3-10-3 Sakaecho Midori Bldg. 2F, Kawaguchi 332-0017 Saitama Prefecture", "lat": 35.80368, "lng": 139.71904, "ref_id": 4668145, "rating": 4, "num_reviews": 0, "website": "http://shop.saizeriya.co.jp/sz_restaurant/spot/detail?code=0736", "contact_phone": "+81 48-241-5141", "contact_email": null, "status": 1, "source_type": 1, "numberReviews": 16}, {"name": "Hidakaya Musashiurawa", "type": "restaurant", "image": null, "address": "7-12-1 Bessho Minami-Ku Musashi Urawa Bldg. 2F, Saitama 336-0021 Saitama Prefecture", "lat": 35.84568, "lng": 139.6466, "ref_id": 5053568, "rating": 4, "num_reviews": 0, "website": null, "contact_phone": "+81 48-836-4301", "contact_email": null, "status": 1, "source_type": 1, "numberReviews": 8}, {"name": "Sakanayanodaidokoro", "type": "restaurant", "image": "https://dynamic-media-cdn.tripadvisor.com/media/photo-o/14/fa/92/a6/grilled-tuna-jaw.jpg?w=1000&s=1", "address": "2-6-10 Honcho, Koganei 184-0004 Qu\u00e2\u0323n Tokyo", "lat": 35.70331, "lng": 139.50769, "ref_id": 1709350, "rating": 4, "num_reviews": 0, "website": "", "contact_phone": "+81 42-382-1455", "contact_email": "", "status": 1, "source_type": 1, "numberReviews": 7}, {"name": "Bankarerra", "type": "restaurant", "image": "https://dynamic-media-cdn.tripadvisor.com/media/photo-o/08/fc/f1/7d/caption.jpg?w=1000&s=1", "address": "1-3-5 Kami Kizaki Urawa-Ku, Saitama Saitama Prefecture", "lat": 35.885906, "lng": 139.63873, "ref_id": 7462973, "rating": 4.5, "num_reviews": 0, "website": null, "contact_phone": "+81 48-823-7075", "contact_email": null, "status": 1, "source_type": 1, "numberReviews": 4}, {"name": "Muten Kurazushi, Musashino Nishikubo", "type": "restaurant", "image": "https://dynamic-media-cdn.tripadvisor.com/media/photo-o/12/00/c9/10/09.jpg?w=1000&s=1", "address": "3-2-18 Nishikubo, Musashino 180-0013 Qu\u00e2\u0323n Tokyo", "lat": 35.712612, "lng": 139.56383, "ref_id": 4667521, "rating": 3.5, "num_reviews": 0, "website": "", "contact_phone": "+81 422-50-2610", "contact_email": null, "status": 1, "source_type": 1, "numberReviews": 22}, {"name": "Tokyo Chinois Kamiko", "type": "restaurant", "image": "https://dynamic-media-cdn.tripadvisor.com/media/photo-o/15/bf/db/cb/photo1jpg.jpg?w=1000&s=1", "address": "5-30-10 Mepo 2 1F, Sendagaya, Shibuya 151-0051 Qu\u00e2\u0323n Tokyo", "lat": 35.68518, "lng": 139.70433, "ref_id": 15079180, "rating": 4.5, "num_reviews": 0, "website": "https://tckamiko.gorp.jp/", "contact_phone": "+81 3-6316-5388", "contact_email": "tckamiko@gmail.com", "status": 1, "source_type": 1, "numberReviews": 4}, {"name": "Ramendai", "type": "restaurant", "image": "https://dynamic-media-cdn.tripadvisor.com/media/photo-o/1b/3d/df/df/20200402-203924658-largejpg.jpg?w=1000&s=1", "address": "2-1 Shibashinmachi, Kawaguchi Saitama Prefecture", "lat": 35.82929, "lng": 139.6895, "ref_id": 1694574, "rating": 3.5, "num_reviews": 0, "website": "", "contact_phone": "+81 48-269-0068", "contact_email": "", "status": 1, "source_type": 1, "numberReviews": 10}, {"name": "Totoya Uomaru Otsuka", "type": "restaurant", "image": "https://dynamic-media-cdn.tripadvisor.com/media/photo-o/0e/9c/2a/76/caption.jpg?w=1000&s=1", "address": "3-44-13 Minamiotsuka Crest Minamiotsuka Bldg. 1F, Toshima 170-0005 Qu\u00e2\u0323n Tokyo", "lat": 35.72953, "lng": 139.72897, "ref_id": 6063205, "rating": 4, "num_reviews": 0, "website": null, "contact_phone": "+81 3-5952-7234", "contact_email": null, "status": 1, "source_type": 1, "numberReviews": 9}, {"name": "Kyoto Shikasai", "type": "restaurant", "image": "https://dynamic-media-cdn.tripadvisor.com/media/photo-o/17/24/cf/ea/caption.jpg?w=1000&s=1", "address": "1-25-3 Nishikawaguchi 1F, Kawaguchi 332-0021 Saitama Prefecture", "lat": 35.81422, "lng": 139.7043, "ref_id": 14755597, "rating": 4.5, "num_reviews": 0, "website": null, "contact_phone": "+81 48-229-0684", "contact_email": null, "status": 1, "source_type": 1, "numberReviews": 3}, {"name": "Jidoriyatakasen", "type": "restaurant", "image": "https://dynamic-media-cdn.tripadvisor.com/media/photo-o/0a/4f/e9/6b/caption.jpg?w=1000&s=1", "address": "1-4-3 Minamihoncho, Minamiku, Saitama 336-0018 Saitama Prefecture", "lat": 35.84564, "lng": 139.66972, "ref_id": 1664130, "rating": 3.5, "num_reviews": 0, "website": null, "contact_phone": "+81 48-837-2246", "contact_email": null, "status": 1, "source_type": 1, "numberReviews": 7}, {"name": "Chasen", "type": "restaurant", "image": "https://dynamic-media-cdn.tripadvisor.com/media/photo-o/07/d3/92/e7/caption.jpg?w=1000&s=1", "address": "3-59-19 Izumi, Suginami 168-0063 Qu\u00e2\u0323n Tokyo", "lat": 35.682613, "lng": 139.64726, "ref_id": 1665282, "rating": 4, "num_reviews": 0, "website": "", "contact_phone": "+81 3-3325-8374", "contact_email": "", "status": 1, "source_type": 1, "numberReviews": 7}, {"name": "tablier", "type": "restaurant", "image": "https://dynamic-media-cdn.tripadvisor.com/media/photo-o/10/f2/1c/99/photo4jpg.jpg?w=1000&s=1", "address": "1-3-20 Higashicho, Koganei 184-0011 Qu\u00e2\u0323n Tokyo", "lat": 35.69008, "lng": 139.52669, "ref_id": 1708606, "rating": 4.5, "num_reviews": 0, "website": "", "contact_phone": "+81 42-301-8451", "contact_email": "", "status": 1, "source_type": 1, "numberReviews": 4}, {"name": "Bangkok Changtoller", "type": "restaurant", "image": "https://dynamic-media-cdn.tripadvisor.com/media/photo-o/0e/56/dc/63/photo3jpg.jpg?w=1000&s=1", "address": "2-13-18 Nakacho, Urawa-ku, Saitama Saitama Prefecture", "lat": 35.859467, "lng": 139.65211, "ref_id": 3819497, "rating": 4, "num_reviews": 0, "website": null, "contact_phone": "+81 48-832-1266", "contact_email": null, "status": 1, "source_type": 1, "numberReviews": 5}, {"name": "Il Chianti Cafe", "type": "restaurant", "image": "https://dynamic-media-cdn.tripadvisor.com/media/photo-o/11/1f/59/00/caption.jpg?w=1000&s=1", "address": "1-50-1 Sasazuka 1F Sasazuka NA Bldg. Annex, Shibuya 151-0073 Qu\u00e2\u0323n Tokyo", "lat": 35.674263, "lng": 139.67137, "ref_id": 8549629, "rating": 4, "num_reviews": 0, "website": "http://www.chianti.co.jp/cafe/index.php", "contact_phone": "+81 3-5465-5522", "contact_email": null, "status": 1, "source_type": 1, "numberReviews": 9}, {"name": "Isshinken", "type": "restaurant", "image": "https://dynamic-media-cdn.tripadvisor.com/media/photo-o/0e/b1/f9/8f/caption.jpg?w=1000&s=1", "address": "Asahigaoka, Nerima Qu\u00e2\u0323n Tokyo", "lat": 35.737343, "lng": 139.67253, "ref_id": 1691062, "rating": 4, "num_reviews": 0, "website": "", "contact_phone": "+81 90-3801-9962", "contact_email": "", "status": 1, "source_type": 1, "numberReviews": 5}, {"name": "Fattoria S", "type": "restaurant", "image": "https://dynamic-media-cdn.tripadvisor.com/media/photo-o/1d/56/9a/c9/1.jpg?w=1000&s=1", "address": "5-9 Hommachi Irpino 1F, Wako 351-0114 Saitama Prefecture", "lat": 35.788364, "lng": 139.6115, "ref_id": 9667179, "rating": 4.5, "num_reviews": 0, "website": "http://fattoria-s.jimdo.com/", "contact_phone": "+81 50-5797-9507", "contact_email": null, "status": 1, "source_type": 1, "numberReviews": 4}, {"name": "Yumezake Shinjuku Sanchome", "type": "restaurant", "image": "https://dynamic-media-cdn.tripadvisor.com/media/photo-o/13/35/84/71/getlstd-property-photo.jpg?w=1000&s=1", "address": "11-6 Ekure Shinjuku B1F, Shinjuku 3 Chome, Shinjuku 160-0022 Qu\u00e2\u0323n Tokyo", "lat": 35.691975, "lng": 139.70651, "ref_id": 14112818, "rating": 4.5, "num_reviews": 0, "website": "http://gurugochi.com/yumezake-snjk3chome/", "contact_phone": "+81 50-7300-4919", "contact_email": null, "status": 1, "source_type": 1, "numberReviews": 3}, {"name": "Bonta Bonta Echika Ikebukuro", "type": "restaurant", "image": "https://dynamic-media-cdn.tripadvisor.com/media/photo-o/17/a4/e5/88/20190518-123309-largejpg.jpg?w=1000&s=1", "address": "3-28-14 Nishiikebukuro Echika Ikebukuro, Toshima 171-0021 Qu\u00e2\u0323n Tokyo", "lat": 35.731697, "lng": 139.7073, "ref_id": 13481710, "rating": 4, "num_reviews": 0, "website": "http://www.bontabonta.jp/", "contact_phone": "+81 3-5952-0165", "contact_email": null, "status": 1, "source_type": 1, "numberReviews": 5}, {"name": "Umenoya Confectionery", "type": "restaurant", "image": "https://dynamic-media-cdn.tripadvisor.com/media/photo-o/1c/63/c8/20/caption.jpg?w=1000&s=1", "address": "2789-2 Mizuko, Fujimi 354-0011 Saitama Prefecture", "lat": 35.84262, "lng": 139.56825, "ref_id": 13041343, "rating": 5, "num_reviews": 0, "website": null, "contact_phone": "+81 49-251-2245", "contact_email": null, "status": 1, "source_type": 1, "numberReviews": 2}, {"name": "Steak House Kyoya", "type": "restaurant", "image": "https://dynamic-media-cdn.tripadvisor.com/media/photo-o/13/a2/52/e6/200g.jpg?w=1000&s=1", "address": "3-59-9 Koenji Minami Nakanishi Bldg. 1F, Suginami 166-0003 Qu\u00e2\u0323n Tokyo", "lat": 35.705055, "lng": 139.6477, "ref_id": 9905272, "rating": 4.5, "num_reviews": 0, "website": null, "contact_phone": "+81 3-3311-0577", "contact_email": null, "status": 1, "source_type": 1, "numberReviews": 3}, {"name": "Captain", "type": "restaurant", "image": "https://dynamic-media-cdn.tripadvisor.com/media/photo-o/1a/ce/63/f2/img-20200205-191745-largejpg.jpg?w=1000&s=1", "address": "7-19-11 Kodama Building 1F, Nishishinjuku, Shinjuku 160-0023 Qu\u00e2\u0323n Tokyo", "lat": 35.69567, "lng": 139.69621, "ref_id": 13938850, "rating": 4.5, "num_reviews": 0, "website": null, "contact_phone": "+81 3-5358-9626", "contact_email": null, "status": 1, "source_type": 1, "numberReviews": 3}, {"name": "Los Cabos Ikebukuro West Entrance", "type": "restaurant", "image": "https://dynamic-media-cdn.tripadvisor.com/media/daodao/photo-o/17/f3/c1/c6/photo5jpg.jpg?w=1000&s=1", "address": "2-40-1 Ikebukuro B1F, Toshima 171-0014 Qu\u00e2\u0323n Tokyo", "lat": 35.733086, "lng": 139.70892, "ref_id": 4669193, "rating": 4, "num_reviews": 0, "website": "https://www.pasela.co.jp/shoplist/loscabos/ikebukuro_nishiguchi?mb-listing", "contact_phone": "+81 120-922-462", "contact_email": null, "status": 1, "source_type": 1, "numberReviews": 16}, {"name": "Tochi No Kiya", "type": "restaurant", "image": "https://dynamic-media-cdn.tripadvisor.com/media/photo-o/16/c6/30/d7/soba.jpg?w=1000&s=1", "address": "3-14-17, Sugamo, Toshima 170-0002 Qu\u00e2\u0323n Tokyo", "lat": 35.736435, "lng": 139.73363, "ref_id": 9622625, "rating": 4, "num_reviews": 0, "website": "http://tochinokiya.com/", "contact_phone": "+81 50-5789-8534", "contact_email": null, "status": 1, "source_type": 1, "numberReviews": 5}, {"name": "Saizeriya Emio Musashisakai", "type": "restaurant", "image": "https://dynamic-media-cdn.tripadvisor.com/media/photo-o/19/f8/a4/59/caption.jpg?w=1000&s=1", "address": "2-1-17 Kyonancho Emio Musashisakai 1F, Musashino 180-0023 Qu\u00e2\u0323n Tokyo", "lat": 35.701927, "lng": 139.54266, "ref_id": 10524256, "rating": 3.5, "num_reviews": 0, "website": "http://shop.saizeriya.co.jp/sz_restaurant/spot/detail?code=1192", "contact_phone": "+81 422-39-6061", "contact_email": null, "status": 1, "source_type": 1, "numberReviews": 8}, {"name": "Karagenki", "type": "restaurant", "image": "https://dynamic-media-cdn.tripadvisor.com/media/photo-o/0d/22/58/45/uakitori-garigari-ice.jpg?w=1000&s=1", "address": "1-26-1 Fugetsu Hall 1F, Kabukicho, Shinjuku 160-0021 Qu\u00e2\u0323n Tokyo", "lat": 35.694885, "lng": 139.70052, "ref_id": 6048161, "rating": 4, "num_reviews": 0, "website": null, "contact_phone": "+81 3-3204-7277", "contact_email": null, "status": 1, "source_type": 1, "numberReviews": 9}, {"name": "Royal Host", "type": "restaurant", "image": "https://dynamic-media-cdn.tripadvisor.com/media/photo-o/18/6a/47/4e/photo0jpg.jpg?w=1000&s=1", "address": "3-6-1 Josuihoncho, Kodaira 187-0022 Qu\u00e2\u0323n Tokyo", "lat": 35.717407, "lng": 139.46904, "ref_id": 4666727, "rating": 4, "num_reviews": 0, "website": "https://locations.royalhost.jp/113000", "contact_phone": "+81 42-325-5624", "contact_email": null, "status": 1, "source_type": 1, "numberReviews": 17}, {"name": "Komeda coffeeten Marui Omiya", "type": "restaurant", "image": "https://dynamic-media-cdn.tripadvisor.com/media/photo-o/15/de/b0/05/photo0jpg.jpg?w=1000&s=1", "address": "2-3 Sakuragicho, Omiya-Ku Omiya Marui, Saitama 330-9501 Saitama Prefecture", "lat": 35.906975, "lng": 139.62178, "ref_id": 15098203, "rating": 4.5, "num_reviews": 0, "website": "http://www.komeda.co.jp/", "contact_phone": "+81 48-657-8448", "contact_email": null, "status": 1, "source_type": 1, "numberReviews": 4}, {"name": "Premier Saint German Shinjuku Takahimaya", "type": "restaurant", "image": "https://dynamic-media-cdn.tripadvisor.com/media/photo-o/16/8d/49/4b/caption.jpg?w=1000&s=1", "address": "5-24-2, Sendagaya, Shibuya Qu\u00e2\u0323n Tokyo", "lat": 35.68597, "lng": 139.70248, "ref_id": 3811334, "rating": 3.5, "num_reviews": 0, "website": null, "contact_phone": "+81 3-3358-0908", "contact_email": null, "status": 1, "source_type": 1, "numberReviews": 7}, {"name": "Yakiya Nakano", "type": "restaurant", "image": "https://dynamic-media-cdn.tripadvisor.com/media/photo-o/08/8e/72/e8/caption.jpg?w=1000&s=1", "address": "2-27-14, Nakano, Nakano Qu\u00e2\u0323n Tokyo", "lat": 35.703827, "lng": 139.66599, "ref_id": 7491941, "rating": 3.5, "num_reviews": 0, "website": null, "contact_phone": "+81 3-3381-8184", "contact_email": null, "status": 1, "source_type": 1, "numberReviews": 12}, {"name": "Bistro Petit", "type": "restaurant", "image": "https://dynamic-media-cdn.tripadvisor.com/media/photo-o/11/49/9b/91/photo1jpg.jpg?w=1000&s=1", "address": "2-20-4 Nishiogi Minami, Suginami Qu\u00e2\u0323n Tokyo", "lat": 35.70084, "lng": 139.59904, "ref_id": 7493440, "rating": 4, "num_reviews": 0, "website": null, "contact_phone": "+81 3-5941-3660", "contact_email": null, "status": 1, "source_type": 1, "numberReviews": 5}, {"name": "Ikinari Steak Ginza 4-Chome", "type": "restaurant", "image": "https://dynamic-media-cdn.tripadvisor.com/media/photo-o/15/1d/28/82/photo1jpg.jpg?w=1000&s=1", "address": "4-10-14 1F Neopine Ginza 410, Ginza, Chuo 104-0061 Qu\u00e2\u0323n Tokyo", "lat": 35.670376, "lng": 139.767, "ref_id": 7028874, "rating": 4, "num_reviews": 0, "website": "http://www.pepper-fs.co.jp/IkinariSTEAK/Ginza4.html", "contact_phone": "+81 3-6278-7429", "contact_email": null, "status": 1, "source_type": 1, "numberReviews": 71}, {"name": "Asakusa Sumo Club", "type": "restaurant", "image": "https://dynamic-media-cdn.tripadvisor.com/media/photo-o/2b/68/47/94/caption.jpg?w=1000&s=1", "address": "2-10-12, Asakusa, Taito 111-0032 Qu\u00e2\u0323n Tokyo", "lat": 35.718586, "lng": 139.79588, "ref_id": 27157705, "rating": 5, "num_reviews": 0, "website": "https://asakusa-sumo.com/", "contact_phone": "+81 3-5246-3344", "contact_email": "contact@asakusa-sumo.com", "status": 1, "source_type": 1, "numberReviews": 11}, {"name": "Ivorish Shibuya", "type": "restaurant", "image": "https://dynamic-media-cdn.tripadvisor.com/media/photo-o/17/37/0d/93/photo0jpg.jpg?w=1000&s=1", "address": "3-3 Udagawacho B1F, Shibuya 150-0042 Qu\u00e2\u0323n Tokyo", "lat": 35.662903, "lng": 139.69908, "ref_id": 6556402, "rating": 4, "num_reviews": 0, "website": "", "contact_phone": "+81 3-6455-3040", "contact_email": null, "status": 1, "source_type": 1, "numberReviews": 42}, {"name": "Terres de Truffes, Tokyo", "type": "restaurant", "image": "https://dynamic-media-cdn.tripadvisor.com/media/photo-o/08/cf/eb/f9/caption.jpg?w=1000&s=1", "address": "2-27-6 Minamiaoyama 1F Reve Aoyama Bldg., Minato 107-0062 Qu\u00e2\u0323n Tokyo", "lat": 35.669235, "lng": 139.71716, "ref_id": 7895940, "rating": 4.5, "num_reviews": 0, "website": "https://www.terresdetruffes.jp/", "contact_phone": "+81 50-1807-6980", "contact_email": "truffes-tokyo@wondertable.com", "status": 1, "source_type": 1, "numberReviews": 31}, {"name": "Tsukiji Aozora Sandaime at Ginza Mitsukoshi", "type": "restaurant", "image": "https://dynamic-media-cdn.tripadvisor.com/media/daodao/photo-o/18/eb/8c/66/photo0jpg.jpg?w=1000&s=1", "address": "4-6-16 Ginza Mitsukoshi 11F, Ginza, Chuo 104-0061 Qu\u00e2\u0323n Tokyo", "lat": 35.664932, "lng": 139.77061, "ref_id": 6418904, "rating": 4.5, "num_reviews": 0, "website": "http://www.ginzadining.com/restaurant/detail/aozora/index.html", "contact_phone": "+81 3-3561-7021", "contact_email": null, "status": 1, "source_type": 1, "numberReviews": 56}, {"name": "Heiroku Sushi Tokyo Shinjuku Okubo", "type": "restaurant", "image": "https://dynamic-media-cdn.tripadvisor.com/media/photo-o/0c/c4/ba/1a/caption.jpg?w=1000&s=1", "address": "2-20-2 Hyakunincho, Shinjuku 169-0073 Qu\u00e2\u0323n Tokyo", "lat": 35.70167, "lng": 139.69774, "ref_id": 3828051, "rating": 4, "num_reviews": 0, "website": "http://www.heiroku.jp/store/tokyo-shinjuku-ookubo/", "contact_phone": "+81 3-3367-4252", "contact_email": "k_memezawa@g-taste.co.jp", "status": 1, "source_type": 1, "numberReviews": 33}, {"name": "Thai Dining Room Old Thailand Shimbashi", "type": "restaurant", "image": "https://dynamic-media-cdn.tripadvisor.com/media/photo-o/0a/62/a4/d5/caption.jpg?w=1000&s=1", "address": "2-15-3, Shimbashi, Minato Qu\u00e2\u0323n Tokyo", "lat": 35.666706, "lng": 139.75641, "ref_id": 3821823, "rating": 4, "num_reviews": 0, "website": "http://www.sscy.co.jp/oldthailand/shopinfo_shinbashi.html", "contact_phone": "+81 3-6206-1532", "contact_email": null, "status": 1, "source_type": 1, "numberReviews": 37}, {"name": "Asakusa Sushiken", "type": "restaurant", "image": "https://dynamic-media-cdn.tripadvisor.com/media/photo-o/15/65/97/05/1.jpg?w=1000&s=1", "address": "2-11-4, Asakusa, Taito 111-0032 Qu\u00e2\u0323n Tokyo", "lat": 35.713947, "lng": 139.79265, "ref_id": 3761246, "rating": 4, "num_reviews": 0, "website": "http://www.asakusa-sushiken.com/", "contact_phone": "+81 3-5246-6547", "contact_email": null, "status": 1, "source_type": 1, "numberReviews": 58}, {"name": "Teppan 200\u00b0C\u00a0Nishi Shinjuku", "type": "restaurant", "image": "https://dynamic-media-cdn.tripadvisor.com/media/photo-o/11/fc/46/4c/caption.jpg?w=1000&s=1", "address": "7-10-18 Otakibashi Pacifica Bldg. 3F, Nishishinjuku, Shinjuku 160-0023 Qu\u00e2\u0323n Tokyo", "lat": 35.694485, "lng": 139.69876, "ref_id": 3790742, "rating": 4.5, "num_reviews": 0, "website": "http://sfpdining.jp/", "contact_phone": "+81 3-5337-1305", "contact_email": null, "status": 1, "source_type": 1, "numberReviews": 34}, {"name": "Chinese Restaurant Pekin, Shiba Park Hotel", "type": "restaurant", "image": "https://dynamic-media-cdn.tripadvisor.com/media/photo-o/19/12/de/66/dsc-5981-largejpg.jpg?w=1000&s=1", "address": "1-5-10 Shiba Park Hotel B1F, Shibakoen, Minato 105-0011 Qu\u00e2\u0323n Tokyo", "lat": 35.658722, "lng": 139.75243, "ref_id": 1662980, "rating": 4.5, "num_reviews": 0, "website": "http://www.shibaparkhotel.com/restaurant/peking.php", "contact_phone": "+81 3-5470-7671", "contact_email": "peking@shibaparkhotel.com", "status": 1, "source_type": 1, "numberReviews": 34}, {"name": "Ode", "type": "restaurant", "image": "https://dynamic-media-cdn.tripadvisor.com/media/photo-o/1c/d0/08/1b/caption.jpg?w=1000&s=1", "address": "5-1-32 ST Hiroo 2F, Hiroo, Shibuya 150-0012 Qu\u00e2\u0323n Tokyo", "lat": 35.64911, "lng": 139.71904, "ref_id": 14109160, "rating": 4.5, "num_reviews": 0, "website": "http://restaurant-ode.com/", "contact_phone": "+81 3-6447-7480", "contact_email": "info@restaurant-ode.com", "status": 1, "source_type": 1, "numberReviews": 21}, {"name": "Tonkatsu Maisen Daimaru Tokyo B1F", "type": "restaurant", "image": "https://dynamic-media-cdn.tripadvisor.com/media/photo-o/09/3b/d7/0f/photo2jpg.jpg?w=1000&s=1", "address": "1-9-1 B1F Daimaru Tokyo, Marunouchi, Chiyoda 100-6701 Qu\u00e2\u0323n Tokyo", "lat": 35.68183, "lng": 139.76678, "ref_id": 3839701, "rating": 4, "num_reviews": 0, "website": "http://www.mai-sen.com/", "contact_phone": "+81 3-6895-2771", "contact_email": null, "status": 1, "source_type": 1, "numberReviews": 43}, {"name": "Shabu Shabu Sushi Hassan", "type": "restaurant", "image": "https://dynamic-media-cdn.tripadvisor.com/media/photo-o/07/eb/ed/41/caption.jpg?w=1000&s=1", "address": "6-1-20 B1F Denki Bldg., Roppongi, Minato 106-0032 Qu\u00e2\u0323n Tokyo", "lat": 35.662003, "lng": 139.73198, "ref_id": 7725737, "rating": 4, "num_reviews": 0, "website": "http://hassan.createrestaurants.com/", "contact_phone": "+81 3-3403-8333", "contact_email": "0927@createrestaurants.com", "status": 1, "source_type": 1, "numberReviews": 61}, {"name": "Shunsai", "type": "restaurant", "image": "https://dynamic-media-cdn.tripadvisor.com/media/photo-o/04/4b/f8/85/shunsai-shibuya-mark.jpg?w=1000&s=1", "address": "1-12-2 Dogenzaka Shibuya Excel Hotel Tokyu 25F, Shibuya 150-0043 Qu\u00e2\u0323n Tokyo", "lat": 35.65912, "lng": 139.70027, "ref_id": 1676647, "rating": 4, "num_reviews": 0, "website": "https://www.tokyuhotels.co.jp/shibuya-e/restaurant/shunsai/index.html", "contact_phone": "+81 3-5457-0131", "contact_email": "", "status": 1, "source_type": 1, "numberReviews": 52}, {"name": "Singapore Seafood Republic Ginza", "type": "restaurant", "image": "https://dynamic-media-cdn.tripadvisor.com/media/photo-o/09/f0/27/a8/caption.jpg?w=1000&s=1", "address": "2-2-14, Ginza, Chuo 104-0061 Qu\u00e2\u0323n Tokyo", "lat": 35.674202, "lng": 139.76505, "ref_id": 1671591, "rating": 3.5, "num_reviews": 0, "website": "https://singaporeseafood.jp/ginza", "contact_phone": "+81 3-5524-7615", "contact_email": "", "status": 1, "source_type": 1, "numberReviews": 131}, {"name": "Shinjuku Pit Inn", "type": "restaurant", "image": "https://dynamic-media-cdn.tripadvisor.com/media/photo-o/0c/9a/ce/c6/20160819-151401-largejpg.jpg?w=1000&s=1", "address": "2-12-4 Shinjuku B1F Accord Shinjuku Bldg., Shinjuku 160-0022 Qu\u00e2\u0323n Tokyo", "lat": 35.69064, "lng": 139.7073, "ref_id": 7151888, "rating": 4.5, "num_reviews": 0, "website": "http://www.pit-inn.com/index_j.php", "contact_phone": "+81 3-3354-2024", "contact_email": null, "status": 1, "source_type": 1, "numberReviews": 28}, {"name": "Oyakidokororefutei", "type": "restaurant", "image": "https://dynamic-media-cdn.tripadvisor.com/media/photo-o/0d/66/05/93/16.jpg?w=1000&s=1", "address": "5-63-3, Nakano, Nakano 164-0001 Qu\u00e2\u0323n Tokyo", "lat": 35.706383, "lng": 139.66595, "ref_id": 1664602, "rating": 4, "num_reviews": 0, "website": null, "contact_phone": "+81 3-3387-3048", "contact_email": "", "status": 1, "source_type": 1, "numberReviews": 59}, {"name": "Katsukichi, Shin-maru Building", "type": "restaurant", "image": "https://dynamic-media-cdn.tripadvisor.com/media/photo-o/26/b6/2d/52/domestic-brand-pork-fillet.jpg?w=1000&s=1", "address": "1-5-1 New Marunouchi Bldg. 5F, Marunouchi, Chiyoda 100-6505 Qu\u00e2\u0323n Tokyo", "lat": 35.682545, "lng": 139.76433, "ref_id": 1667217, "rating": 4, "num_reviews": 0, "website": "http://www.bodaijyu.co.jp/restaurant/shinmaru/", "contact_phone": "+81 50-3134-5268", "contact_email": "", "status": 1, "source_type": 1, "numberReviews": 45}, {"name": "The Burger Craft", "type": "restaurant", "image": "https://dynamic-media-cdn.tripadvisor.com/media/photo-o/28/af/70/61/burgers.jpg?w=1000&s=1", "address": "3-17-3, Asakusa, Taito 111-0032 Qu\u00e2\u0323n Tokyo", "lat": 35.717403, "lng": 139.7944, "ref_id": 13196285, "rating": 5, "num_reviews": 0, "website": "http://www.the-burger-craft.com/", "contact_phone": "+81 3-6324-5741", "contact_email": "contact@the-burger-craft.com", "status": 1, "source_type": 1, "numberReviews": 18}, {"name": "Kushiage Shinjuku Tatsukichi", "type": "restaurant", "image": "https://dynamic-media-cdn.tripadvisor.com/media/photo-o/1b/3c/ed/8b/photo4jpg.jpg?w=1000&s=1", "address": "4-14-1 Sotokanda, Chiyoda 101-0021 Qu\u00e2\u0323n Tokyo", "lat": 35.690956, "lng": 139.70506, "ref_id": 1670534, "rating": 4.5, "num_reviews": 0, "website": "http://www.shinjuku-tatsukichi.com", "contact_phone": "+81 3-5289-8331", "contact_email": "", "status": 1, "source_type": 1, "numberReviews": 42}, {"name": "Yasubee", "type": "restaurant", "image": "https://dynamic-media-cdn.tripadvisor.com/media/photo-o/15/f6/a9/6e/photo0jpg.jpg?w=1000&s=1", "address": "1-2-3, Nishishinjuku, Shinjuku 160-0023 Qu\u00e2\u0323n Tokyo", "lat": 35.693073, "lng": 139.69963, "ref_id": 1665630, "rating": 4.5, "num_reviews": 0, "website": "http://shinjuku-omoide.com/shop/yasubee/index.html", "contact_phone": "+81 3-3342-2661", "contact_email": "", "status": 1, "source_type": 1, "numberReviews": 29}, {"name": "Ushio", "type": "restaurant", "image": "https://dynamic-media-cdn.tripadvisor.com/media/photo-o/11/bb/a9/0b/caption.jpg?w=1000&s=1", "address": "2-4-4 Kanda Awajicho, Chiyoda 101-0063 Qu\u00e2\u0323n Tokyo", "lat": 35.696396, "lng": 139.76773, "ref_id": 9728256, "rating": 4.5, "num_reviews": 0, "website": null, "contact_phone": "+81 3-6206-9322", "contact_email": null, "status": 1, "source_type": 1, "numberReviews": 29}, {"name": "Sharin Ecute Akabane", "type": "restaurant", "image": "https://dynamic-media-cdn.tripadvisor.com/media/photo-o/18/2c/b2/78/photo1jpg.jpg?w=1000&s=1", "address": "1-1-1 Akabane, Kita 115-0045 Qu\u00e2\u0323n Tokyo", "lat": 35.77735, "lng": 139.72122, "ref_id": 6157701, "rating": 3.5, "num_reviews": 0, "website": "http://tsukemen-sharin.com/", "contact_phone": "+81 3-3901-3568", "contact_email": null, "status": 1, "source_type": 1, "numberReviews": 70}, {"name": "Semauru Shokudo Shinokubo", "type": "restaurant", "image": "https://dynamic-media-cdn.tripadvisor.com/media/photo-o/12/bb/81/43/photo0jpg.jpg?w=1000&s=1", "address": "1-1-4 Hyakunincho T. K Bldg 1F, Shinjuku 169-0073 Qu\u00e2\u0323n Tokyo", "lat": 35.698128, "lng": 139.70126, "ref_id": 8824427, "rating": 4, "num_reviews": 0, "website": null, "contact_phone": "+81 3-6205-6226", "contact_email": null, "status": 1, "source_type": 1, "numberReviews": 44}, {"name": "We Are the Farm Akasaka", "type": "restaurant", "image": "https://dynamic-media-cdn.tripadvisor.com/media/photo-o/1d/36/18/51/appetizer-of-seasonal.jpg?w=1000&s=1", "address": "2-17-69 1F, Akasaka, Minato 107-0052 Qu\u00e2\u0323n Tokyo", "lat": 35.671665, "lng": 139.73866, "ref_id": 15116505, "rating": 4.5, "num_reviews": 0, "website": "https://www.allfarm.co.jp/we-are-the-farm", "contact_phone": "+81 3-6441-2745", "contact_email": null, "status": 1, "source_type": 1, "numberReviews": 24}, {"name": "Sakenoana", "type": "restaurant", "image": "https://dynamic-media-cdn.tripadvisor.com/media/photo-o/15/bb/3b/f7/5.jpg?w=1000&s=1", "address": "3-5-8, Ginza, Chuo 104-0061 Qu\u00e2\u0323n Tokyo", "lat": 35.67226, "lng": 139.7663, "ref_id": 1660789, "rating": 4, "num_reviews": 0, "website": "", "contact_phone": "+81 3-3567-1133", "contact_email": null, "status": 1, "source_type": 1, "numberReviews": 51}, {"name": "Zauo, Meguro", "type": "restaurant", "image": "https://dynamic-media-cdn.tripadvisor.com/media/photo-o/13/b7/e1/e2/photo1jpg.jpg?w=1000&s=1", "address": "2-27-1 Kamiosaki 5F San Ferista Meguro, Shinagawa 141-0021 Qu\u00e2\u0323n Tokyo", "lat": 35.634014, "lng": 139.71489, "ref_id": 7725916, "rating": 4, "num_reviews": 0, "website": "http://www.zauo.com/shop/", "contact_phone": "+81 3-6417-9588", "contact_email": "harbor.house88@gmai.com", "status": 1, "source_type": 1, "numberReviews": 40}, {"name": "Tonkatsu Maisen Ikebukuro Seibu", "type": "restaurant", "image": "https://dynamic-media-cdn.tripadvisor.com/media/photo-o/0a/9f/23/7d/caption.jpg?w=1000&s=1", "address": "1-28-1 Minamiikebukuro Ikebukuro Seibu Honkan B1F, Toshima 171-0022 Qu\u00e2\u0323n Tokyo", "lat": 35.728573, "lng": 139.71176, "ref_id": 1695575, "rating": 4, "num_reviews": 0, "website": "http://mai-sen.com/shop/toshima/03-5949-5049.html", "contact_phone": "+81 3-3981-0111", "contact_email": null, "status": 1, "source_type": 1, "numberReviews": 46}, {"name": "Torisoba Issa", "type": "restaurant", "image": "https://dynamic-media-cdn.tripadvisor.com/media/photo-o/09/96/65/62/caption.jpg?w=1000&s=1", "address": "1-8-11 Takasago Urawa-Ku, Saitama Saitama Prefecture", "lat": 35.857597, "lng": 139.65622, "ref_id": 7464043, "rating": 4, "num_reviews": 0, "website": null, "contact_phone": "+81 48-822-6611", "contact_email": null, "status": 1, "source_type": 1, "numberReviews": 40}, {"name": "Fumizen", "type": "restaurant", "image": "https://dynamic-media-cdn.tripadvisor.com/media/photo-o/1a/3a/65/31/img-20191203-205741-largejpg.jpg?w=1000&s=1", "address": "4-1 Kioicho Hotel New Otani Tokyo Arcade level, Chiyoda 102-0094 Qu\u00e2\u0323n Tokyo", "lat": 35.68111, "lng": 139.73428, "ref_id": 3911242, "rating": 4.5, "num_reviews": 0, "website": "http://www.natural-fs.com/fumizen/", "contact_phone": "+81 50-5269-7810", "contact_email": null, "status": 1, "source_type": 1, "numberReviews": 26}, {"name": "Tobiushi Iidabashi", "type": "restaurant", "image": "https://dynamic-media-cdn.tripadvisor.com/media/photo-o/15/32/ff/2e/caption.jpg?w=1000&s=1", "address": "2-2-12 Fujimi 4-5F KI001Bldg, Chiyoda 102-0071 Qu\u00e2\u0323n Tokyo", "lat": 35.699574, "lng": 139.74582, "ref_id": 8735943, "rating": 4.5, "num_reviews": 0, "website": "http://tobiushi.com/", "contact_phone": "+81 3-3239-0029", "contact_email": null, "status": 1, "source_type": 1, "numberReviews": 29}, {"name": "Taniya", "type": "restaurant", "image": "https://dynamic-media-cdn.tripadvisor.com/media/photo-o/17/64/14/83/kitchen.jpg?w=1000&s=1", "address": "2-15-7 Nihonbashiningyocho, Chuo 103-0013 Qu\u00e2\u0323n Tokyo", "lat": 35.684628, "lng": 139.7857, "ref_id": 8120871, "rating": 4, "num_reviews": 0, "website": "http://www.tg-supply.jp/taniya/shop/", "contact_phone": "+81 3-5695-3060", "contact_email": null, "status": 1, "source_type": 1, "numberReviews": 53}, {"name": "Beer Ma Kanda", "type": "restaurant", "image": "https://dynamic-media-cdn.tripadvisor.com/media/photo-o/1a/ac/82/ae/2-850.jpg?w=1000&s=1", "address": "1-6-4 Kajicho, Chiyoda 101-0044 Qu\u00e2\u0323n Tokyo", "lat": 35.690132, "lng": 139.77124, "ref_id": 15064448, "rating": 4.5, "num_reviews": 0, "website": "http://biama-kanda.com/", "contact_phone": "+81 3-3527-1900", "contact_email": null, "status": 1, "source_type": 1, "numberReviews": 22}, {"name": "Daikokuya Tempura", "type": "restaurant", "image": "https://dynamic-media-cdn.tripadvisor.com/media/photo-o/0c/41/b9/0f/mix-and-ebi-tendon.jpg?w=1000&s=1", "address": "1-38-10, Asakusa, Taito 111-0032 Qu\u00e2\u0323n Tokyo", "lat": 35.712738, "lng": 139.79556, "ref_id": 1690560, "rating": 3.5, "num_reviews": 0, "website": "http://www.tempura.co.jp/", "contact_phone": "+81 3-3844-1111", "contact_email": null, "status": 1, "source_type": 1, "numberReviews": 317}, {"name": "CafeRest'Cuzn Home GRound", "type": "restaurant", "image": "https://dynamic-media-cdn.tripadvisor.com/media/photo-o/07/8f/a4/34/caption.jpg?w=1000&s=1", "address": "2-17-9, Asakusa, Taito 111-0032 Qu\u00e2\u0323n Tokyo", "lat": 35.71604, "lng": 139.79388, "ref_id": 7815019, "rating": 4.5, "num_reviews": 0, "website": "http://cuznhome.tumblr.com/#_=_", "contact_phone": "+81 3-5246-4380", "contact_email": null, "status": 1, "source_type": 1, "numberReviews": 49}, {"name": "Mizushin Saikan", "type": "restaurant", "image": "https://dynamic-media-cdn.tripadvisor.com/media/photo-o/17/a4/ff/31/photo0jpg.jpg?w=1000&s=1", "address": "2-1-1, Asakusabashi, Taito Qu\u00e2\u0323n Tokyo", "lat": 35.698402, "lng": 139.78683, "ref_id": 1686410, "rating": 4.5, "num_reviews": 0, "website": null, "contact_phone": "+81 3-3861-0577", "contact_email": "", "status": 1, "source_type": 1, "numberReviews": 57}, {"name": "Kaitenzushi Toriton Ikebukuro Tobu", "type": "restaurant", "image": "https://dynamic-media-cdn.tripadvisor.com/media/photo-o/1a/3e/07/7e/dsc-1451-largejpg.jpg?w=1000&s=1", "address": "1-1-25 Nishiikebukuro Tobu Ikebukuro Department Store 11F, Toshima 171-8512 Qu\u00e2\u0323n Tokyo", "lat": 35.731014, "lng": 139.70981, "ref_id": 10604722, "rating": 4, "num_reviews": 0, "website": "http://toriton-kita1.jp/shop/ikebukuro/", "contact_phone": "+81 3-5927-1077", "contact_email": null, "status": 1, "source_type": 1, "numberReviews": 42}, {"name": "Vege Herb Saga", "type": "restaurant", "image": "https://dynamic-media-cdn.tripadvisor.com/media/photo-o/0c/13/0d/7b/caption.jpg?w=1000&s=1", "address": "5-22-1 B1F Torei Bldg., Ueno, Taito 110-0005 Qu\u00e2\u0323n Tokyo", "lat": 35.70593, "lng": 139.77533, "ref_id": 7379882, "rating": 4.5, "num_reviews": 0, "website": "http://www.vegeherbsaga.com", "contact_phone": "+81 3-5818-4154", "contact_email": null, "status": 1, "source_type": 1, "numberReviews": 43}, {"name": "Shinsekaisaikan", "type": "restaurant", "image": "https://dynamic-media-cdn.tripadvisor.com/media/photo-o/0d/f5/8f/5d/photo0jpg.jpg?w=1000&s=1", "address": "2-2 KandaJinbocho Shinsekai Building, Chiyoda 101-0051 Qu\u00e2\u0323n Tokyo", "lat": 35.696186, "lng": 139.7574, "ref_id": 1662113, "rating": 4, "num_reviews": 0, "website": "http://www.sinsekai.com/", "contact_phone": "+81 3-3261-4957", "contact_email": "info-sinsekai@sinsekai.com", "status": 1, "source_type": 1, "numberReviews": 72}, {"name": "Gansozushi Asakusa Mein Store", "type": "restaurant", "image": "https://dynamic-media-cdn.tripadvisor.com/media/photo-o/16/e9/18/22/1.jpg?w=1000&s=1", "address": "1-19-7, Asakusa, Taito Qu\u00e2\u0323n Tokyo", "lat": 35.711666, "lng": 139.79675, "ref_id": 7141171, "rating": 4.5, "num_reviews": 0, "website": "http://www.gansozushi.com", "contact_phone": "+81 3-3843-8830", "contact_email": null, "status": 1, "source_type": 1, "numberReviews": 43}, {"name": "Motenashi Kuroki", "type": "restaurant", "image": "https://dynamic-media-cdn.tripadvisor.com/media/photo-o/0a/f1/dc/71/caption.jpg?w=1000&s=1", "address": "2-15 Kandaizumicho 1f, Chiyoda 101-0024 Qu\u00e2\u0323n Tokyo", "lat": 35.698807, "lng": 139.78032, "ref_id": 6353019, "rating": 4.5, "num_reviews": 0, "website": null, "contact_phone": "+81 3-3863-7117", "contact_email": null, "status": 1, "source_type": 1, "numberReviews": 47}, {"name": "Rokurinsha Tokyo Soramachi", "type": "restaurant", "image": "https://dynamic-media-cdn.tripadvisor.com/media/photo-o/07/5c/27/0b/tokyo.jpg?w=1000&s=1", "address": "1-1-2 6F Tokyo Skytree Town Soramachi, Oshiage, Sumida 131-0045 Qu\u00e2\u0323n Tokyo", "lat": 35.710373, "lng": 139.8129, "ref_id": 6528453, "rating": 4, "num_reviews": 0, "website": "http://rokurinsha.com/", "contact_phone": "+81 3-5809-7368", "contact_email": null, "status": 1, "source_type": 1, "numberReviews": 84}, {"name": "Sukizuki", "type": "restaurant", "image": "https://dynamic-media-cdn.tripadvisor.com/media/photo-o/14/03/31/b0/kimg4770-largejpg.jpg?w=1000&s=1", "address": "2-12-8 Nishiasakusa Aramasa Bldg. 2F, Taito 111-0035 Qu\u00e2\u0323n Tokyo", "lat": 35.712578, "lng": 139.79155, "ref_id": 3883598, "rating": 5, "num_reviews": 0, "website": "http://aramasasukizuki.com/", "contact_phone": "+81 3-5811-1931", "contact_email": "aramasasukizuki@gmail.com", "status": 1, "source_type": 1, "numberReviews": 19}, {"name": "Megro", "type": "restaurant", "image": "https://dynamic-media-cdn.tripadvisor.com/media/photo-o/18/7c/5c/d5/several-parts-of-sashimi.jpg?w=1000&s=1", "address": "2-40-13 Hongo Bellshop Hongo 103, Bunkyo 113-0033 Qu\u00e2\u0323n Tokyo", "lat": 35.707092, "lng": 139.76018, "ref_id": 8613881, "rating": 5, "num_reviews": 0, "website": "https://megro19dal-fish.com/", "contact_phone": "+81 3-5844-6369", "contact_email": null, "status": 1, "source_type": 1, "numberReviews": 21}, {"name": "Rikugien Fukiage Chaya", "type": "restaurant", "image": "https://dynamic-media-cdn.tripadvisor.com/media/photo-o/09/ee/99/bd/1402709206548-largejpg.jpg?w=1000&s=1", "address": "6-16-3 Honkomagome, Bunkyo Qu\u00e2\u0323n Tokyo", "lat": 35.73312, "lng": 139.74573, "ref_id": 3787385, "rating": 4, "num_reviews": 0, "website": "https://www.tokyo-park.or.jp/park/format/facilities031.html", "contact_phone": "+81 3-3941-2222", "contact_email": null, "status": 1, "source_type": 1, "numberReviews": 56}, {"name": "Singapore Hainan Chifan, Suido Hashimoto", "type": "restaurant", "image": "https://dynamic-media-cdn.tripadvisor.com/media/photo-o/1a/f5/04/9d/caption.jpg?w=1000&s=1", "address": "2-1-1 Misakicho Misakicho Miyuki Bldg 2F, Chiyoda 101-0061 Qu\u00e2\u0323n Tokyo", "lat": 35.699978, "lng": 139.75601, "ref_id": 9903581, "rating": 4, "num_reviews": 0, "website": "http://www.hainanchifan.com/food_shop/#shop", "contact_phone": "+81 50-5789-3440", "contact_email": null, "status": 1, "source_type": 1, "numberReviews": 71}, {"name": "Sushinoike", "type": "restaurant", "image": "https://dynamic-media-cdn.tripadvisor.com/media/photo-o/18/26/b4/df/photo0jpg.jpg?w=1000&s=1", "address": "3-2-3, Yanaka, Taito 110-0001 Qu\u00e2\u0323n Tokyo", "lat": 35.724533, "lng": 139.76453, "ref_id": 1678606, "rating": 4.5, "num_reviews": 0, "website": "http://www.sushi-noike.com/", "contact_phone": "+81 3-3821-3922", "contact_email": "", "status": 1, "source_type": 1, "numberReviews": 38}, {"name": "Sakura Cafe & Restaurant Ikebukuro", "type": "restaurant", "image": "https://dynamic-media-cdn.tripadvisor.com/media/photo-o/08/9a/d3/79/caption.jpg?w=1000&s=1", "address": "2-39-10 Ikebukuro Sakura Hotel Ikebukuro Annex 1F, Toshima 171-0014 Qu\u00e2\u0323n Tokyo", "lat": 35.73353, "lng": 139.70862, "ref_id": 1681418, "rating": 4, "num_reviews": 0, "website": "http://www.sakura-cafe.asia/ikebukuro/index.php", "contact_phone": "+81 3-5391-2330", "contact_email": "info@sakura-cafe.asia", "status": 1, "source_type": 1, "numberReviews": 90}, {"name": "R Restaurant & Bar", "type": "restaurant", "image": "https://dynamic-media-cdn.tripadvisor.com/media/photo-o/0c/a3/ea/65/caption.jpg?w=1000&s=1", "address": "2-16-11 Kaminarimon 13F THE GATE HOTEL KAMINARIMON by HULIC, Taito 111-0034 Qu\u00e2\u0323n Tokyo", "lat": 35.710777, "lng": 139.7953, "ref_id": 4064175, "rating": 4, "num_reviews": 0, "website": "https://www.gate-hotel.jp/asakusa-kaminarimon/rb/restaurant.html", "contact_phone": "+81 3-5826-3876", "contact_email": "info-kaminarimon@gate-hotel.jp", "status": 1, "source_type": 1, "numberReviews": 51}, {"name": "Hai Di Lao Ikebukuro", "type": "restaurant", "image": "https://dynamic-media-cdn.tripadvisor.com/media/photo-o/0c/af/e3/c8/caption.jpg?w=1000&s=1", "address": "1-21-2 Minamiikebukuro Humax Pavilion Minamiikebukuro 5F 6F, Toshima 171-0022 Qu\u00e2\u0323n Tokyo", "lat": 35.728146, "lng": 139.71231, "ref_id": 8791558, "rating": 4, "num_reviews": 0, "website": "https://haidilao.owst.jp/", "contact_phone": "+81 90-6025-9237", "contact_email": null, "status": 1, "source_type": 1, "numberReviews": 65}, {"name": "Isegen", "type": "restaurant", "image": "https://dynamic-media-cdn.tripadvisor.com/media/photo-o/15/b4/cf/87/photo6jpg.jpg?w=1000&s=1", "address": "Kandasudacho, Chiyoda 101-0041 Qu\u00e2\u0323n Tokyo", "lat": 35.69666, "lng": 139.7691, "ref_id": 1677006, "rating": 4, "num_reviews": 0, "website": "http://www.isegen.com/", "contact_phone": "+81 3-3251-1229", "contact_email": "", "status": 1, "source_type": 1, "numberReviews": 59}, {"name": "Jojoen Tokyo Dome City Laqua", "type": "restaurant", "image": "https://dynamic-media-cdn.tripadvisor.com/media/photo-o/18/8f/35/ec/photo2jpg.jpg?w=1000&s=1", "address": "1-1-1 Kasuga Tokyo Dome City Laqua 9F, Bunkyo 112-0003 Qu\u00e2\u0323n Tokyo", "lat": 35.706573, "lng": 139.7529, "ref_id": 3758197, "rating": 4, "num_reviews": 0, "website": "https://www.jojoen.co.jp/shop/jojoen/laqua/", "contact_phone": "+81 3-3816-8989", "contact_email": null, "status": 1, "source_type": 1, "numberReviews": 55}, {"name": "Grill 1930 Tsubame Grill Atre Ueno", "type": "restaurant", "image": "https://dynamic-media-cdn.tripadvisor.com/media/photo-o/1d/38/75/ea/caption.jpg?w=1000&s=1", "address": "7-1-1, Ueno, Taito Qu\u00e2\u0323n Tokyo", "lat": 35.71248, "lng": 139.77634, "ref_id": 3782679, "rating": 4, "num_reviews": 0, "website": "http://www.tsubame-grill.co.jp/", "contact_phone": "+81 3-5826-5809", "contact_email": null, "status": 1, "source_type": 1, "numberReviews": 54}, {"name": "Hormone Aoki No.2", "type": "restaurant", "image": "https://dynamic-media-cdn.tripadvisor.com/media/photo-o/0f/32/ff/ba/caption.jpg?w=1000&s=1", "address": "5-13-1, Kameido, Koto 136-0071 Qu\u00e2\u0323n Tokyo", "lat": 35.69882, "lng": 139.82614, "ref_id": 1694606, "rating": 4.5, "num_reviews": 0, "website": null, "contact_phone": "+81 3-3682-3090", "contact_email": "", "status": 1, "source_type": 1, "numberReviews": 44}, {"name": "Yamaya Ikebukuro", "type": "restaurant", "image": "https://dynamic-media-cdn.tripadvisor.com/media/photo-o/07/75/57/e4/caption.jpg?w=1000&s=1", "address": "3-1-2 Higashiikebukuro 3F Sunshine City Senmontengai Alpa, Toshima 170-0013 Qu\u00e2\u0323n Tokyo", "lat": 35.729065, "lng": 139.71898, "ref_id": 7310462, "rating": 4, "num_reviews": 0, "website": "http://www.y-shokukobo.com/store/detail.php?id=7", "contact_phone": "+81 3-5952-0888", "contact_email": null, "status": 1, "source_type": 1, "numberReviews": 48}, {"name": "Ramen Kai", "type": "restaurant", "image": "https://dynamic-media-cdn.tripadvisor.com/media/photo-o/15/7f/71/2c/kitchen.jpg?w=1000&s=1", "address": "4-20-10 Kuramae Miyauchi Bldg.1F, Taito 111-0051 Qu\u00e2\u0323n Tokyo", "lat": 35.70439, "lng": 139.79028, "ref_id": 10311387, "rating": 4, "num_reviews": 0, "website": "https://www.facebook.com/kainoodles/", "contact_phone": "+81 3-3864-6055", "contact_email": null, "status": 1, "source_type": 1, "numberReviews": 37}, {"name": "Kameido Gyoza Ryogoku", "type": "restaurant", "image": "https://dynamic-media-cdn.tripadvisor.com/media/photo-o/15/f5/75/e0/caption.jpg?w=1000&s=1", "address": "4-34-10 Ryogoku, Sumida Qu\u00e2\u0323n Tokyo", "lat": 35.695038, "lng": 139.7973, "ref_id": 3753700, "rating": 4, "num_reviews": 0, "website": null, "contact_phone": "+81 3-3631-3740", "contact_email": null, "status": 1, "source_type": 1, "numberReviews": 44}, {"name": "Rikyu Ikebukuro", "type": "restaurant", "image": "https://dynamic-media-cdn.tripadvisor.com/media/photo-o/0a/8a/1b/28/rikyu-ikebukuroten.jpg?w=1000&s=1", "address": "1-12-1 Nishiikebukuro Esola Ikebukuro 7F, Toshima 171-0021 Qu\u00e2\u0323n Tokyo", "lat": 35.729744, "lng": 139.70964, "ref_id": 3703841, "rating": 4, "num_reviews": 0, "website": "https://rikyu-esolaikebukuro.gorp.jp/", "contact_phone": "+81 3-5952-0404", "contact_email": null, "status": 1, "source_type": 1, "numberReviews": 61}, {"name": "Gyukatsu Aona, Okachimachi", "type": "restaurant", "image": "https://dynamic-media-cdn.tripadvisor.com/media/photo-o/10/b5/5e/11/wagyu-beef.jpg?w=1000&s=1", "address": "6-5-7 1F Jun Bldg., Ueno, Taito 110-0005 Qu\u00e2\u0323n Tokyo", "lat": 35.708954, "lng": 139.77567, "ref_id": 8059308, "rating": 4, "num_reviews": 0, "website": "https://gyukatsu-aona-okachimachi.com/", "contact_phone": "+81 3-6240-1979", "contact_email": null, "status": 1, "source_type": 1, "numberReviews": 54}, {"name": "Shin-Nihon Yakiniku Tou", "type": "restaurant", "image": "https://dynamic-media-cdn.tripadvisor.com/media/photo-o/0b/01/9b/a3/20160425-174756-hdr-largejpg.jpg?w=1000&s=1", "address": "3-11-6 Higashinihombashi, Chuo 103-0004 Qu\u00e2\u0323n Tokyo", "lat": 35.692432, "lng": 139.78453, "ref_id": 5053732, "rating": 4.5, "num_reviews": 0, "website": "http://www.facebook.com/yakinikuto.higashinihonnbashi", "contact_phone": "+81 3-5623-9755", "contact_email": null, "status": 1, "source_type": 1, "numberReviews": 39}, {"name": "Meganemaru", "type": "restaurant", "image": "https://dynamic-media-cdn.tripadvisor.com/media/photo-o/0d/b0/ba/a7/caption.jpg?w=1000&s=1", "address": "191 Hatsushima, Atami 413-0004 Shizuoka Prefecture", "lat": 35.042473, "lng": 139.17046, "ref_id": 7409281, "rating": 4, "num_reviews": 0, "website": "http://www.meganemaru.com/shop", "contact_phone": "+81 557-67-1465", "contact_email": null, "status": 1, "source_type": 1, "numberReviews": 17}, {"name": "Moshiri-Soba Nakamura", "type": "restaurant", "image": "https://dynamic-media-cdn.tripadvisor.com/media/photo-o/1a/01/94/ec/caption.jpg?w=1000&s=1", "address": "Ninotaira, Hakone-machi, Ashigarashimo-gun 250-0407 tinh Kanagawa", "lat": 35.246487, "lng": 139.05072, "ref_id": 1681504, "rating": 3.5, "num_reviews": 0, "website": "http://soba-nakamura.jp/", "contact_phone": "+81 460-82-1643", "contact_email": "", "status": 1, "source_type": 1, "numberReviews": 31}, {"name": "Sengokuhara Yuzen", "type": "restaurant", "image": "https://dynamic-media-cdn.tripadvisor.com/media/photo-o/1b/41/05/ed/caption.jpg?w=1000&s=1", "address": "919-4 Sengokuhara, Hakone-machi, Ashigarashimo-gun 250-0631 tinh Kanagawa", "lat": 35.26701, "lng": 139.01271, "ref_id": 13053468, "rating": 4.5, "num_reviews": 0, "website": null, "contact_phone": "+81 460-84-6777", "contact_email": null, "status": 1, "source_type": 1, "numberReviews": 12}, {"name": "Chozumeya Ashinoko", "type": "restaurant", "image": "https://dynamic-media-cdn.tripadvisor.com/media/photo-o/17/0b/06/bd/1.jpg?w=1000&s=1", "address": "19 Motohakone, Hakone-machi, Ashigarashimo-gun 250-0522 tinh Kanagawa", "lat": 35.2023, "lng": 139.031, "ref_id": 7062218, "rating": 4, "num_reviews": 0, "website": "http://choudumeya-ashinoko.net/index.html", "contact_phone": "+81 460-83-1771", "contact_email": null, "status": 1, "source_type": 1, "numberReviews": 24}, {"name": "Cafe Douce", "type": "restaurant", "image": "https://dynamic-media-cdn.tripadvisor.com/media/photo-o/0d/87/34/f7/pasta-and-tea.jpg?w=1000&s=1", "address": "1143-42 Ninotaira, Hakone-machi, Ashigarashimo-gun tinh Kanagawa", "lat": 35.245953, "lng": 139.05116, "ref_id": 7418958, "rating": 4.5, "num_reviews": 0, "website": "http://www.hakone.or.jp/451?gana=member", "contact_phone": "+81 460-87-7331", "contact_email": null, "status": 1, "source_type": 1, "numberReviews": 13}, {"name": "Sugiyo Hoen Atami", "type": "restaurant", "image": "https://dynamic-media-cdn.tripadvisor.com/media/photo-o/10/b8/20/81/caption.jpg?w=1000&s=1", "address": "6-5 Taharahoncho, Atami 413-0011 Shizuoka Prefecture", "lat": 35.102554, "lng": 139.07758, "ref_id": 3876606, "rating": 4, "num_reviews": 0, "website": "", "contact_phone": "+81 557-86-3338", "contact_email": null, "status": 1, "source_type": 1, "numberReviews": 19}, {"name": "Sushi Dokoro Miyoshi", "type": "restaurant", "image": "https://dynamic-media-cdn.tripadvisor.com/media/photo-o/0a/ec/8c/b8/caption.jpg?w=1000&s=1", "address": "13-1 Showacho, Atami Shizuoka Prefecture", "lat": 35.09157, "lng": 139.07002, "ref_id": 7409243, "rating": 5, "num_reviews": 0, "website": null, "contact_phone": "+81 557-82-5469", "contact_email": null, "status": 1, "source_type": 1, "numberReviews": 10}, {"name": "Mizumitei", "type": "restaurant", "image": "https://dynamic-media-cdn.tripadvisor.com/media/photo-o/18/3a/96/10/photo0jpg.jpg?w=1000&s=1", "address": "162 Motohakone, Hakone-machi, Ashigarashimo-gun 250-0522 tinh Kanagawa", "lat": 35.235123, "lng": 138.99805, "ref_id": 1681395, "rating": 4, "num_reviews": 0, "website": "http://www.hakone-ashinoko.net/spot/72/", "contact_phone": "+81 460-84-7575", "contact_email": null, "status": 1, "source_type": 1, "numberReviews": 22}, {"name": "Restaurant Roi", "type": "restaurant", "image": "https://dynamic-media-cdn.tripadvisor.com/media/photo-o/13/f4/60/24/photo2jpg.jpg?w=1000&s=1", "address": "520 Kowakudani, Hakone-machi, Ashigarashimo-gun 250-0406 tinh Kanagawa", "lat": 35.24241, "lng": 139.04944, "ref_id": 1702690, "rating": 4, "num_reviews": 0, "website": "http://hakone-roi.com/", "contact_phone": "+81 460-82-4720", "contact_email": "", "status": 1, "source_type": 1, "numberReviews": 22}, {"name": "Ganso Unayoshi Honten", "type": "restaurant", "image": "https://dynamic-media-cdn.tripadvisor.com/media/photo-o/08/d3/63/c3/caption.jpg?w=1000&s=1", "address": "21-6 Midoricho, Mishima 411-0848 Shizuoka Prefecture", "lat": 35.114475, "lng": 138.9124, "ref_id": 1691437, "rating": 3.5, "num_reviews": 0, "website": "http://unayoshi.co.jp/", "contact_phone": "+81 55-975-3340", "contact_email": "", "status": 1, "source_type": 1, "numberReviews": 72}, {"name": "Gyoza no OSho Odawara", "type": "restaurant", "image": "https://dynamic-media-cdn.tripadvisor.com/media/photo-o/10/e7/65/1f/photo2jpg.jpg?w=1000&s=1", "address": "2-9-16 Sakaecho, Odawara 250-0011 tinh Kanagawa", "lat": 35.25543, "lng": 139.15868, "ref_id": 3848687, "rating": 4, "num_reviews": 0, "website": "http://map.ohsho.co.jp/b/ohsho/info/2101/", "contact_phone": "+81 465-24-8588", "contact_email": null, "status": 1, "source_type": 1, "numberReviews": 24}, {"name": "Chozumeya", "type": "restaurant", "image": "https://dynamic-media-cdn.tripadvisor.com/media/photo-o/04/4b/b1/93/chozumeya.jpg?w=1000&s=1", "address": "228 Sengokuhara, Hakone-machi, Ashigarashimo-gun 250-0631 tinh Kanagawa", "lat": 35.271427, "lng": 139.01035, "ref_id": 1701793, "rating": 4, "num_reviews": 0, "website": "", "contact_phone": "04-606-3900", "contact_email": null, "status": 1, "source_type": 1, "numberReviews": 38}, {"name": "Ragattsuo", "type": "restaurant", "image": "https://dynamic-media-cdn.tripadvisor.com/media/photo-o/0d/71/e0/a2/caption.jpg?w=1000&s=1", "address": "17-57 Ichibancho, Mishima 411-0036 Shizuoka Prefecture", "lat": 35.12545, "lng": 138.9106, "ref_id": 1690729, "rating": 4.5, "num_reviews": 0, "website": "http://www.ragazzo1995.net/", "contact_phone": "+81 55-971-0311", "contact_email": "", "status": 1, "source_type": 1, "numberReviews": 10}, {"name": "Riverside Kitchen & Bar", "type": "restaurant", "image": "https://dynamic-media-cdn.tripadvisor.com/media/photo-o/1a/e3/99/12/restaurant.jpg?w=1000&s=1", "address": "924-1 Kiga Hotel Indigo Hakone Gora, Hakone-machi, Ashigarashimo-gun 250-0402 tinh Kanagawa", "lat": 35.25267, "lng": 139.05048, "ref_id": 20091751, "rating": 5, "num_reviews": 0, "website": "http://hakonegora.hotelindigo.com/en/food-drinks/", "contact_phone": "+81 460-83-8680", "contact_email": "marketing.hotelindigohakone@ihg.com", "status": 1, "source_type": 1, "numberReviews": 5}, {"name": "Hamazushi Mishima Chuocho", "type": "restaurant", "image": "https://dynamic-media-cdn.tripadvisor.com/media/photo-o/0a/1c/73/ef/caption.jpg?w=1000&s=1", "address": "3-37 Chuocho, Mishima 411-0858 Shizuoka Prefecture", "lat": 35.11989, "lng": 138.9185, "ref_id": 7317540, "rating": 4, "num_reviews": 0, "website": "http://maps.hamazushi.com/jp/detail/4241.html", "contact_phone": "+81 55-983-5400", "contact_email": null, "status": 1, "source_type": 1, "numberReviews": 22}, {"name": "Musashi", "type": "restaurant", "image": "https://dynamic-media-cdn.tripadvisor.com/media/photo-o/0a/60/96/41/caption.jpg?w=1000&s=1", "address": "12-19 Ichibancho, Mishima Shizuoka Prefecture", "lat": 35.125294, "lng": 138.91296, "ref_id": 1697613, "rating": 4, "num_reviews": 0, "website": "http://www.mishima-kankou.com/spot/spot-category/eat/", "contact_phone": "+81 55-971-2909", "contact_email": "", "status": 1, "source_type": 1, "numberReviews": 17}, {"name": "McDonald's Atami Ekimae", "type": "restaurant", "image": "https://dynamic-media-cdn.tripadvisor.com/media/photo-o/0c/9c/26/6a/caption.jpg?w=1000&s=1", "address": "8-6 Taharahoncho, Atami 413-0011 Shizuoka Prefecture", "lat": 35.1029, "lng": 139.0783, "ref_id": 4901254, "rating": 3.5, "num_reviews": 0, "website": "https://map.mcdonalds.co.jp/map/22019", "contact_phone": "+81 557-85-5053", "contact_email": null, "status": 1, "source_type": 1, "numberReviews": 52}, {"name": "Hoshinoan", "type": "restaurant", "image": "https://dynamic-media-cdn.tripadvisor.com/media/photo-o/05/c0/e4/2b/caption.jpg?w=1000&s=1", "address": "817 Sengokuhara, Hakone-machi, Ashigarashimo-gun 250-0631 tinh Kanagawa", "lat": 35.259907, "lng": 139.00278, "ref_id": 1667529, "rating": 3.5, "num_reviews": 0, "website": "http://hakone-susuki.jp/hoshinoan/", "contact_phone": "+81 460-84-0055", "contact_email": "", "status": 1, "source_type": 1, "numberReviews": 32}, {"name": "Shonan Taishu Yokocho", "type": "restaurant", "image": "https://dynamic-media-cdn.tripadvisor.com/media/photo-o/1c/27/5d/4b/photo0jpg.jpg?w=1000&s=1", "address": "2-4-33 Sakaecho, Odawara 250-0011 tinh Kanagawa", "lat": 35.256565, "lng": 139.15767, "ref_id": 5053829, "rating": 4, "num_reviews": 0, "website": "http://odawara-izakaya.jp/sty", "contact_phone": "+81 465-20-3917", "contact_email": null, "status": 1, "source_type": 1, "numberReviews": 10}, {"name": "Scott Kyukan", "type": "restaurant", "image": "https://dynamic-media-cdn.tripadvisor.com/media/photo-o/15/fc/fd/e6/dsc-2557-largejpg.jpg?w=1000&s=1", "address": "12-6 Nagisacho, Atami 413-0014 Shizuoka Prefecture", "lat": 35.095608, "lng": 139.07483, "ref_id": 5124362, "rating": 4, "num_reviews": 0, "website": "", "contact_phone": "+81 557-81-4460", "contact_email": null, "status": 1, "source_type": 1, "numberReviews": 20}, {"name": "Tsuruzushi", "type": "restaurant", "image": "https://dynamic-media-cdn.tripadvisor.com/media/photo-o/16/db/be/31/photo0jpg.jpg?w=1000&s=1", "address": "384-1 Manatsuru Manazuru-Machi, Manazuru-machi, Ashigarashimo-gun 259-0201 tinh Kanagawa", "lat": 35.15691, "lng": 139.13326, "ref_id": 6064423, "rating": 4, "num_reviews": 0, "website": "http://www.tsurusushi.jp/", "contact_phone": "+81 465-68-5577", "contact_email": null, "status": 1, "source_type": 1, "numberReviews": 17}, {"name": "Shan-shan Hanten", "type": "restaurant", "image": "https://dynamic-media-cdn.tripadvisor.com/media/photo-o/14/ba/14/ef/photo0jpg.jpg?w=1000&s=1", "address": "12-22 Ichibancho, Mishima Shizuoka Prefecture", "lat": 35.125072, "lng": 138.91324, "ref_id": 3883075, "rating": 4, "num_reviews": 0, "website": "http://china285.com/", "contact_phone": "+81 55-991-5888", "contact_email": null, "status": 1, "source_type": 1, "numberReviews": 16}, {"name": "Rikuchabo", "type": "restaurant", "image": "https://dynamic-media-cdn.tripadvisor.com/media/photo-o/17/74/60/41/caption.jpg?w=1000&s=1", "address": "614 Kannami-Cho, Kannami-cho, Tagata-gun 419-0107 Shizuoka Prefecture", "lat": 35.090435, "lng": 138.95418, "ref_id": 4907444, "rating": 4, "num_reviews": 0, "website": "http://mishima.mypl.net/shop/00000342630", "contact_phone": "+81 55-978-1021", "contact_email": null, "status": 1, "source_type": 1, "numberReviews": 14}, {"name": "Sagamiya", "type": "restaurant", "image": "https://dynamic-media-cdn.tripadvisor.com/media/photo-o/09/17/19/f6/caption.jpg?w=1000&s=1", "address": "706-35 Yumoto, Hakone-machi, Ashigarashimo-gun 250-0311 tinh Kanagawa", "lat": 35.233196, "lng": 139.10413, "ref_id": 7418961, "rating": 4, "num_reviews": 0, "website": "http://sagamiya-honten.co.jp/", "contact_phone": "+81 460-85-6610", "contact_email": null, "status": 1, "source_type": 1, "numberReviews": 16}, {"name": "Scott Honten (Shinkan)", "type": "restaurant", "image": "https://dynamic-media-cdn.tripadvisor.com/media/photo-o/10/23/73/89/photo0jpg.jpg?w=1000&s=1", "address": "10-13 Nagisacho, Atami 413-0014 Shizuoka Prefecture", "lat": 35.09548, "lng": 139.07509, "ref_id": 4608511, "rating": 4, "num_reviews": 0, "website": "http://restaurant-scott.com/", "contact_phone": "+81 557-81-9493", "contact_email": null, "status": 1, "source_type": 1, "numberReviews": 24}, {"name": "Tsukumo", "type": "restaurant", "image": "https://dynamic-media-cdn.tripadvisor.com/media/photo-o/16/fd/1e/66/caption.jpg?w=1000&s=1", "address": "917-11 Sengokuhara, Hakone-machi, Ashigarashimo-gun 250-0631 tinh Kanagawa", "lat": 35.26761, "lng": 139.01228, "ref_id": 11878086, "rating": 3.5, "num_reviews": 0, "website": "http://hakone-soba.com/", "contact_phone": "+81 460-84-0899", "contact_email": null, "status": 1, "source_type": 1, "numberReviews": 30}, {"name": "Sawayaka Kannamiten", "type": "restaurant", "image": "https://dynamic-media-cdn.tripadvisor.com/media/photo-o/1a/fd/f4/81/caption.jpg?w=1000&s=1", "address": "130-1 Kamisawa, Kannami-cho, Tagata-gun 419-0122 Shizuoka Prefecture", "lat": 35.091766, "lng": 138.94661, "ref_id": 15321090, "rating": 4, "num_reviews": 0, "website": "http://www.genkotsu-hb.com/shop/kannami.php", "contact_phone": "+81 55-979-5588", "contact_email": null, "status": 1, "source_type": 1, "numberReviews": 14}, {"name": "Bonnet", "type": "restaurant", "image": "https://dynamic-media-cdn.tripadvisor.com/media/photo-o/04/9f/fd/31/bonnet.jpg?w=1000&s=1", "address": "8-14 Ginzacho, Atami 413-0013 Shizuoka Prefecture", "lat": 35.09668, "lng": 139.07341, "ref_id": 4900812, "rating": 3.5, "num_reviews": 0, "website": null, "contact_phone": "+81 557-81-4960", "contact_email": null, "status": 1, "source_type": 1, "numberReviews": 29}, {"name": "Kogen Saryo Fukufu", "type": "restaurant", "image": "https://dynamic-media-cdn.tripadvisor.com/media/photo-o/11/77/8a/f4/photo1jpg.jpg?w=1000&s=1", "address": "1246 Sengokuhara Hakone-Machi, Hakone-machi, Ashigarashimo-gun 250-0631 tinh Kanagawa", "lat": 35.263092, "lng": 139.0024, "ref_id": 6047959, "rating": 4, "num_reviews": 0, "website": "http://www.fukufu.jp/", "contact_phone": "+81 460-84-5050", "contact_email": null, "status": 1, "source_type": 1, "numberReviews": 15}, {"name": "Fukusushi", "type": "restaurant", "image": "https://dynamic-media-cdn.tripadvisor.com/media/photo-o/1a/2b/09/1b/photo6jpg.jpg?w=1000&s=1", "address": "406-6 Manatsuru, Manazuru-machi, Ashigarashimo-gun 259-0201 tinh Kanagawa", "lat": 35.156403, "lng": 139.1334, "ref_id": 3463088, "rating": 4, "num_reviews": 0, "website": null, "contact_phone": "+81 465-68-0862", "contact_email": null, "status": 1, "source_type": 1, "numberReviews": 15}, {"name": "Ramen Taro", "type": "restaurant", "image": "https://dynamic-media-cdn.tripadvisor.com/media/photo-o/11/b1/f8/6a/caption.jpg?w=1000&s=1", "address": "941-9 Suna, Kawagoe 350-1133 Saitama Prefecture", "lat": 35.889366, "lng": 139.49818, "ref_id": 9925048, "rating": -1, "num_reviews": 0, "website": null, "contact_phone": "+81 49-247-1833", "contact_email": null, "status": 1, "source_type": 1, "numberReviews": 0}, {"name": "Koraku Sushi Shirakuwa", "type": "restaurant", "image": null, "address": "263 Sakura-Ku, Oaza Shirakuwa, Saitama 338-0811 Saitama Prefecture", "lat": 35.87965, "lng": 139.60353, "ref_id": 13040243, "rating": -1, "num_reviews": 0, "website": null, "contact_phone": "+81 48-854-8661", "contact_email": null, "status": 1, "source_type": 1, "numberReviews": 0}, {"name": "Jonathan Mizuhodai Ekimae", "type": "restaurant", "image": null, "address": "2-2-1 Nishi Mizuhodai, Fujimi 354-0018 Saitama Prefecture", "lat": 35.83649, "lng": 139.54971, "ref_id": 9929464, "rating": -1, "num_reviews": 0, "website": null, "contact_phone": "+81 49-268-1151", "contact_email": null, "status": 1, "source_type": 1, "numberReviews": 0}, {"name": "Saizeriya Daiei Omiya", "type": "restaurant", "image": null, "address": "2-3 Sakuragicho, Omiya-ku Daiei Omiya B1F, Saitama 330-0854 Saitama Prefecture", "lat": 35.906887, "lng": 139.6218, "ref_id": 23841972, "rating": -1, "num_reviews": 0, "website": "http://shop.saizeriya.co.jp/sz_restaurant/spot/detail?code=1488", "contact_phone": "+81 48-658-7330", "contact_email": null, "status": 1, "source_type": 1, "numberReviews": 0}, {"name": "Arirang", "type": "restaurant", "image": null, "address": "1-68-102 Nakamaru, Kitamoto 364-0013 Saitama Prefecture", "lat": 36.02212, "lng": 139.54343, "ref_id": 9961460, "rating": -1, "num_reviews": 0, "website": null, "contact_phone": "+81 48-592-0555", "contact_email": null, "status": 1, "source_type": 1, "numberReviews": 0}, {"name": "Hozumi Restaurant", "type": "restaurant", "image": null, "address": "60-4 Minegishi Nishi-Ku, Saitama Saitama Prefecture", "lat": 35.931812, "lng": 139.55716, "ref_id": 7641892, "rating": -1, "num_reviews": 0, "website": null, "contact_phone": "+81 48-624-9241", "contact_email": null, "status": 1, "source_type": 1, "numberReviews": 0}, {"name": "Sumibiyaki Horumon Jinya", "type": "restaurant", "image": null, "address": "7-9-4 Shinshiraoka, Shiraoka 349-0212 Saitama Prefecture", "lat": 36.039604, "lng": 139.67183, "ref_id": 13039968, "rating": -1, "num_reviews": 0, "website": "https://shiraoka-jinya.gorp.jp/", "contact_phone": "+81 480-93-8091", "contact_email": null, "status": 1, "source_type": 1, "numberReviews": 0}, {"name": "Usukawa Gyosa & Chinese Bar Kobuta", "type": "restaurant", "image": null, "address": "Omiya-Ku Miyamachi 1-23 Kawagoeya Bld 1F, Saitama 330-0802 Saitama Prefecture", "lat": 35.908794, "lng": 139.62444, "ref_id": 9671747, "rating": -1, "num_reviews": 0, "website": null, "contact_phone": "+81 48-642-7230", "contact_email": null, "status": 1, "source_type": 1, "numberReviews": 0}, {"name": "Tonsaku", "type": "restaurant", "image": null, "address": "1-22-4 Higashi Urawa, Midori-Ku, Saitama Saitama Prefecture", "lat": 35.862133, "lng": 139.70297, "ref_id": 7462980, "rating": -1, "num_reviews": 0, "website": null, "contact_phone": "+81 48-874-3596", "contact_email": null, "status": 1, "source_type": 1, "numberReviews": 0}, {"name": "Tampopo", "type": "restaurant", "image": null, "address": "275-6 Hongocho, Kita-Ku, Saitama 331-0802 Saitama Prefecture", "lat": 35.93901, "lng": 139.63069, "ref_id": 14755547, "rating": -1, "num_reviews": 0, "website": null, "contact_phone": "+81 48-699-2187", "contact_email": null, "status": 1, "source_type": 1, "numberReviews": 0}, {"name": "Domino's Pizza Omiya Kushihikicho", "type": "restaurant", "image": null, "address": "1-454 Kushihikicho Omiya-ku Wellness 454, Saitama 330-0851 Saitama Prefecture", "lat": 35.911175, "lng": 139.60896, "ref_id": 20149230, "rating": -1, "num_reviews": 0, "website": "https://www.dominos.jp/en/store/86897", "contact_phone": "+81 48-665-6060", "contact_email": "customer@dominos.jp", "status": 1, "source_type": 1, "numberReviews": 0}, {"name": "Tsumuji", "type": "restaurant", "image": null, "address": "1-4-1 Takasago Urawa-Ku, Saitama 330-0063 Saitama Prefecture", "lat": 35.85733, "lng": 139.65709, "ref_id": 9671733, "rating": -1, "num_reviews": 0, "website": null, "contact_phone": "+81 48-834-3332", "contact_email": null, "status": 1, "source_type": 1, "numberReviews": 0}, {"name": "Izakaya Momo", "type": "restaurant", "image": null, "address": "351-1 Futtono, Minuma-Ku, Saitama Saitama Prefecture", "lat": 35.934845, "lng": 139.66397, "ref_id": 7463565, "rating": -1, "num_reviews": 0, "website": null, "contact_phone": "+81 48-688-6423", "contact_email": null, "status": 1, "source_type": 1, "numberReviews": 0}, {"name": "Miyahara Trihiko", "type": "restaurant", "image": null, "address": "3-291 Miyaharacho, Kita-Ku A Dream 21 1F, Saitama 331-0812 Saitama Prefecture", "lat": 35.9396, "lng": 139.61165, "ref_id": 17361436, "rating": -1, "num_reviews": 0, "website": null, "contact_phone": "+81 48-613-4911", "contact_email": null, "status": 1, "source_type": 1, "numberReviews": 0}, {"name": "Tendan", "type": "restaurant", "image": null, "address": "1-19-1 Kakura, Iwatsuki-Ku, Saitama Saitama Prefecture", "lat": 35.947468, "lng": 139.69014, "ref_id": 7664943, "rating": -1, "num_reviews": 0, "website": null, "contact_phone": "+81 48-756-5756", "contact_email": null, "status": 1, "source_type": 1, "numberReviews": 0}, {"name": "Tamigo-Tei", "type": "restaurant", "image": null, "address": "1-10-4 Hanasakikita, Kazo 347-0016 Saitama Prefecture", "lat": 36.110126, "lng": 139.6346, "ref_id": 9619906, "rating": -1, "num_reviews": 0, "website": null, "contact_phone": "+81 480-65-7660", "contact_email": null, "status": 1, "source_type": 1, "numberReviews": 0}, {"name": "Yoshiriki", "type": "restaurant", "image": null, "address": "1-9-3 Kitano, Fujimino Saitama Prefecture", "lat": 35.87733, "lng": 139.51001, "ref_id": 7539524, "rating": -1, "num_reviews": 0, "website": null, "contact_phone": "+81 49-266-6647", "contact_email": null, "status": 1, "source_type": 1, "numberReviews": 0}, {"name": "Gulp!", "type": "restaurant", "image": null, "address": "5-4-6 Minuma-Ku Higashi Omiya, Saitama 337-0051 Saitama Prefecture", "lat": 35.947887, "lng": 139.64102, "ref_id": 10656651, "rating": -1, "num_reviews": 0, "website": null, "contact_phone": "+81 48-687-9885", "contact_email": null, "status": 1, "source_type": 1, "numberReviews": 0}, {"name": "Ikesu Cuisine Komai", "type": "restaurant", "image": null, "address": "14-29 Wakita Honcho Sugita Bldg. 1F, Kawagoe 350-1123 Saitama Prefecture", "lat": 35.907692, "lng": 139.48058, "ref_id": 9955012, "rating": -1, "num_reviews": 0, "website": null, "contact_phone": "+81 49-248-1115", "contact_email": null, "status": 1, "source_type": 1, "numberReviews": 0}, {"name": "Nimta Kitayono", "type": "restaurant", "image": null, "address": "1-9-1 Kamiochiai, Chuo-Ku Yono House Building 3 1F, Saitama 338-0001 Saitama Prefecture", "lat": 35.8895, "lng": 139.62984, "ref_id": 14755815, "rating": -1, "num_reviews": 0, "website": null, "contact_phone": "+81 48-711-9706", "contact_email": null, "status": 1, "source_type": 1, "numberReviews": 0}, {"name": "Wasai Shubo Kasuga", "type": "restaurant", "image": null, "address": "2-14-7 Tsuruse Nishi, Fujimi Saitama Prefecture", "lat": 35.84414, "lng": 139.53304, "ref_id": 7538061, "rating": -1, "num_reviews": 0, "website": null, "contact_phone": "+81 49-251-1952", "contact_email": null, "status": 1, "source_type": 1, "numberReviews": 0}, {"name": "Cotto", "type": "restaurant", "image": null, "address": "5-9-10 Negishi Minami-Ku, Saitama Saitama Prefecture", "lat": 35.842655, "lng": 139.65758, "ref_id": 7462746, "rating": -1, "num_reviews": 0, "website": null, "contact_phone": "+81 48-838-3209", "contact_email": null, "status": 1, "source_type": 1, "numberReviews": 0}, {"name": "Yakitori Kimura", "type": "restaurant", "image": null, "address": "15-7 Kamihiroya, Tsurugashima Saitama Prefecture", "lat": 35.937954, "lng": 139.42432, "ref_id": 7538804, "rating": -1, "num_reviews": 0, "website": null, "contact_phone": "+81 49-285-8694", "contact_email": null, "status": 1, "source_type": 1, "numberReviews": 0}, {"name": "Calvi Taisho Gyoda", "type": "restaurant", "image": null, "address": "2790-1 Oaza Mochida, Gyoda 361-0056 Saitama Prefecture", "lat": 36.13592, "lng": 139.42992, "ref_id": 13039231, "rating": 4, "num_reviews": 0, "website": null, "contact_phone": "+81 48-556-8633", "contact_email": null, "status": 1, "source_type": 1, "numberReviews": 3}, {"name": "Kitchen Nagasaki", "type": "restaurant", "image": "https://dynamic-media-cdn.tripadvisor.com/media/photo-o/17/19/cb/8a/caption.jpg?w=1000&s=1", "address": "911-8 Mochida, Gyoda Saitama Prefecture", "lat": 36.131386, "lng": 139.44337, "ref_id": 7559700, "rating": 4.5, "num_reviews": 0, "website": null, "contact_phone": "+81 48-553-0045", "contact_email": null, "status": 1, "source_type": 1, "numberReviews": 4}, {"name": "Kusakimarino Fukaya", "type": "restaurant", "image": "https://dynamic-media-cdn.tripadvisor.com/media/photo-o/17/94/69/05/caption.jpg?w=1000&s=1", "address": "2473 Uwanodai, Fukaya Saitama Prefecture", "lat": 36.180332, "lng": 139.27815, "ref_id": 7430654, "rating": 4, "num_reviews": 0, "website": null, "contact_phone": "+81 48-575-3905", "contact_email": null, "status": 1, "source_type": 1, "numberReviews": 6}, {"name": "Chichibuya", "type": "restaurant", "image": "https://dynamic-media-cdn.tripadvisor.com/media/photo-o/0d/56/f7/3c/caption.jpg?w=1000&s=1", "address": "1-38 Akebonocho, Kumagaya Saitama Prefecture", "lat": 36.136642, "lng": 139.39224, "ref_id": 7462405, "rating": 4.5, "num_reviews": 0, "website": null, "contact_phone": "+81 48-524-4228", "contact_email": null, "status": 1, "source_type": 1, "numberReviews": 4}, {"name": "Gyukaku Kitamoto", "type": "restaurant", "image": null, "address": "1-23-1 Azuma Tsubasa Bldg. 2F, Kitamoto 364-0007 Saitama Prefecture", "lat": 36.03541, "lng": 139.53288, "ref_id": 5048526, "rating": 4, "num_reviews": 0, "website": "http://www.gyukaku.ne.jp/", "contact_phone": "+81 48-590-5355", "contact_email": null, "status": 1, "source_type": 1, "numberReviews": 3}, {"name": "Yagihashitokubetsu Shokudo", "type": "restaurant", "image": "https://dynamic-media-cdn.tripadvisor.com/media/photo-o/07/d4/de/8f/caption.jpg?w=1000&s=1", "address": "74 Nakacho, Kumagaya Saitama Prefecture", "lat": 36.146, "lng": 139.38203, "ref_id": 7462264, "rating": 4, "num_reviews": 0, "website": null, "contact_phone": "+81 48-526-2777", "contact_email": null, "status": 1, "source_type": 1, "numberReviews": 4}, {"name": "Kourakuen Fukaya Tohocho-Shop", "type": "restaurant", "image": "https://dynamic-media-cdn.tripadvisor.com/media/photo-o/0f/9c/a3/01/img-20170618-130454-largejpg.jpg?w=1000&s=1", "address": "3-35-1 Higashigatacho, Fukaya 366-0042 Saitama Prefecture", "lat": 36.18611, "lng": 139.31412, "ref_id": 7430576, "rating": 4, "num_reviews": 0, "website": "https://stores.kourakuen.co.jp/20690", "contact_phone": "+81 48-570-5013", "contact_email": null, "status": 1, "source_type": 1, "numberReviews": 5}, {"name": "Okonomiyaki Dotonbori Sakado Nissai", "type": "restaurant", "image": "https://dynamic-media-cdn.tripadvisor.com/media/photo-o/05/d6/54/2d/okonomiyaki-dotonbori.jpg?w=1000&s=1", "address": "4-3-1 Nissaihanamizuki, Sakado 350-0269 Saitama Prefecture", "lat": 35.970146, "lng": 139.36714, "ref_id": 6066031, "rating": 4, "num_reviews": 0, "website": null, "contact_phone": "+81 49-288-3508", "contact_email": null, "status": 1, "source_type": 1, "numberReviews": 6}, {"name": "Bikkuri Donkey Kumagaya", "type": "restaurant", "image": "https://dynamic-media-cdn.tripadvisor.com/media/photo-o/1a/e8/4f/70/photo2jpg.jpg?w=1000&s=1", "address": "464-4 Ishihara, Kumagaya Saitama Prefecture", "lat": 36.15644, "lng": 139.36841, "ref_id": 7462174, "rating": 3.5, "num_reviews": 0, "website": "http://www.bikkuri-donkey.com/", "contact_phone": "+81 48-520-1326", "contact_email": null, "status": 1, "source_type": 1, "numberReviews": 5}, {"name": "Tamagawa Shokudo", "type": "restaurant", "image": "https://dynamic-media-cdn.tripadvisor.com/media/photo-o/07/03/77/b1/caption.jpg?w=1000&s=1", "address": "3700 Tamagawa Tamagawa Onsen, Tokigawa-machi, Hiki-gun 355-0342 Saitama Prefecture", "lat": 36.019154, "lng": 139.28404, "ref_id": 7292401, "rating": 3.5, "num_reviews": 0, "website": null, "contact_phone": "+81 493-65-4977", "contact_email": null, "status": 1, "source_type": 1, "numberReviews": 6}, {"name": "Hanamaru Udon Ario Fukaya", "type": "restaurant", "image": "https://dynamic-media-cdn.tripadvisor.com/media/photo-o/0e/5b/2f/38/caption.jpg?w=1000&s=1", "address": "4-2-14 Kamishibacho Nishi Ario Fukaya Food Court, Fukaya 366-0052 Saitama Prefecture", "lat": 36.181362, "lng": 139.2991, "ref_id": 4666001, "rating": 3.5, "num_reviews": 0, "website": "https://www.hanamaruudon.com/shop/detail_1136.html", "contact_phone": "+81 48-551-5870", "contact_email": null, "status": 1, "source_type": 1, "numberReviews": 23}, {"name": "Daisuke Yagihashi Hyakka", "type": "restaurant", "image": "https://dynamic-media-cdn.tripadvisor.com/media/photo-o/17/5b/22/e4/photo0jpg.jpg?w=1000&s=1", "address": "74 Nakamachi Yagihashi Department 7F, Kumagaya 360-0047 Saitama Prefecture", "lat": 36.146008, "lng": 139.38205, "ref_id": 10648767, "rating": 4, "num_reviews": 0, "website": null, "contact_phone": "+81 48-523-1111", "contact_email": null, "status": 1, "source_type": 1, "numberReviews": 3}, {"name": "Musashi-Ya", "type": "restaurant", "image": null, "address": "781-2 Kojima, Kumagaya Saitama Prefecture", "lat": 36.15931, "lng": 139.35495, "ref_id": 7462198, "rating": 4, "num_reviews": 0, "website": null, "contact_phone": "+81 48-523-5280", "contact_email": null, "status": 1, "source_type": 1, "numberReviews": 3}, {"name": "Teuchi Soba Zemmi Arai", "type": "restaurant", "image": "https://dynamic-media-cdn.tripadvisor.com/media/photo-o/14/e3/70/60/caption.jpg?w=1000&s=1", "address": "1-299 Takao, Kitamoto Saitama Prefecture", "lat": 36.02822, "lng": 139.52144, "ref_id": 7563528, "rating": 4, "num_reviews": 0, "website": null, "contact_phone": "+81 48-591-4256", "contact_email": null, "status": 1, "source_type": 1, "numberReviews": 3}, {"name": "Cinnamon Cafe", "type": "restaurant", "image": "https://dynamic-media-cdn.tripadvisor.com/media/photo-o/0b/32/e1/c7/caption.jpg?w=1000&s=1", "address": "45 Nakamachi, Kumagaya 360-0047 Saitama Prefecture", "lat": 36.14665, "lng": 139.38239, "ref_id": 9660314, "rating": 4.5, "num_reviews": 0, "website": null, "contact_phone": "+81 48-521-9584", "contact_email": null, "status": 1, "source_type": 1, "numberReviews": 2}, {"name": "Kitchen Hiyori", "type": "restaurant", "image": "https://dynamic-media-cdn.tripadvisor.com/media/photo-o/18/1b/b6/31/caption.jpg?w=1000&s=1", "address": "1634-5 Tsukinowa, Namegawa-machi, Hiki-gun Saitama Prefecture", "lat": 36.0389, "lng": 139.35199, "ref_id": 3868798, "rating": 3.5, "num_reviews": 0, "website": null, "contact_phone": "+81 493-53-6026", "contact_email": null, "status": 1, "source_type": 1, "numberReviews": 5}, {"name": "Greenfinger Cafe & Shop", "type": "restaurant", "image": "https://dynamic-media-cdn.tripadvisor.com/media/photo-o/13/15/ad/e4/photo1jpg.jpg?w=1000&s=1", "address": "4-1 Kamishinden, Tsurugashima 350-2225 Saitama Prefecture", "lat": 35.934856, "lng": 139.36635, "ref_id": 13823407, "rating": 4, "num_reviews": 0, "website": "http://www.greenfinger.jp/", "contact_phone": "+81 49-279-1128", "contact_email": "info@greenfinger.jp", "status": 1, "source_type": 1, "numberReviews": 3}, {"name": "Subway Peonywalk Higashi Matsuyama", "type": "restaurant", "image": "https://dynamic-media-cdn.tripadvisor.com/media/photo-o/1a/67/e4/6d/img-20191227-175402-largejpg.jpg?w=1000&s=1", "address": "4-3 Azumacho Peonywalk Higashimatsuyama 2F food court, Higashimatsuyama 355-8606 Saitama Prefecture", "lat": 36.005634, "lng": 139.41075, "ref_id": 4663196, "rating": 3.5, "num_reviews": 0, "website": null, "contact_phone": "+81 493-31-0526", "contact_email": null, "status": 1, "source_type": 1, "numberReviews": 10}, {"name": "Teppachi Hakkai", "type": "restaurant", "image": "https://dynamic-media-cdn.tripadvisor.com/media/photo-o/09/af/f6/4a/dsc-1360-largejpg.jpg?w=1000&s=1", "address": "2-115 Tsukuba AZ Kumagai 5F, Kumagaya 360-0037 Saitama Prefecture", "lat": 36.13973, "lng": 139.38931, "ref_id": 6181436, "rating": 4, "num_reviews": 0, "website": "http://www.8kai.co.jp", "contact_phone": "+81 48-528-8000", "contact_email": null, "status": 1, "source_type": 1, "numberReviews": 4},