[{"name": "The Wolf's Den", "type": "restaurant", "image": null, "address": "31 North Green Street, Henderson, KY 42420", "lat": 37.838154, "lng": -87.58955, "ref_id": 25476466, "rating": -1, "num_reviews": 0, "website": null, "contact_phone": null, "contact_email": null, "status": 1, "source_type": 1, "numberReviews": 0}, {"name": "Subway", "type": "restaurant", "image": null, "address": "1401 Covert Ave, Evansville, IN 47714-3525", "lat": 37.9552, "lng": -87.53852, "ref_id": 26948208, "rating": -1, "num_reviews": 0, "website": "http://www.subway.com/en-us", "contact_phone": "+18124735255", "contact_email": null, "status": 1, "source_type": 1, "numberReviews": 0}, {"name": "Wingville", "type": "restaurant", "image": null, "address": "192 Garden Mile Road, Henderson, KY 42420", "lat": 37.827534, "lng": -87.55747, "ref_id": 25481019, "rating": -1, "num_reviews": 0, "website": null, "contact_phone": null, "contact_email": null, "status": 1, "source_type": 1, "numberReviews": 0}, {"name": "Algonquins Bar And Grill", "type": "restaurant", "image": null, "address": "213 US Highway 41 S, Henderson, KY 42420-3850", "lat": 37.823505, "lng": -87.56882, "ref_id": 23180259, "rating": -1, "num_reviews": 0, "website": null, "contact_phone": "+1 270-827-4313", "contact_email": null, "status": 1, "source_type": 1, "numberReviews": 0}, {"name": "Caribbean Cuisine", "type": "restaurant", "image": null, "address": "1010 South Kentucky Avenue, Evansville, IN 47714", "lat": 37.962505, "lng": -87.54757, "ref_id": 25504581, "rating": -1, "num_reviews": 0, "website": "https://www.caribbeancuisine-evansville.com", "contact_phone": "+1 812-303-0631", "contact_email": null, "status": 1, "source_type": 1, "numberReviews": 0}, {"name": "Broadway chicken to go", "type": "restaurant", "image": null, "address": "1401 Delmar Avenue, Evansville, IN 47712", "lat": 37.961826, "lng": -87.61302, "ref_id": 25545698, "rating": -1, "num_reviews": 0, "website": null, "contact_phone": null, "contact_email": null, "status": 1, "source_type": 1, "numberReviews": 0}, {"name": "Hush On Main", "type": "restaurant", "image": null, "address": "323 Main St, Evansville, IN 47708-1420", "lat": 37.971115, "lng": -87.57123, "ref_id": 27532042, "rating": -1, "num_reviews": 0, "website": null, "contact_phone": null, "contact_email": null, "status": 1, "source_type": 1, "numberReviews": 0}, {"name": "Los Toribio", "type": "restaurant", "image": null, "address": "1647 S Green St, Henderson, KY 42420-4346", "lat": 37.818043, "lng": -87.61241, "ref_id": 27770893, "rating": -1, "num_reviews": 0, "website": "https://www.facebook.com/155247124494934", "contact_phone": "+1 270-831-2367", "contact_email": null, "status": 1, "source_type": 1, "numberReviews": 0}, {"name": "Domino's Pizza", "type": "restaurant", "image": null, "address": "2101 S. Weinbach, Evansville, IN 47714", "lat": 37.947968, "lng": -87.53079, "ref_id": 5586265, "rating": -1, "num_reviews": 0, "website": "https://www.dominos.com/en/?redirect=homepage&utm_source=locallistings&utm_medium=loclist&utm_campaign=localmaps", "contact_phone": "+1 812-473-3383", "contact_email": null, "status": 1, "source_type": 1, "numberReviews": 0}, {"name": "The Collective", "type": "restaurant", "image": null, "address": "228 Main St, Evansville, IN 47708", "lat": 37.97119, "lng": -87.57253, "ref_id": 26949346, "rating": -1, "num_reviews": 0, "website": "https://comfortevv.com/", "contact_phone": "+1 812-303-8339", "contact_email": null, "status": 1, "source_type": 1, "numberReviews": 0}, {"name": "Skyline Chili", "type": "restaurant", "image": "https://dynamic-media-cdn.tripadvisor.com/media/photo-o/14/c5/79/c5/photo0jpg.jpg?w=1000&s=1", "address": "9907 Springfield Pike, Cincinnati, OH 45215-1443", "lat": 39.245045, "lng": -84.471466, "ref_id": 4231509, "rating": 4, "num_reviews": 0, "website": "http://www.skylinechili.com/", "contact_phone": "+1 513-772-3060", "contact_email": null, "status": 1, "source_type": 1, "numberReviews": 4}, {"name": "Frisch's Big Boy", "type": "restaurant", "image": "https://dynamic-media-cdn.tripadvisor.com/media/photo-o/13/76/e5/41/20180624-200543-largejpg.jpg?w=1000&s=1", "address": "9070 Plainfield Rd, Blue Ash, OH 45236", "lat": 39.224197, "lng": -84.39303, "ref_id": 4976457, "rating": 3, "num_reviews": 0, "website": "https://locations.frischs.com/frischs-big-boy-a205213bfdfc", "contact_phone": "+1 513-891-3080", "contact_email": "Marketing@frischs.com", "status": 1, "source_type": 1, "numberReviews": 30}, {"name": "Qdoba Mexican Grill", "type": "restaurant", "image": null, "address": "9749 Kenwood Rd, Blue Ash, OH 45242-6130", "lat": 39.23565, "lng": -84.37699, "ref_id": 1025376, "rating": 3.5, "num_reviews": 0, "website": "http://www.qdoba.com", "contact_phone": "+1 513-984-4105", "contact_email": "", "status": 1, "source_type": 1, "numberReviews": 9}, {"name": "Cinnabon", "type": "restaurant", "image": null, "address": "819 Buck Creek Road, Simpsonville, KY 40067", "lat": 38.210297, "lng": -85.34809, "ref_id": 23565817, "rating": -1, "num_reviews": 0, "website": "https://locations.cinnabon.com/ky/simpsonville/819-buck-creek-road?utm_source=extnet&utm_medium=organic&utm_campaign=locations_partner", "contact_phone": "+1 502-722-5636", "contact_email": null, "status": 1, "source_type": 1, "numberReviews": 0}, {"name": "Howie's Diner", "type": "restaurant", "image": "https://dynamic-media-cdn.tripadvisor.com/media/photo-o/0b/db/d3/ce/wow.jpg?w=1000&s=1", "address": "1049 E Eads Pkwy, Lawrenceburg, IN 47025-8510", "lat": 39.12011, "lng": -84.85172, "ref_id": 2361285, "rating": 4, "num_reviews": 0, "website": "http://www.kennettoil.com/Howiesdiner1.html", "contact_phone": "+1 812-537-0313", "contact_email": "", "status": 1, "source_type": 1, "numberReviews": 47}, {"name": "Buzzys NYPD", "type": "restaurant", "image": "https://dynamic-media-cdn.tripadvisor.com/media/photo-o/1a/e2/57/80/b35bf91fbcfae05fa7a86e40d5d447.jpg?w=1000&s=1", "address": "211 Ridge Ave, Greendale, IN 47025-1511", "lat": 39.10457, "lng": -84.86269, "ref_id": 395018, "rating": 4.5, "num_reviews": 0, "website": "http://www.facebook.com/pg/Buzzys-NYPD-187449821277041/about/", "contact_phone": "+1 812-537-1802", "contact_email": "", "status": 1, "source_type": 1, "numberReviews": 33}, {"name": "Maverick's Firewater Grill", "type": "restaurant", "image": "https://dynamic-media-cdn.tripadvisor.com/media/photo-o/27/3c/e7/02/queso.jpg?w=1000&s=1", "address": "535 E Eads Pkwy, Lawrenceburg, IN 47025-8505", "lat": 39.109867, "lng": -84.851585, "ref_id": 8343805, "rating": 3.5, "num_reviews": 0, "website": "https://mavericksfwg.com/", "contact_phone": "+1 812-537-6600", "contact_email": null, "status": 1, "source_type": 1, "numberReviews": 130}, {"name": "Nick's", "type": "restaurant", "image": "https://dynamic-media-cdn.tripadvisor.com/media/photo-o/0a/a2/91/02/chocolate-mouse-cake.jpg?w=1000&s=1", "address": "248 S Miami Ave, Cleves, OH 45002-1223", "lat": 39.15813, "lng": -84.74915, "ref_id": 8680813, "rating": 4, "num_reviews": 0, "website": "https://www.facebook.com/NicksAmericanCafe", "contact_phone": "+1 513-941-6776", "contact_email": null, "status": 1, "source_type": 1, "numberReviews": 37}, {"name": "Mil's Dairy Drive-In", "type": "restaurant", "image": null, "address": "1000 Hwy 54, Whitesville, KY", "lat": 37.683887, "lng": -86.86927, "ref_id": 2603084, "rating": 4.5, "num_reviews": 0, "website": "http://mils-dairy-drive-in.edan.io/", "contact_phone": "", "contact_email": "", "status": 1, "source_type": 1, "numberReviews": 6}, {"name": "Hugh E Birs Cafe", "type": "restaurant", "image": null, "address": "324 E Market St, New Albany, IN 47150-3414", "lat": 38.285652, "lng": -85.819435, "ref_id": 26958206, "rating": -1, "num_reviews": 0, "website": "https://www.facebook.com/1680756915531550", "contact_phone": "+18129458884", "contact_email": null, "status": 1, "source_type": 1, "numberReviews": 0}, {"name": "Pablos Bar", "type": "restaurant", "image": null, "address": "10 Station Road, Glasgow, KY", "lat": 42.06539, "lng": -87.93538, "ref_id": 25389711, "rating": -1, "num_reviews": 0, "website": null, "contact_phone": "+44 7445 256535", "contact_email": null, "status": 1, "source_type": 1, "numberReviews": 0}, {"name": "Wings and Rings", "type": "restaurant", "image": "https://dynamic-media-cdn.tripadvisor.com/media/photo-o/07/ff/16/56/buffalo-wings-rings.jpg?w=1000&s=1", "address": "1607 Flossie Dr, Greendale, IN 47025-8973", "lat": 39.126957, "lng": -84.8409, "ref_id": 8139073, "rating": 4, "num_reviews": 0, "website": "https://www.wingsandrings.com/locations/flossie-dr-47025?utm_source=facebook&utm_medium=local&utm_campaign=facebook-local", "contact_phone": "+1 812-512-9464", "contact_email": null, "status": 1, "source_type": 1, "numberReviews": 62}, {"name": "L'Burg Drinks & More", "type": "restaurant", "image": "https://dynamic-media-cdn.tripadvisor.com/media/photo-o/16/a9/41/de/20190304-193444-largejpg.jpg?w=1000&s=1", "address": "1097 W Eads Pkwy JTS Plaza, Lawrenceburg, IN 47025-1162", "lat": 39.082188, "lng": -84.88352, "ref_id": 11719808, "rating": 4.5, "num_reviews": 0, "website": "http://lburgbar.com", "contact_phone": "+1 812-290-2129", "contact_email": "lburgbar@gmail.com", "status": 1, "source_type": 1, "numberReviews": 18}, {"name": "Tequila\u2019s Mexican Restaurant", "type": "restaurant", "image": "https://dynamic-media-cdn.tripadvisor.com/media/photo-o/26/9d/ab/e0/caption.jpg?w=1000&s=1", "address": "149 Main St, Rising Sun, IN 47040-1222", "lat": 38.94813, "lng": -84.85243, "ref_id": 7342974, "rating": 4, "num_reviews": 0, "website": "https://www.facebook.com/Tequilasrisingsun/", "contact_phone": "+1 812-551-5227", "contact_email": null, "status": 1, "source_type": 1, "numberReviews": 39}, {"name": "Ramsey's Andover Country Store", "type": "restaurant", "image": "https://dynamic-media-cdn.tripadvisor.com/media/photo-o/0b/4e/ed/08/ta-img-20160518-142715.jpg?w=1000&s=1", "address": "3090 Helmsdale Pl Ste 290, Lexington, KY 40509-2227", "lat": 38.010883, "lng": -84.42172, "ref_id": 405972, "rating": 4.5, "num_reviews": 0, "website": "http://ramseysdiners.com", "contact_phone": "+1 859-264-9396", "contact_email": "jcp@ramseysdiners.com", "status": 1, "source_type": 1, "numberReviews": 307}, {"name": "Bonefish Grill", "type": "restaurant", "image": "https://dynamic-media-cdn.tripadvisor.com/media/photo-o/15/53/eb/2e/20181110-194304-largejpg.jpg?w=1000&s=1", "address": "2341 Sir Barton Way, Lexington, KY 40509-2257", "lat": 38.024174, "lng": -84.423676, "ref_id": 826903, "rating": 4.5, "num_reviews": 0, "website": "https://locations.bonefishgrill.com/kentucky/lexington/2341-sir-barton-way?y_source=1_MTU1MDI3ODEtNzY5LWxvY2F0aW9uLndlYnNpdGU%3D", "contact_phone": "+1 859-233-3474", "contact_email": "bg7851@bonefishgrill.com", "status": 1, "source_type": 1, "numberReviews": 245}, {"name": "Ted's Montana Grill", "type": "restaurant", "image": "https://dynamic-media-cdn.tripadvisor.com/media/photo-o/17/57/6f/ce/20190429-132134-largejpg.jpg?w=1000&s=1", "address": "2304 Sir Barton Way Ste 170, Lexington, KY 40509-2284", "lat": 38.023323, "lng": -84.4213, "ref_id": 512135, "rating": 4, "num_reviews": 0, "website": "http://www.tedsmontanagrill.com/", "contact_phone": "+1 859-263-5228", "contact_email": "tmg016@tedsmontanagrill.com", "status": 1, "source_type": 1, "numberReviews": 226}, {"name": "Carrabba's Italian Grill", "type": "restaurant", "image": "https://dynamic-media-cdn.tripadvisor.com/media/photo-o/10/24/f4/a6/linguine-pescatore.jpg?w=1000&s=1", "address": "1881 Plaudit Pl, Lexington, KY 40509-2429", "lat": 38.018196, "lng": -84.41742, "ref_id": 405788, "rating": 4.5, "num_reviews": 0, "website": "https://locations.carrabbas.com/kentucky/lexington/1881-plaudit-place?y_source=1_MTU1MDI5ODYtNzY5LWxvY2F0aW9uLndlYnNpdGU%3D", "contact_phone": "+1 859-264-8395", "contact_email": "CA6802@Carrabbas.com", "status": 1, "source_type": 1, "numberReviews": 178}, {"name": "Taj India Indian Restaurant", "type": "restaurant", "image": "https://dynamic-media-cdn.tripadvisor.com/media/photo-o/10/58/88/66/taj-india-indian-restaurant.jpg?w=1000&s=1", "address": "154 Patchen Dr Suite 68, Lexington, KY 40517-4418", "lat": 38.008877, "lng": -84.45542, "ref_id": 1085377, "rating": 4.5, "num_reviews": 0, "website": "http://www.lexingtontajindia.com", "contact_phone": "+1 859-268-0055", "contact_email": "tajindia268@gmail.com", "status": 1, "source_type": 1, "numberReviews": 246}, {"name": "Keeneland Track Kitchen", "type": "restaurant", "image": "https://dynamic-media-cdn.tripadvisor.com/media/photo-o/0f/5b/48/56/photo1jpg.jpg?w=1000&s=1", "address": "4201 Versailles Rd, Lexington, KY 40510-9662", "lat": 38.05238, "lng": -84.60647, "ref_id": 1672799, "rating": 4.5, "num_reviews": 0, "website": "http://www.keeneland.com/discover/track-kitchen", "contact_phone": "+1 859-254-3412", "contact_email": "", "status": 1, "source_type": 1, "numberReviews": 133}, {"name": "The Blue Heron Steakhouse", "type": "restaurant", "image": "https://dynamic-media-cdn.tripadvisor.com/media/photo-o/11/cc/a9/ff/the-blue-heron-steakhouse.jpg?w=1000&s=1", "address": "185 Jefferson St, Lexington, KY 40508-1758", "lat": 38.053497, "lng": -84.500885, "ref_id": 5941003, "rating": 4.5, "num_reviews": 0, "website": "http://www.blueheronsteakhouse.com", "contact_phone": "+1 859-254-2491", "contact_email": null, "status": 1, "source_type": 1, "numberReviews": 161}, {"name": "Vinaigrette Salad Kitchen", "type": "restaurant", "image": "https://dynamic-media-cdn.tripadvisor.com/media/photo-o/27/5d/c4/1c/eat-well-today.jpg?w=1000&s=1", "address": "1781 Sharkey Way Suite 115, Lexington, KY 40511", "lat": 38.068085, "lng": -84.53105, "ref_id": 7258791, "rating": 4.5, "num_reviews": 0, "website": "https://vinaigrettesaladkitchen.com/location/lexington/townley-center/", "contact_phone": "+1 859-317-5966", "contact_email": "info@vinaigrettesaladkitchen.com", "status": 1, "source_type": 1, "numberReviews": 81}, {"name": "Lockbox", "type": "restaurant", "image": "https://dynamic-media-cdn.tripadvisor.com/media/photo-o/12/46/7f/66/lockbox.jpg?w=1000&s=1", "address": "167 W Main St Inside 21c Musuem Hotel, Lexington, KY 40507-1397", "lat": 38.047253, "lng": -84.49797, "ref_id": 10041294, "rating": 4, "num_reviews": 0, "website": "http://www.lockboxlex.com/", "contact_phone": "+1 859-899-6860", "contact_email": "info@lockboxlex.com", "status": 1, "source_type": 1, "numberReviews": 209}, {"name": "First Watch", "type": "restaurant", "image": "https://dynamic-media-cdn.tripadvisor.com/media/photo-o/04/5e/2f/ae/first-watch.jpg?w=1000&s=1", "address": "1080 South Broadway Suite 30, Lexington, KY 40504", "lat": 38.036877, "lng": -84.51769, "ref_id": 4719271, "rating": 4.5, "num_reviews": 0, "website": "http://www.firstwatch.com/locations/south-broadway/", "contact_phone": "+1 859-252-2226", "contact_email": "customerservice@firstwatch.com", "status": 1, "source_type": 1, "numberReviews": 113}, {"name": "Rafferty's Restaurant & Bar", "type": "restaurant", "image": "https://dynamic-media-cdn.tripadvisor.com/media/photo-o/0e/3d/24/1f/photo0jpg.jpg?w=1000&s=1", "address": "1865 Alysheba Way, Lexington, KY 40509-2209", "lat": 38.020664, "lng": -84.41933, "ref_id": 406048, "rating": 4, "num_reviews": 0, "website": "http://www.raffertys.com", "contact_phone": "+1 859-264-8900", "contact_email": "", "status": 1, "source_type": 1, "numberReviews": 231}, {"name": "Agave & Rye Lexington Square", "type": "restaurant", "image": "https://dynamic-media-cdn.tripadvisor.com/media/photo-o/1d/af/87/64/caption.jpg?w=1000&s=1", "address": "123 N Broadway, Lexington, KY 40507-1228", "lat": 38.049477, "lng": -84.499565, "ref_id": 23423284, "rating": 4.5, "num_reviews": 0, "website": "http://agaveandrye.com", "contact_phone": "+1 859-523-1170", "contact_email": "agaveandrye@rmdadvertising.com", "status": 1, "source_type": 1, "numberReviews": 45}, {"name": "Vinaigrette Salad Kitchen", "type": "restaurant", "image": "https://dynamic-media-cdn.tripadvisor.com/media/photo-o/27/5d/c3/26/eat-well-today.jpg?w=1000&s=1", "address": "113 N Broadway, Lexington, KY 40507", "lat": 38.04931, "lng": -84.49974, "ref_id": 11664658, "rating": 4.5, "num_reviews": 0, "website": "https://vinaigrettesaladkitchen.com/location/lexington/the-square/", "contact_phone": "+1 859-569-4040", "contact_email": "info@vinaigrettesaladkitchen.com", "status": 1, "source_type": 1, "numberReviews": 46}, {"name": "Texas Roadhouse", "type": "restaurant", "image": "https://dynamic-media-cdn.tripadvisor.com/media/photo-o/07/07/11/0b/caption.jpg?w=1000&s=1", "address": "3116 Richmond Road, Lexington, KY 40509-1508", "lat": 38.001545, "lng": -84.44817, "ref_id": 512136, "rating": 4, "num_reviews": 0, "website": "https://www.texasroadhouse.com/locations/kentucky/lexington-richmond-rd?utm_source=listing&utm_medium=search", "contact_phone": "+1 859-268-2507", "contact_email": "store_lexington@texasroadhouse.com", "status": 1, "source_type": 1, "numberReviews": 208}, {"name": "Tandoor Fine Indian Cuisine", "type": "restaurant", "image": "https://dynamic-media-cdn.tripadvisor.com/media/photo-o/0d/68/9a/5a/photo0jpg.jpg?w=1000&s=1", "address": "3146 Mapleleaf Dr Ste 110, Lexington, KY 40509-1258", "lat": 38.006657, "lng": -84.42767, "ref_id": 541886, "rating": 4.5, "num_reviews": 0, "website": "http://tandoorinlex.com/", "contact_phone": "+1 859-263-5771", "contact_email": "", "status": 1, "source_type": 1, "numberReviews": 106}, {"name": "Cracker Barrel", "type": "restaurant", "image": "https://dynamic-media-cdn.tripadvisor.com/media/photo-o/15/64/f8/a3/house-salad.jpg?w=1000&s=1", "address": "2220 Elkhorn Rd, Lexington, KY 40505-4840", "lat": 38.04481, "lng": -84.422035, "ref_id": 405907, "rating": 4, "num_reviews": 0, "website": "http://www.crackerbarrel.com", "contact_phone": "+1 859-293-2555", "contact_email": "", "status": 1, "source_type": 1, "numberReviews": 273}, {"name": "Kfc", "type": "restaurant", "image": null, "address": "117 Pine St, Pineville, KY 40977-1610", "lat": 36.76233, "lng": -83.69428, "ref_id": 26979108, "rating": -1, "num_reviews": 0, "website": "https://locations.kfc.com/ky/pineville/117-pine-street", "contact_phone": "+1 606-337-6717", "contact_email": null, "status": 1, "source_type": 1, "numberReviews": 0}, {"name": "Ruler Foods - Russellville, KY", "type": "restaurant", "image": null, "address": "1112 W 9th St, Russellville, KY 42276-9799", "lat": 36.832077, "lng": -86.906075, "ref_id": 26923558, "rating": -1, "num_reviews": 0, "website": "https://www.rulerfoods.com/?cid=loc_09000363_fb", "contact_phone": "+1 270-725-3835", "contact_email": null, "status": 1, "source_type": 1, "numberReviews": 0}, {"name": "Casey's", "type": "restaurant", "image": null, "address": "105 Sugar Maple St, Auburn, KY 42206", "lat": 36.869797, "lng": -86.71407, "ref_id": 21263148, "rating": -1, "num_reviews": 0, "website": "https://www.caseys.com/general-store/ky-auburn/105-sugar-maple-st/3759", "contact_phone": "+1 270-506-4760", "contact_email": null, "status": 1, "source_type": 1, "numberReviews": 0}, {"name": "Krispy Krunchy Chicken", "type": "restaurant", "image": null, "address": "244 W.H. Brown Road, Russellville, KY 42276", "lat": 36.867558, "lng": -86.88439, "ref_id": 27527622, "rating": -1, "num_reviews": 0, "website": "https://www.krispykrunchy.com/", "contact_phone": "+1 270-725-8759", "contact_email": null, "status": 1, "source_type": 1, "numberReviews": 0}, {"name": "Casey's", "type": "restaurant", "image": null, "address": "490 W 9th St, Russellville, KY 42276", "lat": 36.840176, "lng": -86.89111, "ref_id": 21263425, "rating": -1, "num_reviews": 0, "website": "https://www.caseys.com/general-store/ky-russellville/490-w-9th-st/3611", "contact_phone": "+1 270-726-9455", "contact_email": null, "status": 1, "source_type": 1, "numberReviews": 0}, {"name": "Pizza Md | Russellville Ky", "type": "restaurant", "image": null, "address": "243 Hopkinsville Rd, Russellville, KY 42276-1281", "lat": 36.844624, "lng": -86.89866, "ref_id": 27779515, "rating": -1, "num_reviews": 0, "website": "https://www.facebook.com/152541298935019", "contact_phone": "+1 270-731-5063", "contact_email": null, "status": 1, "source_type": 1, "numberReviews": 0}, {"name": "Price Less IGA", "type": "restaurant", "image": null, "address": "113 Armory Dr, Russellville, KY 42276-1610", "lat": 36.852554, "lng": -86.89293, "ref_id": 26911428, "rating": -1, "num_reviews": 0, "website": "http://mypricelessfoods.com", "contact_phone": "+1 270-726-3060", "contact_email": null, "status": 1, "source_type": 1, "numberReviews": 0}, {"name": "Kfc", "type": "restaurant", "image": null, "address": "4301 Charlestown Rd, New Albany, IN 47150-9541", "lat": 38.34916, "lng": -85.796814, "ref_id": 13971978, "rating": 4, "num_reviews": 0, "website": "https://locations.kfc.com/in/new-albany/4301-charlestown-road", "contact_phone": "+18129452121", "contact_email": null, "status": 1, "source_type": 1, "numberReviews": 1}, {"name": "Tacos La Chaparrita", "type": "restaurant", "image": "https://dynamic-media-cdn.tripadvisor.com/media/photo-o/21/c9/31/29/birria-tacos.jpg?w=1000&s=1", "address": "10608 Dixie Hwy, Louisville, KY 40272", "lat": 38.10089, "lng": -85.87162, "ref_id": 5208629, "rating": 5, "num_reviews": 0, "website": null, "contact_phone": "+1 502-533-2099", "contact_email": null, "status": 1, "source_type": 1, "numberReviews": 2}, {"name": "Arby's", "type": "restaurant", "image": null, "address": "10704 Dixie Hwy, Louisville, KY 40272", "lat": 38.09828, "lng": -85.872856, "ref_id": 5533027, "rating": 4, "num_reviews": 0, "website": "https://locations.arbys.com/us/ky/valley-station/10704-dixie-highway.html", "contact_phone": "+1 502-935-1329", "contact_email": null, "status": 1, "source_type": 1, "numberReviews": 4}, {"name": "Meyer Ice Cream", "type": "restaurant", "image": null, "address": "209 Quality Ave, New Albany, IN 47150-7208", "lat": 38.34337, "lng": -85.83348, "ref_id": 26947518, "rating": -1, "num_reviews": 0, "website": "http://www.meyericecream.com", "contact_phone": "+18124130342", "contact_email": null, "status": 1, "source_type": 1, "numberReviews": 0}, {"name": "Taco Bell", "type": "restaurant", "image": null, "address": "4018 Grant Line Rd, New Albany, IN 47150-2138", "lat": 38.340504, "lng": -85.81665, "ref_id": 15652818, "rating": -1, "num_reviews": 0, "website": "https://www.facebook.com/141333682647468", "contact_phone": "+18129497084", "contact_email": null, "status": 1, "source_type": 1, "numberReviews": 0}, {"name": "MLC's Family Restaurant", "type": "restaurant", "image": "https://dynamic-media-cdn.tripadvisor.com/media/photo-o/19/07/bd/90/0828191202-largejpg.jpg?w=1000&s=1", "address": "7052 Benton Road, Paducah, KY 42003", "lat": 36.99119, "lng": -88.505035, "ref_id": 17836488, "rating": 4.5, "num_reviews": 0, "website": "https://www.facebook.com/MLCs-Family-Restaurant-1006619922879256/", "contact_phone": "+1 270-558-4865", "contact_email": "southernlisa@ymail.com", "status": 1, "source_type": 1, "numberReviews": 10}, {"name": "Wendy's", "type": "restaurant", "image": null, "address": "9537 Mangham Drive, Cincinnati, OH 45215", "lat": 39.237278, "lng": -84.45263, "ref_id": 5052637, "rating": 5, "num_reviews": 0, "website": "https://locations.wendys.com/united-states/oh/cincinnati/9537-mangham-drive", "contact_phone": "+1 513-208-9933", "contact_email": null, "status": 1, "source_type": 1, "numberReviews": 1}, {"name": "Little Caesars", "type": "restaurant", "image": null, "address": "510 Master St, Corbin, KY 40701-1056", "lat": 36.95241, "lng": -84.0905, "ref_id": 4652890, "rating": 4, "num_reviews": 0, "website": "https://littlecaesars.com/en-us/store/8516", "contact_phone": "+1 606-528-9998", "contact_email": null, "status": 1, "source_type": 1, "numberReviews": 3}, {"name": "Taco Bell", "type": "restaurant", "image": null, "address": "1880 Cumberland Falls Hwy, Corbin, KY 40701-2730", "lat": 36.91874, "lng": -84.12612, "ref_id": 17337551, "rating": 4, "num_reviews": 0, "website": "https://www.facebook.com/441121372919697", "contact_phone": "+1 606-258-0097", "contact_email": null, "status": 1, "source_type": 1, "numberReviews": 1}, {"name": "Wendy's", "type": "restaurant", "image": null, "address": "720 E Cumberland Gap Pkwy, Corbin, KY 40701", "lat": 36.960213, "lng": -84.07523, "ref_id": 4277042, "rating": 3, "num_reviews": 0, "website": "https://locations.wendys.com/united-states/ky/corbin/720-e-cumberland-gap-pkwy", "contact_phone": "+1 606-528-2536", "contact_email": null, "status": 1, "source_type": 1, "numberReviews": 5}, {"name": "Subway", "type": "restaurant", "image": null, "address": "1019 Cumberland Falls Hwy., Corbin, KY 40701", "lat": 36.929207, "lng": -84.10366, "ref_id": 5083696, "rating": 3, "num_reviews": 0, "website": "https://restaurants.subway.com/united-states/ky/corbin/1019-cumberland-falls-hwy?utm_source=yext-other&utm_medium=local&utm_term=acq&utm_content=54488&utm_campaign=evergreen-2020&y_source=1_MTQ5MTQyMjQtNzY5LWxvY2F0aW9uLndlYnNpdGU%3D", "contact_phone": "+1 606-528-4448", "contact_email": null, "status": 1, "source_type": 1, "numberReviews": 1}, {"name": "Sonic Drive-In", "type": "restaurant", "image": null, "address": "2917 Ky-1629, Corbin, KY 40701", "lat": 36.96178, "lng": -84.075386, "ref_id": 15652184, "rating": 3, "num_reviews": 0, "website": "https://locations.sonicdrivein.com/ky/corbin/2917-ky-1629.html", "contact_phone": "+1 606-528-8800", "contact_email": null, "status": 1, "source_type": 1, "numberReviews": 1}, {"name": "Burger King", "type": "restaurant", "image": null, "address": "1859 Cumberland Falls Hwy, Corbin, KY 40701-2731", "lat": 36.918026, "lng": -84.12453, "ref_id": 4619907, "rating": 3, "num_reviews": 0, "website": "https://burgerking.com/store-locator/store/restaurant_7,107", "contact_phone": "+1 606-215-3364", "contact_email": "rwconley2000@yahoo.com", "status": 1, "source_type": 1, "numberReviews": 8}, {"name": "Lee's Famous Recipe", "type": "restaurant", "image": "https://dynamic-media-cdn.tripadvisor.com/media/photo-o/1b/e4/b5/8c/lee-s-famous-recipe.jpg?w=1000&s=1", "address": "1420 Master St, Corbin, KY 40701-2500", "lat": 36.95827, "lng": -84.07397, "ref_id": 5003594, "rating": 3, "num_reviews": 0, "website": "https://www.leesfamousrecipe.com/locations/kentucky/corbin", "contact_phone": "+1 606-528-4612", "contact_email": null, "status": 1, "source_type": 1, "numberReviews": 7}, {"name": "Papa Johns Pizza", "type": "restaurant", "image": null, "address": "785 E Cumberland Gap Pkwy # 121, Corbin, KY 40701", "lat": 36.961605, "lng": -84.07418, "ref_id": 4627777, "rating": 2, "num_reviews": 0, "website": "https://locations.papajohns.com/united-states/ky/40701/corbin/785-e-cumberland-gap-pkwy?utm_source=gmb&utm_medium=organic&y_source=1_MTA2OTIyMDMtNzY5LWxvY2F0aW9uLndlYnNpdGU%3D", "contact_phone": "+1 606-523-5858", "contact_email": null, "status": 1, "source_type": 1, "numberReviews": 5}, {"name": "King Buffet", "type": "restaurant", "image": "https://dynamic-media-cdn.tripadvisor.com/media/photo-o/1a/e3/1b/b6/king-buffet.jpg?w=1000&s=1", "address": "15170 N US Highway 25 E, Corbin, KY 40701-6271", "lat": 36.963455, "lng": -84.07719, "ref_id": 2493544, "rating": 3, "num_reviews": 0, "website": "http://www.facebook.com/pages/King%20Buffet%20LLC/163446983680551/", "contact_phone": "+1 606-528-2220", "contact_email": "", "status": 1, "source_type": 1, "numberReviews": 43}, {"name": "Long John Silver's", "type": "restaurant", "image": null, "address": "1056 E Cumberland Gap Pkwy Trademark Shopping Center, Corbin, KY 40701-2778", "lat": 36.95702, "lng": -84.07041, "ref_id": 4678830, "rating": 2, "num_reviews": 0, "website": "https://www.ljsilvers.com/?y_source=1_MTc1NzMyOTAtNzY5LWxvY2F0aW9uLndlYnNpdGU%3D", "contact_phone": "+1 606-528-3450", "contact_email": "ljscorbin@jrscorbin.com", "status": 1, "source_type": 1, "numberReviews": 4}, {"name": "Wendy's", "type": "restaurant", "image": "https://dynamic-media-cdn.tripadvisor.com/media/photo-o/19/65/c3/c4/they-have-trouble-getting.jpg?w=1000&s=1", "address": "1920 Cumberland Falls Hwy, Corbin, KY 40701-2757", "lat": 36.91892, "lng": -84.12765, "ref_id": 4888230, "rating": 2.5, "num_reviews": 0, "website": "https://locations.wendys.com/united-states/ky/corbin/1920-cumberland-falls-hwy", "contact_phone": "+1 606-258-0587", "contact_email": null, "status": 1, "source_type": 1, "numberReviews": 10}, {"name": "McDonald's", "type": "restaurant", "image": "https://dynamic-media-cdn.tripadvisor.com/media/photo-o/1c/da/b9/74/the-big-mac.jpg?w=1000&s=1", "address": "1410 Master St, Corbin, KY 40701-2500", "lat": 36.958103, "lng": -84.07442, "ref_id": 15254251, "rating": 1, "num_reviews": 0, "website": "https://www.mcdonalds.com/us/en-us/location/ky/corbin/1410-master-street/3441.html?cid=rf%3ayxt%3aron%3a%3aclicks%3fcid%3drf%3ayxt%3afb%3a%3aclicks", "contact_phone": "+16065289811", "contact_email": null, "status": 1, "source_type": 1, "numberReviews": 2}, {"name": "Pizza Hut", "type": "restaurant", "image": null, "address": "14659 N US Highway 25 E, Corbin, KY 40701", "lat": 36.9568, "lng": -84.07008, "ref_id": 4811016, "rating": 2, "num_reviews": 0, "website": "https://locations.pizzahut.com/ky/corbin/14659-n-us-highway-25-e?utm_medium=organic&utm_source=local&utm_campaign=yextpowerlistings&utm_content=website&utm_term=284349", "contact_phone": "+1 606-528-8024", "contact_email": null, "status": 1, "source_type": 1, "numberReviews": 8}, {"name": "Roscoe's Market", "type": "restaurant", "image": null, "address": "5 Blossom Ridge Dr, Corbin, KY 40701-4191", "lat": 36.984673, "lng": -84.14934, "ref_id": 26903799, "rating": -1, "num_reviews": 0, "website": "https://www.facebook.com/1732333710336806", "contact_phone": "+16065239333", "contact_email": null, "status": 1, "source_type": 1, "numberReviews": 0}, {"name": "Hunt Brothers Pizza", "type": "restaurant", "image": null, "address": "171 Steele Ln, Corbin, KY 40701", "lat": 36.968845, "lng": -84.080666, "ref_id": 26717410, "rating": -1, "num_reviews": 0, "website": "http://www.huntbrotherspizza.com", "contact_phone": "+1 606-215-3702", "contact_email": null, "status": 1, "source_type": 1, "numberReviews": 0}, {"name": "Aldi Usa", "type": "restaurant", "image": null, "address": "24 S Highway 1223, Corbin, KY 40701-4640", "lat": 36.970222, "lng": -84.090645, "ref_id": 26884971, "rating": -1, "num_reviews": 0, "website": "https://stores.aldi.us/ky/corbin/24-s-hwy-1223?utm_source=fb&utm_medium=local&utm_campaign=brand&utm_content=storepage_webclick", "contact_phone": "+1 855-955-2534", "contact_email": null, "status": 1, "source_type": 1, "numberReviews": 0}, {"name": "Arby's", "type": "restaurant", "image": null, "address": "384 W Cumberland Gap Pkwy, Corbin, KY 40701", "lat": 36.97594, "lng": -84.10417, "ref_id": 17833925, "rating": -1, "num_reviews": 0, "website": "https://locations.arbys.com/us/ky/corbin/384-west-cumberland-road.html", "contact_phone": "+1 606-280-7471", "contact_email": null, "status": 1, "source_type": 1, "numberReviews": 0}, {"name": "Hunt Brothers Pizza", "type": "restaurant", "image": null, "address": "6740 Barbourville Rd, London, KY 40744", "lat": 37.03771, "lng": -84.0028, "ref_id": 26519429, "rating": -1, "num_reviews": 0, "website": "http://www.huntbrotherspizza.com", "contact_phone": "+1 606-862-8952", "contact_email": null, "status": 1, "source_type": 1, "numberReviews": 0}, {"name": "Ma'S", "type": "restaurant", "image": "https://dynamic-media-cdn.tripadvisor.com/media/photo-o/13/27/0d/93/photo0jpg.jpg?w=1000&s=1", "address": "3800 Greensburg Rd, Edmonton, KY 42129-8476", "lat": 37.025, "lng": -85.597015, "ref_id": 6847629, "rating": 4.5, "num_reviews": 0, "website": "https://www.facebook.com/masdeli3800", "contact_phone": "+1 270-432-3354", "contact_email": null, "status": 1, "source_type": 1, "numberReviews": 9}, {"name": "KFC", "type": "restaurant", "image": null, "address": "8325 Colerain Ave, Cincinnati, OH 45239-3924", "lat": 39.222298, "lng": -84.587494, "ref_id": 16747484, "rating": -1, "num_reviews": 0, "website": "https://locations.kfc.com/oh/cincinnati/8325-colerain-avenue", "contact_phone": "+15132450123", "contact_email": null, "status": 1, "source_type": 1, "numberReviews": 0}, {"name": "Subway", "type": "restaurant", "image": null, "address": "U.s. 77, Woodlawn, OH 78586", "lat": 39.24132, "lng": -84.47111, "ref_id": 19660294, "rating": -1, "num_reviews": 0, "website": null, "contact_phone": null, "contact_email": null, "status": 1, "source_type": 1, "numberReviews": 0}, {"name": "Hot Stuff Pizza", "type": "restaurant", "image": null, "address": "1065 Newtown Pike, Lexington, KY 40511-1234", "lat": 38.07781, "lng": -84.49447, "ref_id": 26881005, "rating": -1, "num_reviews": 0, "website": "http://www.hotstuffpizza.com", "contact_phone": "+1 859-624-2944", "contact_email": null, "status": 1, "source_type": 1, "numberReviews": 0}, {"name": "Subway", "type": "restaurant", "image": null, "address": "1803 Georgetown Rd, Lexington, KY 40511-1035", "lat": 38.08706, "lng": -84.51206, "ref_id": 26991398, "rating": -1, "num_reviews": 0, "website": "http://www.subway.com/en-us", "contact_phone": "+1 859-259-0123", "contact_email": null, "status": 1, "source_type": 1, "numberReviews": 0}, {"name": "Sam's Food & Spirits", "type": "restaurant", "image": "https://dynamic-media-cdn.tripadvisor.com/media/photo-o/16/a1/ce/1f/photo0jpg.jpg?w=1000&s=1", "address": "702 Highlander Point Dr, Floyds Knobs, IN 47119-9442", "lat": 38.315086, "lng": -85.89862, "ref_id": 397889, "rating": 4, "num_reviews": 0, "website": "http://www.samstavern.com", "contact_phone": "+1 812-923-2323", "contact_email": "SAM@SAMSTAVERN.COM", "status": 1, "source_type": 1, "numberReviews": 36}, {"name": "Farmers Feed Mill Restaurant", "type": "restaurant", "image": "https://dynamic-media-cdn.tripadvisor.com/media/photo-o/12/db/93/2d/farmers-feed-mill-restaurant.jpg?w=1000&s=1", "address": "110 Sequoia Dr, Leitchfield, KY 42754-1566", "lat": 37.48406, "lng": -86.28813, "ref_id": 4260391, "rating": 4, "num_reviews": 0, "website": "https://www.facebook.com/FarmersFeedMill/", "contact_phone": "+1 270-230-0027", "contact_email": null, "status": 1, "source_type": 1, "numberReviews": 102}, {"name": "Mi Camino Real", "type": "restaurant", "image": "https://dynamic-media-cdn.tripadvisor.com/media/photo-o/29/fe/1a/4f/caption.jpg?w=1000&s=1", "address": "208 W White Oak St, Leitchfield, KY 42754-1008", "lat": 37.47733, "lng": -86.29642, "ref_id": 4639349, "rating": 4, "num_reviews": 0, "website": "http://www.micaminorealky.com/", "contact_phone": "+1 270-230-1067", "contact_email": null, "status": 1, "source_type": 1, "numberReviews": 26}, {"name": "K's Cafe", "type": "restaurant", "image": "https://dynamic-media-cdn.tripadvisor.com/media/photo-o/13/d6/3b/28/photo4jpg.jpg?w=1000&s=1", "address": "102 W Main St, Clarkson, KY 42726-8031", "lat": 37.49549, "lng": -86.22644, "ref_id": 7792106, "rating": 4.5, "num_reviews": 0, "website": "", "contact_phone": "+1 270-242-9904", "contact_email": null, "status": 1, "source_type": 1, "numberReviews": 26}, {"name": "Sandy's Restaurant", "type": "restaurant", "image": "https://dynamic-media-cdn.tripadvisor.com/media/photo-o/17/09/97/48/great-little-hole-in.jpg?w=1000&s=1", "address": "509 Mill St, Leitchfield, KY 42754-1513", "lat": 37.48449, "lng": -86.28682, "ref_id": 4719193, "rating": 4, "num_reviews": 0, "website": "https://www.facebook.com/pages/Sandys-Restaurant/108208622553851", "contact_phone": "+1 270-259-3253", "contact_email": null, "status": 1, "source_type": 1, "numberReviews": 17}, {"name": "Best Doughnuts", "type": "restaurant", "image": "https://dynamic-media-cdn.tripadvisor.com/media/photo-o/14/67/63/3f/best-doughnuts.jpg?w=1000&s=1", "address": "707 N Main St, Leitchfield, KY 42754-2134", "lat": 37.48785, "lng": -86.293, "ref_id": 15057078, "rating": 5, "num_reviews": 0, "website": "https://www.facebook.com/Best-Donuts-480285568762686/", "contact_phone": "+1 270-259-2000", "contact_email": null, "status": 1, "source_type": 1, "numberReviews": 7}, {"name": "Mr Gatti's Pizza", "type": "restaurant", "image": null, "address": "619 S Main St, Leitchfield, KY 42754", "lat": 37.470795, "lng": -86.29341, "ref_id": 4893134, "rating": 4, "num_reviews": 0, "website": "https://mrgattispizza.com/homepage/locations/gattis-pizza-leitchfield/?utm_source=extendednetwork&utm_medium=Yext&y_source=1_MTc0MTk4MjItNzY5LWxvY2F0aW9uLndlYnNpdGU%3D", "contact_phone": "+1 270-259-5332", "contact_email": null, "status": 1, "source_type": 1, "numberReviews": 14}, {"name": "Captain D's", "type": "restaurant", "image": null, "address": "719 S Main St, Leitchfield, KY 42754-1060", "lat": 37.46856, "lng": -86.29271, "ref_id": 4705840, "rating": 4, "num_reviews": 0, "website": "http://www.captainds.com/", "contact_phone": "+1 270-259-5513", "contact_email": null, "status": 1, "source_type": 1, "numberReviews": 15}, {"name": "Asian Buffet", "type": "restaurant", "image": "https://dynamic-media-cdn.tripadvisor.com/media/photo-o/08/95/d3/6b/asian-buffet.jpg?w=1000&s=1", "address": "364 S Main St, Leitchfield, KY 42754-1428", "lat": 37.47583, "lng": -86.29441, "ref_id": 5105341, "rating": 3.5, "num_reviews": 0, "website": "http://www.asianbuffetleitchfield.com/", "contact_phone": "+1 270-259-9052", "contact_email": null, "status": 1, "source_type": 1, "numberReviews": 16}, {"name": "Yamato Japanse Steakhouse", "type": "restaurant", "image": null, "address": "1773 Elizabethtown Rd, Leitchfield, KY 42754-8128", "lat": 37.48525, "lng": -86.26773, "ref_id": 19384866, "rating": 4.5, "num_reviews": 0, "website": "https://www.facebook.com/Yamato-Japanese-Steak-House-Leitchfield-Ky-1892480324350767/", "contact_phone": "+1 270-971-1592", "contact_email": null, "status": 1, "source_type": 1, "numberReviews": 3}, {"name": "Las Palmas Mexican Grill", "type": "restaurant", "image": null, "address": "624 S Main St, Leitchfield, KY 42754-1084", "lat": 37.47062, "lng": -86.29447, "ref_id": 12841784, "rating": 4, "num_reviews": 0, "website": "https://www.facebook.com/Las-Palmas-Mexican-Grill-1496380534004944/", "contact_phone": "+1 270-200-2272", "contact_email": null, "status": 1, "source_type": 1, "numberReviews": 8}, {"name": "Red Neck Ranch Restaurant", "type": "restaurant", "image": null, "address": "117 W Short St, Clarkson, KY 42726-8532", "lat": 37.49456, "lng": -86.22271, "ref_id": 13820480, "rating": 5, "num_reviews": 0, "website": null, "contact_phone": "+1 270-242-1076", "contact_email": null, "status": 1, "source_type": 1, "numberReviews": 3}, {"name": "Pizza Hut", "type": "restaurant", "image": null, "address": "494 Southgate Mall, Leitchfield, KY 42754", "lat": 37.4751, "lng": -86.29566, "ref_id": 4615628, "rating": 4, "num_reviews": 0, "website": "https://locations.pizzahut.com/ky/leitchfield/494-southgate-mall?utm_medium=organic&utm_source=local&utm_campaign=yextpowerlistings&utm_content=website&utm_term=290693", "contact_phone": "+1 270-259-9351", "contact_email": "rs041466@pizzahut.com", "status": 1, "source_type": 1, "numberReviews": 5}, {"name": "Subway", "type": "restaurant", "image": null, "address": "721 S Main St, Leitchfield, KY 42754", "lat": 37.468197, "lng": -86.29278, "ref_id": 4620630, "rating": 4, "num_reviews": 0, "website": "https://restaurants.subway.com/united-states/ky/leitchfield/721-s-main-st?utm_source=yext-other&utm_medium=local&utm_term=acq&utm_content=14344&utm_campaign=evergreen-2020&y_source=1_MTQ5MDU2MDMtNzY5LWxvY2F0aW9uLndlYnNpdGU%3D", "contact_phone": "+1 270-259-4999", "contact_email": null, "status": 1, "source_type": 1, "numberReviews": 7}, {"name": "Hardee's", "type": "restaurant", "image": null, "address": "406 S Main St, Leitchfield, KY 42754", "lat": 37.47457, "lng": -86.294945, "ref_id": 17511329, "rating": 4.5, "num_reviews": 0, "website": "https://locations.hardees.com/ky/leitchfield/406-s-main-st?utm_source=yext&utm_medium=gmb-button&utm_campaign=search&utm_content=website&y_source=1_MTIzOTAxMzEtNzY5LWxvY2F0aW9uLndlYnNpdGU%3D", "contact_phone": "+1 270-259-3700", "contact_email": null, "status": 1, "source_type": 1, "numberReviews": 2}, {"name": "Rally's", "type": "restaurant", "image": "https://dynamic-media-cdn.tripadvisor.com/media/photo-o/0e/4d/57/8a/the-restaurant.jpg?w=1000&s=1", "address": "511 S. Main Street, Leitchfield, KY 42754", "lat": 37.473236, "lng": -86.29429, "ref_id": 12087235, "rating": 4.5, "num_reviews": 0, "website": "https://locations.rallys.com/ky/leitchfield/511-s.-main-street?y_source=1_MzI0OTA5Ni03NjktbG9jYXRpb24ud2Vic2l0ZQ%3D%3D", "contact_phone": "+1 270-230-1905", "contact_email": "Rallys4206@yahoo.com", "status": 1, "source_type": 1, "numberReviews": 3}, {"name": "Papa Johns Pizza", "type": "restaurant", "image": null, "address": "701 S Main St, Leitchfield, KY 42754", "lat": 37.48108, "lng": -86.266556, "ref_id": 4640008, "rating": 3.5, "num_reviews": 0, "website": "https://locations.papajohns.com/united-states/ky/42754/leitchfield/200-zoe-ln?utm_source=gmb&utm_medium=organic&y_source=1_MTA2OTEwNjEtNzY5LWxvY2F0aW9uLndlYnNpdGU%3D", "contact_phone": "+1 270-259-9668", "contact_email": null, "status": 1, "source_type": 1, "numberReviews": 7}, {"name": "Taco Bell", "type": "restaurant", "image": null, "address": "802 South Main Street, Leitchfield, KY 42754", "lat": 37.46436, "lng": -86.29233, "ref_id": 15864380, "rating": 5, "num_reviews": 0, "website": "https://locations.tacobell.com/ky/leitchfield/802-south-main-street.html?utm_source=yext&utm_campaign=yextpowerlistings&utm_medium=referral&utm_term=036782&utm_content=website&y_source=1_NjE0MjEwNi03NjktbG9jYXRpb24ud2Vic2l0ZQ%3D%3D", "contact_phone": "+1 270-259-2857", "contact_email": null, "status": 1, "source_type": 1, "numberReviews": 1}, {"name": "Royal Pizza", "type": "restaurant", "image": null, "address": "110 Peonia Rd, Clarkson, KY 42726-8049", "lat": 37.45911, "lng": -86.22322, "ref_id": 18379694, "rating": 5, "num_reviews": 0, "website": "https://www.facebook.com/royalpizzaclarkson/", "contact_phone": "+1 270-242-1039", "contact_email": null, "status": 1, "source_type": 1, "numberReviews": 1}, {"name": "Huddle House", "type": "restaurant", "image": null, "address": "118 Commerce Dr, Leitchfield, KY 42754", "lat": 37.46469, "lng": -86.29032, "ref_id": 4977790, "rating": 3, "num_reviews": 0, "website": "https://locations.huddlehouse.com/ky/leitchfield/118-commerce-dr", "contact_phone": "+1 270-230-0100", "contact_email": "Digital@huddlehouse.com", "status": 1, "source_type": 1, "numberReviews": 20}, {"name": "McDonald's", "type": "restaurant", "image": null, "address": "714 S Main St, Leitchfield, KY 42754-1055", "lat": 37.468864, "lng": -86.293884, "ref_id": 15804650, "rating": 3, "num_reviews": 0, "website": "https://www.mcdonalds.com/us/en-us/location/ky/leitchfield/714-s-main/11450.html?cid=RF:YXT:RoN::Clicks", "contact_phone": "+1 270-259-9298", "contact_email": null, "status": 1, "source_type": 1, "numberReviews": 2}, {"name": "Wendy's", "type": "restaurant", "image": null, "address": "715 South Main, Leitchfield, KY 42754", "lat": 37.46914, "lng": -86.292786, "ref_id": 4678752, "rating": 2.5, "num_reviews": 0, "website": "https://locations.wendys.com/united-states/ky/leitchfield/715-south-main", "contact_phone": "+1 270-259-0530", "contact_email": null, "status": 1, "source_type": 1, "numberReviews": 8}, {"name": "Sonic Drive-In", "type": "restaurant", "image": null, "address": "1479 Elizabethtown Road, Leitchfield, KY 42754", "lat": 37.48508, "lng": -86.272835, "ref_id": 4959936, "rating": 2, "num_reviews": 0, "website": "https://locations.sonicdrivein.com/ky/leitchfield/1479-elizabethtown-road.html", "contact_phone": "+1 270-287-0003", "contact_email": null, "status": 1, "source_type": 1, "numberReviews": 7}, {"name": "Domino's Pizza", "type": "restaurant", "image": null, "address": "1309 Elizabeth Town Road, Leitchfield, KY 42754", "lat": 37.485737, "lng": -86.27525, "ref_id": 26717204, "rating": -1, "num_reviews": 0, "website": null, "contact_phone": "+1 270-971-1805", "contact_email": null, "status": 1, "source_type": 1, "numberReviews": 0}, {"name": "Krispy Krunchy Chicken", "type": "restaurant", "image": null, "address": "918 Millerstown Road, Clarkson, KY 42726", "lat": 37.488743, "lng": -86.20727, "ref_id": 27527068, "rating": -1, "num_reviews": 0, "website": "https://www.krispykrunchy.com/", "contact_phone": "+1 270-799-7261", "contact_email": null, "status": 1, "source_type": 1, "numberReviews": 0}, {"name": "Little Caesars Pizza", "type": "restaurant", "image": null, "address": "706 South Main Street, Leitchfield, KY 42754", "lat": 37.469418, "lng": -86.29397, "ref_id": 25485381, "rating": -1, "num_reviews": 0, "website": null, "contact_phone": null, "contact_email": null, "status": 1, "source_type": 1, "numberReviews": 0}, {"name": "Marco's Pizza", "type": "restaurant", "image": null, "address": "2711 E 10th St, Jeffersonville, IN 47130", "lat": 38.340874, "lng": -85.706604, "ref_id": 26787886, "rating": 1, "num_reviews": 0, "website": "https://www.marcos.com/", "contact_phone": "8126104233", "contact_email": null, "status": 1, "source_type": 1, "numberReviews": 1}, {"name": "Lady Luck IV", "type": "restaurant", "image": null, "address": "713 W Wyoming Ave, Cincinnati, OH 45215-4528", "lat": 39.22704, "lng": -84.46302, "ref_id": 26940852, "rating": -1, "num_reviews": 0, "website": "", "contact_phone": "+1 702-423-9003", "contact_email": null, "status": 1, "source_type": 1, "numberReviews": 0}, {"name": "The Wing Dept.", "type": "restaurant", "image": null, "address": "7875 Montgomery Road, Cincinnati, OH 45236", "lat": 39.203667, "lng": -84.37789, "ref_id": 25476097, "rating": -1, "num_reviews": 0, "website": null, "contact_phone": null, "contact_email": null, "status": 1, "source_type": 1, "numberReviews": 0}, {"name": "The Park Pour", "type": "restaurant", "image": "https://dynamic-media-cdn.tripadvisor.com/media/photo-o/25/40/b8/b3/great-place-for-dinner.jpg?w=1000&s=1", "address": "4815 Cooper Road Corner Of Kenwood And Cooper Roads In Blue Ash, Blue Ash, OH 45224", "lat": 39.230713, "lng": -84.37623, "ref_id": 23799964, "rating": 4.5, "num_reviews": 0, "website": "http://www.TheParkPour.com", "contact_phone": "+1 513-376-7247", "contact_email": "april.koenig@theparkpour.com", "status": 1, "source_type": 1, "numberReviews": 4}, {"name": "King Donuts", "type": "restaurant", "image": null, "address": "904 Market St, Charlestown, IN 47111-1931", "lat": 38.44893, "lng": -85.66718, "ref_id": 23126955, "rating": 4, "num_reviews": 0, "website": "http://www.facebook.com/kingdonutscharlestown/", "contact_phone": "+1 812-503-5110", "contact_email": null, "status": 1, "source_type": 1, "numberReviews": 1}, {"name": "Domino's Pizza", "type": "restaurant", "image": null, "address": "1033 Market St, Charlestown, IN 47111", "lat": 38.45281, "lng": -85.6695, "ref_id": 15251380, "rating": 3, "num_reviews": 0, "website": "https://www.dominos.com/en/?redirect=homepage&utm_source=locallistings&utm_medium=loclist&utm_campaign=localmaps", "contact_phone": "+1 812-256-6600", "contact_email": null, "status": 1, "source_type": 1, "numberReviews": 1}, {"name": "Little Caesars", "type": "restaurant", "image": null, "address": "9413 County Road 403, Charlestown, IN 47111-8946", "lat": 38.45292, "lng": -85.67423, "ref_id": 4655611, "rating": 3, "num_reviews": 0, "website": "http://www.littlecaesars.com", "contact_phone": "+1 812-256-4600", "contact_email": null, "status": 1, "source_type": 1, "numberReviews": 3}, {"name": "Oasis Craft Burgers & Brew", "type": "restaurant", "image": "https://dynamic-media-cdn.tripadvisor.com/media/photo-o/15/7e/ec/44/getlstd-property-photo.jpg?w=1000&s=1", "address": "19904 Augusta Dr Ste 5, Lawrenceburg, IN 47025-7550", "lat": 39.15975, "lng": -84.82165, "ref_id": 15550109, "rating": 4, "num_reviews": 0, "website": "https://www.facebook.com/oasiscraftburgers/", "contact_phone": "+1 812-577-0670", "contact_email": "oasiscraftburgers@gmail.com", "status": 1, "source_type": 1, "numberReviews": 16}, {"name": "Chick-Fil-A", "type": "restaurant", "image": null, "address": "Terminal 3, 4th Floor Cincinnati/Northern Kentucky International Airport, Hebron, KY 41048", "lat": null, "lng": null, "ref_id": 5582946, "rating": 4.5, "num_reviews": 0, "website": "http://chic-fil-a.com", "contact_phone": "+1 859-767-1076", "contact_email": null, "status": 1, "source_type": 1, "numberReviews": 7}, {"name": "Lee's Famous Recipe Chicken", "type": "restaurant", "image": null, "address": "9813 3rd Street Rd, Valley Station, KY 40272-2801", "lat": 38.11348, "lng": -85.83593, "ref_id": 891323, "rating": 3, "num_reviews": 0, "website": null, "contact_phone": "+1 502-933-3538", "contact_email": "", "status": 1, "source_type": 1, "numberReviews": 4}, {"name": "El Nopal", "type": "restaurant", "image": null, "address": "10626 Dixie Hwy, Valley Station, KY 40272-4350", "lat": 38.10026, "lng": -85.87187, "ref_id": 18313112, "rating": 3, "num_reviews": 0, "website": "https://www.facebook.com/elnopaldixie/", "contact_phone": "+1 502-654-7405", "contact_email": null, "status": 1, "source_type": 1, "numberReviews": 4}, {"name": "American Cafe", "type": "restaurant", "image": "https://dynamic-media-cdn.tripadvisor.com/media/photo-o/06/e1/cc/e8/along-the-railroad-in.jpg?w=1000&s=1", "address": "306 N Ewing St, Guthrie, KY 42234-9206", "lat": 36.647373, "lng": -87.165344, "ref_id": 908546, "rating": 5, "num_reviews": 0, "website": "http://www.facebook.com/guthrieamericancafe/", "contact_phone": "(270) 483-", "contact_email": "", "status": 1, "source_type": 1, "numberReviews": 5}, {"name": "Howie's Family Restaurant", "type": "restaurant", "image": "https://dynamic-media-cdn.tripadvisor.com/media/photo-o/18/1a/7c/03/20190621-155836-largejpg.jpg?w=1000&s=1", "address": "127 S Main St, New Haven, KY 40051-6355", "lat": 37.65642, "lng": -85.59393, "ref_id": 6552869, "rating": 4.5, "num_reviews": 0, "website": "https://www.facebook.com/Howiesfamilyrestaurant/", "contact_phone": "+1 502-549-5154", "contact_email": null, "status": 1, "source_type": 1, "numberReviews": 14}, {"name": "The Sherwood Inn", "type": "restaurant", "image": "https://dynamic-media-cdn.tripadvisor.com/media/photo-o/23/8c/99/bf/dining-room.jpg?w=1000&s=1", "address": "138 S Main St, New Haven, KY 40051-6355", "lat": 37.65741, "lng": -85.59341, "ref_id": 4840239, "rating": 4.5, "num_reviews": 0, "website": "http://www.thesherwoodinn.net", "contact_phone": "+1 502-549-3386", "contact_email": null, "status": 1, "source_type": 1, "numberReviews": 7}, {"name": "New Haven's Pizza Shoppe", "type": "restaurant", "image": null, "address": "137 S Main St, New Haven, KY 40051-6355", "lat": 37.658, "lng": -85.59378, "ref_id": 870683, "rating": 4.5, "num_reviews": 0, "website": null, "contact_phone": "+1 502-549-3000", "contact_email": "", "status": 1, "source_type": 1, "numberReviews": 6}, {"name": "Subway", "type": "restaurant", "image": null, "address": "132 South Main Street # Hometowniga, New Haven, KY 40051", "lat": 37.655636, "lng": -85.592964, "ref_id": 4681340, "rating": 4.5, "num_reviews": 0, "website": "https://restaurants.subway.com/united-states/ky/new-haven/132-south-main-street?utm_source=yext-other&utm_medium=local&utm_term=acq&utm_content=46316&utm_campaign=evergreen-2020&y_source=1_MTQ5MTI5MTAtNzY5LWxvY2F0aW9uLndlYnNpdGU%3D", "contact_phone": "+1 502-549-5004", "contact_email": null, "status": 1, "source_type": 1, "numberReviews": 3}, {"name": "Juanito's", "type": "restaurant", "image": "https://dynamic-media-cdn.tripadvisor.com/media/photo-o/16/a4/b5/ec/photo4jpg.jpg?w=1000&s=1", "address": "149 S Main St, New Haven, KY 40051-6355", "lat": 37.657913, "lng": -85.59379, "ref_id": 16722306, "rating": 3.5, "num_reviews": 0, "website": "http://juanitosky.com/", "contact_phone": "+1 502-286-7045", "contact_email": null, "status": 1, "source_type": 1, "numberReviews": 3}, {"name": "LongBranch Saloon", "type": "restaurant", "image": null, "address": "135 S Main St, New Haven, KY 40051-6355", "lat": 37.65763, "lng": -85.59383, "ref_id": 26880186, "rating": -1, "num_reviews": 0, "website": "", "contact_phone": "+1 270-668-8299", "contact_email": null, "status": 1, "source_type": 1, "numberReviews": 0}, {"name": "Last Chance Bar, LLC", "type": "restaurant", "image": null, "address": "101 S Main St, New Haven, KY 40051-6355", "lat": 37.65045, "lng": -85.59715, "ref_id": 26982385, "rating": -1, "num_reviews": 0, "website": "", "contact_phone": "+1 502-286-7040", "contact_email": null, "status": 1, "source_type": 1, "numberReviews": 0}, {"name": "First and Last Chance", "type": "restaurant", "image": null, "address": "101 S Main St, New Haven, KY 40051-6355", "lat": 37.65045, "lng": -85.59715, "ref_id": 26972197, "rating": -1, "num_reviews": 0, "website": "", "contact_phone": "+1 502-549-8357", "contact_email": null, "status": 1, "source_type": 1, "numberReviews": 0}, {"name": "Subway", "type": "restaurant", "image": null, "address": "42 N 17th Ave, Beech Grove, KY 46107-1532", "lat": 39.721836, "lng": -86.102066, "ref_id": 4251510, "rating": -1, "num_reviews": 0, "website": "https://www.facebook.com/224511831080488", "contact_phone": "+1 317-788-0760", "contact_email": null, "status": 1, "source_type": 1, "numberReviews": 0}, {"name": "Steak 'n Shake", "type": "restaurant", "image": null, "address": "101 Avenue of Champions, Lexington, KY 40506", "lat": 38.04143, "lng": -84.503365, "ref_id": 15259724, "rating": -1, "num_reviews": 0, "website": "https://www.steaknshake.com/locations/ky-lexington-university-of-kentucky-lexington/", "contact_phone": "+1 859-582-3681", "contact_email": null, "status": 1, "source_type": 1, "numberReviews": 0}, {"name": "Krispy Krunchy Chicken", "type": "restaurant", "image": null, "address": "100 Bethel Harvest Drive, Nicholasville, KY 40356", "lat": 37.94843, "lng": -84.541985, "ref_id": 27529021, "rating": -1, "num_reviews": 0, "website": "https://www.krispykrunchy.com/", "contact_phone": "+1 859-309-0075", "contact_email": null, "status": 1, "source_type": 1, "numberReviews": 0}, {"name": "Jenny's", "type": "restaurant", "image": null, "address": "606 South Broadway, Lexington, KY 40508", "lat": 38.043163, "lng": -84.50726, "ref_id": 25522884, "rating": -1, "num_reviews": 0, "website": null, "contact_phone": null, "contact_email": null, "status": 1, "source_type": 1, "numberReviews": 0}, {"name": "LeanFeast\u00ae", "type": "restaurant", "image": "https://dynamic-media-cdn.tripadvisor.com/media/photo-o/1d/1c/71/3f/leanfeast-lexington.jpg?w=1000&s=1", "address": "220 Ruccio Way Ste 190, Lexington, KY 40503", "lat": 37.995754, "lng": -84.52951, "ref_id": 23278312, "rating": -1, "num_reviews": 0, "website": "https://www.facebook.com/LeanFeastLexington/", "contact_phone": "+1 859-687-1007", "contact_email": "lexingtoninfo@leanfeast.com", "status": 1, "source_type": 1, "numberReviews": 0}, {"name": "Which Wich", "type": "restaurant", "image": null, "address": "685 S Limestone, Lexington, KY 40508-4008", "lat": 38.03525, "lng": -84.50844, "ref_id": 26971945, "rating": -1, "num_reviews": 0, "website": "https://whichwich.com", "contact_phone": "+1 859-810-4300", "contact_email": null, "status": 1, "source_type": 1, "numberReviews": 0}, {"name": "Asian Bistro Express", "type": "restaurant", "image": null, "address": "4224 Saron Dr, Lexington, KY 40515-6300", "lat": 37.96742, "lng": -84.50079, "ref_id": 19670480, "rating": -1, "num_reviews": 0, "website": "http://www.asiabistroexpress.com/menu.aspx", "contact_phone": null, "contact_email": null, "status": 1, "source_type": 1, "numberReviews": 0}, {"name": "Hangar 54 Pizza", "type": "restaurant", "image": null, "address": "3334 Clays Mill Rd, Lexington, KY 40503-3415", "lat": 37.99654, "lng": -84.54808, "ref_id": 26887059, "rating": -1, "num_reviews": 0, "website": "", "contact_phone": "+1 859-523-6604", "contact_email": null, "status": 1, "source_type": 1, "numberReviews": 0}, {"name": "The Beer Trappe", "type": "restaurant", "image": null, "address": "811 E Euclid Ave, Lexington, KY 40502-1741", "lat": 38.030106, "lng": -84.49079, "ref_id": 26948229, "rating": -1, "num_reviews": 0, "website": "http://www.thebeertrappe.com", "contact_phone": "+1 859-309-0911", "contact_email": null, "status": 1, "source_type": 1, "numberReviews": 0}, {"name": "Chi Omega Lambda Alpha House", "type": "restaurant", "image": null, "address": "456 Rose St, Lexington, KY 40508-3342", "lat": 38.03639, "lng": -84.501564, "ref_id": 26880896, "rating": -1, "num_reviews": 0, "website": "", "contact_phone": "+1 859-381-9722", "contact_email": null, "status": 1, "source_type": 1, "numberReviews": 0}, {"name": "Tap House Bar and Lounge", "type": "restaurant", "image": null, "address": "613 N Main St, Nicholasville, KY 40356-1025", "lat": 37.88882, "lng": -84.56983, "ref_id": 26988344, "rating": -1, "num_reviews": 0, "website": "https://www.facebook.com/1413263912262173", "contact_phone": "+18598852522", "contact_email": null, "status": 1, "source_type": 1, "numberReviews": 0}, {"name": "El Milagro Dos", "type": "restaurant", "image": null, "address": "1545 Alexandria Dr, Lexington, KY 40504-2107", "lat": 38.04557, "lng": -84.55239, "ref_id": 26961167, "rating": -1, "num_reviews": 0, "website": "http://orderelmilagrodos.com", "contact_phone": "+1 859-277-5147", "contact_email": null, "status": 1, "source_type": 1, "numberReviews": 0}, {"name": "Speedway", "type": "restaurant", "image": null, "address": "3393 Tates Creek Road, Lexington, KY 40502", "lat": 37.993298, "lng": -84.49575, "ref_id": 25503113, "rating": -1, "num_reviews": 0, "website": null, "contact_phone": null, "contact_email": null, "status": 1, "source_type": 1, "numberReviews": 0}, {"name": "China Food", "type": "restaurant", "image": "https://dynamic-media-cdn.tripadvisor.com/media/photo-o/14/f5/d1/aa/20181006-173939-largejpg.jpg?w=1000&s=1", "address": "118 Hometown Plaza, Sellersburg, IN 47172-2817", "lat": 38.379322, "lng": -85.76819, "ref_id": 14980089, "rating": 4.5, "num_reviews": 0, "website": "http://www.chinafoodsellersburg.com", "contact_phone": "+1 812-748-5222", "contact_email": null, "status": 1, "source_type": 1, "numberReviews": 10}, {"name": "Miss Ashley's Tearoom", "type": "restaurant", "image": null, "address": "360 Fantasy Lane, Clarksville, TN 37043", "lat": 36.543766, "lng": -87.3238, "ref_id": 25489446, "rating": -1, "num_reviews": 0, "website": null, "contact_phone": null, "contact_email": null, "status": 1, "source_type": 1, "numberReviews": 0}, {"name": "Brother Z's Wang Shack", "type": "restaurant", "image": null, "address": "952 Cumberland Heights Road, Clarksville, TN 37040", "lat": 36.506016, "lng": -87.39192, "ref_id": 25545799, "rating": -1, "num_reviews": 0, "website": null, "contact_phone": null, "contact_email": null, "status": 1, "source_type": 1, "numberReviews": 0}, {"name": "Clarksville Crusts", "type": "restaurant", "image": null, "address": "201 Church St, Clarksville, TX 75426", "lat": 36.52977, "lng": -87.35945, "ref_id": 26359478, "rating": -1, "num_reviews": 0, "website": null, "contact_phone": "+1 903-427-3000", "contact_email": null, "status": 1, "source_type": 1, "numberReviews": 0}, {"name": "The Amsterdam", "type": "restaurant", "image": null, "address": "518 Madison St, Clarksville, TN 37040-3620", "lat": 36.525955, "lng": -87.352806, "ref_id": 26942457, "rating": -1, "num_reviews": 0, "website": "https://www.facebook.com/109186911917022", "contact_phone": "+19319194778", "contact_email": null, "status": 1, "source_type": 1, "numberReviews": 0}, {"name": "Black Rifle Coffee Company", "type": "restaurant", "image": null, "address": "2570 Wilma Rudolph Blvd, Clarksville, TN 37040-8420", "lat": 36.579338, "lng": -87.30018, "ref_id": 26982231, "rating": -1, "num_reviews": 0, "website": "https://www.blackriflecoffee.com/pages/clarksville-retail", "contact_phone": "+1 931-802-8045", "contact_email": null, "status": 1, "source_type": 1, "numberReviews": 0}, {"name": "Dunkin'", "type": "restaurant", "image": null, "address": "1645 Fort Campbell Blvd, Clarksville, TN 37042", "lat": 36.578335, "lng": -87.40847, "ref_id": 17833857, "rating": -1, "num_reviews": 0, "website": "https://locations.dunkindonuts.com/en/tn/clarksville/1645-fort-campbell-blvd/302619?y_source=1_MTIxMDU1NTctNzY5LWxvY2F0aW9uLndlYnNpdGU%3D", "contact_phone": "+1 931-645-4676", "contact_email": null, "status": 1, "source_type": 1, "numberReviews": 0}, {"name": "Miss Ashley's Tearoom & Cafe", "type": "restaurant", "image": null, "address": "610 Washington St, Clarksville, TN 37040-3762", "lat": 36.52235, "lng": -87.35158, "ref_id": 26923803, "rating": -1, "num_reviews": 0, "website": "http://www.missashleystearoom.com", "contact_phone": "+1 931-216-1366", "contact_email": null, "status": 1, "source_type": 1, "numberReviews": 0}, {"name": "Miss Gladys Cheesecake", "type": "restaurant", "image": null, "address": "30 Crossland Avenue, Clarksville, TN 37042", "lat": 36.51982, "lng": -87.3621, "ref_id": 25489454, "rating": -1, "num_reviews": 0, "website": null, "contact_phone": null, "contact_email": null, "status": 1, "source_type": 1, "numberReviews": 0}, {"name": "The Mixing Bowl Bakery", "type": "restaurant", "image": null, "address": "305 N Riverside Dr, Clarksville, TN 37040-3121", "lat": 36.52956, "lng": -87.36354, "ref_id": 26950956, "rating": -1, "num_reviews": 0, "website": "https://www.facebook.com/1364766663677516", "contact_phone": "+16185708018", "contact_email": null, "status": 1, "source_type": 1, "numberReviews": 0}, {"name": "La Costa Caf\u00e9 & Lounge", "type": "restaurant", "image": null, "address": "137 Franklin St, Clarksville, TN 37040-3437", "lat": 36.527527, "lng": -87.359, "ref_id": 26923804, "rating": -1, "num_reviews": 0, "website": "https://www.lacostacafeandlounge.com/", "contact_phone": "+19312723521", "contact_email": null, "status": 1, "source_type": 1, "numberReviews": 0}, {"name": "Captain D's", "type": "restaurant", "image": null, "address": "2123 5th Ave, Huntington, WV 25703-1506", "lat": 38.42304, "lng": -82.4204, "ref_id": 4682230, "rating": 3.5, "num_reviews": 0, "website": "https://locations.captainds.com/ll/us/wv/huntington/2123-5th-ave", "contact_phone": "+1 304-523-1118", "contact_email": null, "status": 1, "source_type": 1, "numberReviews": 8}, {"name": "Monty's Original Pizza", "type": "restaurant", "image": "https://dynamic-media-cdn.tripadvisor.com/media/photo-o/19/a4/c7/27/monty-s-original-pizza.jpg?w=1000&s=1", "address": "815 6th Ave, Huntington, WV 25701-2107", "lat": 38.41752, "lng": -82.44407, "ref_id": 4630615, "rating": 4, "num_reviews": 0, "website": "https://www.facebook.com/montysoriginal/", "contact_phone": "+1 304-525-1251", "contact_email": null, "status": 1, "source_type": 1, "numberReviews": 10}, {"name": "Subway", "type": "restaurant", "image": null, "address": "2055 5th Ave, Huntington, WV 25703-1504", "lat": 38.42304, "lng": -82.42099, "ref_id": 4728190, "rating": 4, "num_reviews": 0, "website": "http://www.subway.com/en-us", "contact_phone": "+1 304-522-2345", "contact_email": null, "status": 1, "source_type": 1, "numberReviews": 2}, {"name": "KFC", "type": "restaurant", "image": null, "address": "315 Washington Ave, Huntington, WV 25701-1144", "lat": 38.417168, "lng": -82.46143, "ref_id": 4636017, "rating": 4, "num_reviews": 0, "website": "https://locations.kfc.com/wv/huntington/315-washington-ave", "contact_phone": "+1 304-522-0861", "contact_email": null, "status": 1, "source_type": 1, "numberReviews": 4}, {"name": "Rocky Tops Pizza", "type": "restaurant", "image": null, "address": "101 Buffalo Creek Rd, Huntington, WV 25704-9643", "lat": 38.35518, "lng": -82.50987, "ref_id": 4240010, "rating": 3, "num_reviews": 0, "website": "https://www.facebook.com/BuffaloRockyTops/", "contact_phone": "+1 304-429-4133", "contact_email": null, "status": 1, "source_type": 1, "numberReviews": 6}, {"name": "Monty's Pizza", "type": "restaurant", "image": null, "address": "110 Rockwood Ave, Chesapeake, OH 45619-1117", "lat": 38.42845, "lng": -82.44895, "ref_id": 4995767, "rating": 3.5, "num_reviews": 0, "website": "https://www.facebook.com/Montys-Pizza-298902076790263/", "contact_phone": "+1 740-867-5969", "contact_email": null, "status": 1, "source_type": 1, "numberReviews": 5}, {"name": "Tudor's Biscuit World", "type": "restaurant", "image": "https://dynamic-media-cdn.tripadvisor.com/media/photo-o/09/b2/ce/99/tudor-s-biscuit-world.jpg?w=1000&s=1", "address": "4540 Route 152, Lavalette, WV 25535-9609", "lat": 38.33637, "lng": -82.45384, "ref_id": 3874961, "rating": 3.5, "num_reviews": 0, "website": "http://tudorsbiscuitworld.com/", "contact_phone": "+1 304-523-4808", "contact_email": "contact@tudorsbiscuitworld.com", "status": 1, "source_type": 1, "numberReviews": 4}, {"name": "Hank's", "type": "restaurant", "image": "https://dynamic-media-cdn.tripadvisor.com/media/photo-o/2b/6d/22/6d/caption.jpg?w=1000&s=1", "address": "1019 4th Ave, Huntington, WV 25701", "lat": 38.42098, "lng": -82.44188, "ref_id": 5502670, "rating": 4, "num_reviews": 0, "website": "https://www.facebook.com/HanksHuntington/", "contact_phone": "+1 304-523-3354", "contact_email": null, "status": 1, "source_type": 1, "numberReviews": 4}, {"name": "Applebee's", "type": "restaurant", "image": null, "address": "1135 3rd Ave, Huntington, WV 25701-1507", "lat": 38.42243, "lng": -82.43942, "ref_id": 457504, "rating": 3, "num_reviews": 0, "website": "https://www.applebees.com/en/restaurants-huntington-wv/1135-third-avenue-9322", "contact_phone": "+1 304-525-4321", "contact_email": "", "status": 1, "source_type": 1, "numberReviews": 37}, {"name": "Hardee's", "type": "restaurant", "image": null, "address": "1033 Paris Rd, Mayfield, KY 42066-3325", "lat": 36.725605, "lng": -88.62938, "ref_id": 4696574, "rating": 3, "num_reviews": 0, "website": "https://locations.hardees.com/ky/mayfield/1033-paris-rd", "contact_phone": "+1 270-247-5968", "contact_email": null, "status": 1, "source_type": 1, "numberReviews": 5}, {"name": "KFC", "type": "restaurant", "image": null, "address": "1115 Paris Rd Apt S, Mayfield, KY 42066-4988", "lat": 36.723457, "lng": -88.62822, "ref_id": 4625856, "rating": 2.5, "num_reviews": 0, "website": "https://locations.kfc.com/ky/mayfield/1115-paris-road", "contact_phone": "+1 270-247-6443", "contact_email": null, "status": 1, "source_type": 1, "numberReviews": 9}, {"name": "Sedalia Cafe", "type": "restaurant", "image": null, "address": "5593 State Rt. 97, Mayfield, KY., Sedalia, KY 42066", "lat": 36.64149, "lng": -88.60551, "ref_id": 26350598, "rating": -1, "num_reviews": 0, "website": "https://www.facebook.com/profile.php?id=100084422056497", "contact_phone": "+1 270-328-9200", "contact_email": "agaadams@yahoo.com", "status": 1, "source_type": 1, "numberReviews": 0}, {"name": "Farmington Market & Dining", "type": "restaurant", "image": null, "address": "8196 Ky-121, Mayfield, KY 42066-4948", "lat": 36.670147, "lng": -88.5294, "ref_id": 26947419, "rating": -1, "num_reviews": 0, "website": "https://farmingtonmarketdining.com/", "contact_phone": "+1 270-345-2089", "contact_email": null, "status": 1, "source_type": 1, "numberReviews": 0}, {"name": "Popeyes Louisiana Kitchen", "type": "restaurant", "image": null, "address": "1018 Paris Road, Mayfield, KY 42066", "lat": 36.727318, "lng": -88.62964, "ref_id": 21201360, "rating": -1, "num_reviews": 0, "website": "https://www.popeyes.com/store-locator/store/restaurant_88504?utm_source=yext&utm_medium=referral&utm_campaign=organic-local-listings", "contact_phone": "+1 270-297-4548", "contact_email": "plk12926@supremefoods.com", "status": 1, "source_type": 1, "numberReviews": 0}, {"name": "Sedalia Cafe", "type": "restaurant", "image": null, "address": "5593 State Route 97, Mayfield, KY 42066", "lat": 37.09024, "lng": -95.71289, "ref_id": 26548813, "rating": -1, "num_reviews": 0, "website": null, "contact_phone": "+1 270-328-9200", "contact_email": null, "status": 1, "source_type": 1, "numberReviews": 0}, {"name": "Little Caesars Pizza", "type": "restaurant", "image": null, "address": "1204 Paris Road, Mayfield, KY 42066", "lat": 36.72258, "lng": -88.62593, "ref_id": 25485369, "rating": -1, "num_reviews": 0, "website": "https://littlecaesars.com/en-us/store/11591", "contact_phone": "+1 270-248-7900", "contact_email": null, "status": 1, "source_type": 1, "numberReviews": 0}, {"name": "Huddle House", "type": "restaurant", "image": null, "address": "951 Paris Rd, Mayfield, KY 42066-2744", "lat": 36.73002, "lng": -88.63231, "ref_id": 24040884, "rating": -1, "num_reviews": 0, "website": "http://locations.huddlehouse.com/ky/mayfield/951-paris-rd", "contact_phone": "+1 270-251-8100", "contact_email": "Digital@huddlehouse.com", "status": 1, "source_type": 1, "numberReviews": 0}, {"name": "Casey's", "type": "restaurant", "image": null, "address": "1004 Paris Rd, Mayfield, KY 42066", "lat": 36.729164, "lng": -88.63038, "ref_id": 21263275, "rating": -1, "num_reviews": 0, "website": "https://www.caseys.com/general-store/ky-mayfield/1004-paris-rd/3339", "contact_phone": "+1 270-247-4441", "contact_email": null, "status": 1, "source_type": 1, "numberReviews": 0}, {"name": "Sedalia Cafe", "type": "restaurant", "image": null, "address": "5593 St. Rt. 97, Mayfield, KY., Sedalia, KY 42066", "lat": 36.64149, "lng": -88.60551, "ref_id": 26350625, "rating": -1, "num_reviews": 0, "website": "https://www.facebook.com/profile.php?id=100084422056497", "contact_phone": "+1 270-328-9200", "contact_email": "agaadams@yahoo.com", "status": 1, "source_type": 1, "numberReviews": 0}, {"name": "Mayfield Nutrition", "type": "restaurant", "image": null, "address": "1203 Paris Rd, Mayfield, KY 42066-4989", "lat": 36.721786, "lng": -88.62741, "ref_id": 26918233, "rating": -1, "num_reviews": 0, "website": "https://www.facebook.com/106317491177548", "contact_phone": "+1 270-356-1531", "contact_email": null, "status": 1, "source_type": 1, "numberReviews": 0}, {"name": "Food Giant", "type": "restaurant", "image": null, "address": "300 W Farthing St, Mayfield, KY 42066-3227", "lat": 36.729565, "lng": -88.639015, "ref_id": 26971747, "rating": -1, "num_reviews": 0, "website": "http://www.foodgiant.com/", "contact_phone": "+1 270-247-3610", "contact_email": null, "status": 1, "source_type": 1, "numberReviews": 0}, {"name": "Ruler Foods - Mayfield, KY", "type": "restaurant", "image": null, "address": "1107 Paris Rd, Mayfield, KY 42066-3342", "lat": 36.724525, "lng": -88.62955, "ref_id": 26943294, "rating": -1, "num_reviews": 0, "website": "https://www.rulerfoods.com/?cid=loc_09000282_fb", "contact_phone": "+1 270-247-3705", "contact_email": null, "status": 1, "source_type": 1, "numberReviews": 0}, {"name": "Pizza Hut", "type": "restaurant", "image": null, "address": "1119 Paris Rd, Mayfield, KY 42066", "lat": 36.722908, "lng": -88.62782, "ref_id": 15257902, "rating": -1, "num_reviews": 0, "website": "https://locations.pizzahut.com/ky/mayfield/1119-paris-rd?utm_medium=organic&utm_source=local&utm_campaign=yextpowerlistings&utm_content=website&utm_term=281755", "contact_phone": "+1 270-247-5595", "contact_email": null, "status": 1, "source_type": 1, "numberReviews": 0}, {"name": "Hunt Bros. Pizza", "type": "restaurant", "image": null, "address": "1201 Paris Rd, Mayfield, KY 42066-4989", "lat": 36.72209, "lng": -88.62755, "ref_id": 15836607, "rating": -1, "num_reviews": 0, "website": null, "contact_phone": null, "contact_email": null, "status": 1, "source_type": 1, "numberReviews": 0}, {"name": "Subway", "type": "restaurant", "image": null, "address": "1110 Paris Rd, Mayfield, KY 42066-4988", "lat": 36.72396, "lng": -88.62742, "ref_id": 26940833, "rating": -1, "num_reviews": 0, "website": "http://www.subway.com/en-us", "contact_phone": "+1 270-247-0408", "contact_email": null, "status": 1, "source_type": 1, "numberReviews": 0}, {"name": "La Michoacana", "type": "restaurant", "image": null, "address": "1306 Cuba Rd, Mayfield, KY 42066-3236", "lat": 36.725567, "lng": -88.63165, "ref_id": 27753097, "rating": -1, "num_reviews": 0, "website": "http://www.lamichoacanameatmarket.com", "contact_phone": "+1 270-247-2761", "contact_email": null, "status": 1, "source_type": 1, "numberReviews": 0}, {"name": "Bajio's Mexican Restaurant", "type": "restaurant", "image": "https://dynamic-media-cdn.tripadvisor.com/media/photo-o/1d/21/b9/23/bajio-s-mexican-restaurant.jpg?w=1000&s=1", "address": "1567 River St, Bowling Green, KY 42101-1721", "lat": 37.00481, "lng": -86.422264, "ref_id": 21282489, "rating": 5, "num_reviews": 0, "website": "https://www.facebook.com/pages/category/Restaurant/Bajios-Mexican-Restaurant-110372593752482/", "contact_phone": "+1 270-904-4714", "contact_email": null, "status": 1, "source_type": 1, "numberReviews": 5}, {"name": "Great Crescent Brewery", "type": "restaurant", "image": "https://dynamic-media-cdn.tripadvisor.com/media/photo-o/12/5f/e8/19/great-crescent-brewery.jpg?w=1000&s=1", "address": "315 Importing St, Aurora, IN 47001-1415", "lat": 39.057716, "lng": -84.9006, "ref_id": 6364149, "rating": 4.5, "num_reviews": 0, "website": "http://www.gcbeer.com", "contact_phone": "+1 812-655-9079", "contact_email": "dvalas1@comcast.net", "status": 1, "source_type": 1, "numberReviews": 108}, {"name": "Main Street Diner", "type": "restaurant", "image": "https://dynamic-media-cdn.tripadvisor.com/media/photo-o/15/31/38/76/photo2jpg.jpg?w=1000&s=1", "address": "228 Main St, Rising Sun, IN 47040-1225", "lat": 38.9489, "lng": -84.85362, "ref_id": 10719741, "rating": 4.5, "num_reviews": 0, "website": "http://risingsunmainstreet.com", "contact_phone": "+1 812-438-3900", "contact_email": "michaels@fuse.net", "status": 1, "source_type": 1, "numberReviews": 40}, {"name": "3rd and Main", "type": "restaurant", "image": "https://dynamic-media-cdn.tripadvisor.com/media/photo-o/12/68/31/e9/3rd-and-main-speak-ez.jpg?w=1000&s=1", "address": "223 3rd St, Aurora, IN 47001-1319", "lat": 39.055042, "lng": -84.90022, "ref_id": 3682696, "rating": 4, "num_reviews": 0, "website": "http://thirdandmain.com", "contact_phone": "+1 812-655-9727", "contact_email": null, "status": 1, "source_type": 1, "numberReviews": 168}, {"name": "Valle Escondido Mexican Grill", "type": "restaurant", "image": "https://dynamic-media-cdn.tripadvisor.com/media/photo-o/0d/85/1f/6c/photo0jpg.jpg?w=1000&s=1", "address": "19908 Augusta Dr, Lawrenceburg, IN 47025-7552", "lat": 39.15989, "lng": -84.82071, "ref_id": 11045276, "rating": 4.5, "num_reviews": 0, "website": "http://www.valleescondidogrill.com", "contact_phone": "+1 812-537-1986", "contact_email": null, "status": 1, "source_type": 1, "numberReviews": 47}, {"name": "Pagliai's", "type": "restaurant", "image": "https://dynamic-media-cdn.tripadvisor.com/media/photo-o/0c/6a/07/fa/birthday-celebration.jpg?w=1000&s=1", "address": "100 Micbeth Dr, Princeton, KY 42445-6326", "lat": 37.121258, "lng": -87.89154, "ref_id": 1550926, "rating": 4.5, "num_reviews": 0, "website": "http://www.pagliaisprinceton.com", "contact_phone": "+1 270-365-2323", "contact_email": "", "status": 1, "source_type": 1, "numberReviews": 133}, {"name": "Adams Breezy Hill Farm Restaurant & Mercantile", "type": "restaurant", "image": "https://dynamic-media-cdn.tripadvisor.com/media/photo-o/1c/c3/a6/82/0320211105-hdr-largejpg.jpg?w=1000&s=1", "address": "1222 Cadiz Rd, Princeton, KY 42445-6801", "lat": 37.08301, "lng": -87.87947, "ref_id": 3574841, "rating": 4.5, "num_reviews": 0, "website": "https://www.facebook.com/adamsbreezyhillfarm", "contact_phone": "+1 270-365-1234", "contact_email": "adamsbreezyhillfarm@yahoo.com", "status": 1, "source_type": 1, "numberReviews": 103}, {"name": "Black Patch Grille", "type": "restaurant", "image": "https://dynamic-media-cdn.tripadvisor.com/media/photo-o/1d/4c/a5/0d/caption.jpg?w=1000&s=1", "address": "101 W Main St, Princeton, KY 42445-1546", "lat": 37.108704, "lng": -87.88223, "ref_id": 7372111, "rating": 4.5, "num_reviews": 0, "website": "https://www.facebook.com/1409653975953420", "contact_phone": "+1 270-365-2777", "contact_email": "blackpatchgrille@att.net", "status": 1, "source_type": 1, "numberReviews": 54}, {"name": "Majestic House Restaurant", "type": "restaurant", "image": "https://dynamic-media-cdn.tripadvisor.com/media/photo-o/1b/dc/a2/f8/lunch-plate-special.jpg?w=1000&s=1", "address": "208 US Highway 62 W, Princeton, KY 42445-2400", "lat": 37.11488, "lng": -87.90057, "ref_id": 7251445, "rating": 4, "num_reviews": 0, "website": "http://www.mhprinceton.com/", "contact_phone": "+1 270-365-3009", "contact_email": null, "status": 1, "source_type": 1, "numberReviews": 39}, {"name": "Heaton's", "type": "restaurant", "image": null, "address": "619 Marion Rd, Princeton, KY 42445-6289", "lat": 37.12574, "lng": -87.89229, "ref_id": 612203, "rating": 4, "num_reviews": 0, "website": null, "contact_phone": "+1 270-365-2052", "contact_email": "", "status": 1, "source_type": 1, "numberReviews": 31}, {"name": "Kay's Kitchen", "type": "restaurant", "image": "https://dynamic-media-cdn.tripadvisor.com/media/photo-o/11/37/6a/21/sign.jpg?w=1000&s=1", "address": "501 N Jefferson St, Princeton, KY 42445-1441", "lat": 37.1126, "lng": -87.88005, "ref_id": 12254249, "rating": 4, "num_reviews": 0, "website": "https://www.kayskitchenky.com/", "contact_phone": "+1 270-365-2709", "contact_email": null, "status": 1, "source_type": 1, "numberReviews": 14}, {"name": "La Potosina", "type": "restaurant", "image": "https://dynamic-media-cdn.tripadvisor.com/media/photo-o/13/e8/ae/49/photo0jpg.jpg?w=1000&s=1", "address": "302 Marion Rd, Princeton, KY 42445-6205", "lat": 37.11918, "lng": -87.89535, "ref_id": 7368713, "rating": 4, "num_reviews": 0, "website": "https://www.facebook.com/LaPotosina.ky97/?rf=116069288422597", "contact_phone": "+1 270-365-3848", "contact_email": null, "status": 1, "source_type": 1, "numberReviews": 18}, {"name": "Sonic Drive-In", "type": "restaurant", "image": null, "address": "409 Us Highway 62 W, Princeton, KY 42445-2409", "lat": 37.11039, "lng": -87.90303, "ref_id": 4959317, "rating": 4, "num_reviews": 0, "website": "https://locations.sonicdrivein.com/ky/princeton/409-us-highway-62-west.html", "contact_phone": "+1 270-365-6552", "contact_email": null, "status": 1, "source_type": 1, "numberReviews": 11}, {"name": "Captain D's", "type": "restaurant", "image": "https://dynamic-media-cdn.tripadvisor.com/media/photo-o/09/20/b5/d9/captain-d-s.jpg?w=1000&s=1", "address": "404 US Highway 62 W, Princeton, KY 42445-2408", "lat": 37.11216, "lng": -87.90232, "ref_id": 2514599, "rating": 3.5, "num_reviews": 0, "website": "http://www.captainds.com", "contact_phone": "+1 270-365-2950", "contact_email": "", "status": 1, "source_type": 1, "numberReviews": 11}, {"name": "Big John'z BBQ", "type": "restaurant", "image": null, "address": "4000 Farmersville Rd, Princeton, KY 42445-5226", "lat": null, "lng": null, "ref_id": 4854233, "rating": 5, "num_reviews": 0, "website": "https://www.facebook.com/179084225504674", "contact_phone": "+1 270-625-0565", "contact_email": null, "status": 1, "source_type": 1, "numberReviews": 1}, {"name": "Mj's Lattes", "type": "restaurant", "image": "https://dynamic-media-cdn.tripadvisor.com/media/photo-o/1b/b0/01/0c/photo0jpg.jpg?w=1000&s=1", "address": "220 Us Highway 62 W, Princeton, KY 42445-2400", "lat": 37.114567, "lng": -87.900246, "ref_id": 21179349, "rating": 5, "num_reviews": 0, "website": "https://order.toasttab.com/online/mjslattes/com", "contact_phone": "+1 270-601-3674", "contact_email": null, "status": 1, "source_type": 1, "numberReviews": 1}, {"name": "Los Agaves", "type": "restaurant", "image": null, "address": "200 Us-62, Princeton, KY 42445-2400", "lat": 37.11558, "lng": -87.89979, "ref_id": 21227388, "rating": 4, "num_reviews": 0, "website": null, "contact_phone": "+1 270-365-5390", "contact_email": null, "status": 1, "source_type": 1, "numberReviews": 1}, {"name": "Great Wall Buffet", "type": "restaurant", "image": null, "address": "338 US Highway 62 W, Princeton, KY 42445-2405", "lat": 37.11412, "lng": -87.90234, "ref_id": 12190185, "rating": 3.5, "num_reviews": 0, "website": null, "contact_phone": "+1 270-365-9920", "contact_email": null, "status": 1, "source_type": 1, "numberReviews": 3}, {"name": "Quiznos", "type": "restaurant", "image": null, "address": "405 Baldwin Ave, Princeton, KY 42445-1810", "lat": 37.11377, "lng": -87.8997, "ref_id": 4616549, "rating": 4, "num_reviews": 0, "website": "http://www.quiznos.com", "contact_phone": "+1 270-365-3737", "contact_email": null, "status": 1, "source_type": 1, "numberReviews": 1}, {"name": "Taco Bell", "type": "restaurant", "image": null, "address": "302 Parkway Ave., Princeton, KY 42445", "lat": 37.11259, "lng": -87.90106, "ref_id": 15864565, "rating": 3, "num_reviews": 0, "website": "https://locations.tacobell.com/ky/princeton/302-parkway-ave-.html?utm_source=yext&utm_campaign=yextpowerlistings&utm_medium=referral&utm_term=030534&utm_content=website&y_source=1_nje0ndqwms00odmtbg9jyxrpb24ud2vic2l0zq%3d%3d", "contact_phone": "2703653055", "contact_email": null, "status": 1, "source_type": 1, "numberReviews": 1}, {"name": "KFC", "type": "restaurant", "image": null, "address": "301 Marion Rd, Princeton, KY 42445-6205", "lat": 37.119373, "lng": -87.8963, "ref_id": 4614418, "rating": 3, "num_reviews": 0, "website": "https://locations.kfc.com/ky/princeton/301-marion-road", "contact_phone": "+1 270-365-9988", "contact_email": null, "status": 1, "source_type": 1, "numberReviews": 4}, {"name": "Little Caesars Pizza", "type": "restaurant", "image": null, "address": "204 Us-62 W, Princeton, KY 42445-2400", "lat": 37.11523, "lng": -87.9001, "ref_id": 26963250, "rating": -1, "num_reviews": 0, "website": "https://littlecaesars.com/en-us/store/11342", "contact_phone": "+1 270-365-3311", "contact_email": null, "status": 1, "source_type": 1, "numberReviews": 0}, {"name": "Food Giant", "type": "restaurant", "image": null, "address": "410 E Legion Dr, Princeton, KY 42445-2282", "lat": 37.10157, "lng": -87.88358, "ref_id": 26994070, "rating": -1, "num_reviews": 0, "website": "http://www.foodgiant.com", "contact_phone": "+1 270-365-2741", "contact_email": null, "status": 1, "source_type": 1, "numberReviews": 0}, {"name": "Dairy Queen Grill & Chill", "type": "restaurant", "image": null, "address": "305 Marion Road, Princeton, KY 42445", "lat": 37.11995, "lng": -87.896, "ref_id": 21201772, "rating": -1, "num_reviews": 0, "website": "https://www.dairyqueen.com/en-us/locations/ky/princeton/305-marion-road/15597/?utm_source=organic&utm_campaign=yext%2f&y_source=1_mty0mdu0njctndgzlwxvy2f0aw9ulndlynnpdgu%3d", "contact_phone": "+1 270-963-1629", "contact_email": null, "status": 1, "source_type": 1, "numberReviews": 0}, {"name": "The Java Table", "type": "restaurant", "image": null, "address": "112 E Court Sq, Princeton, KY 42445-1543", "lat": 37.108917, "lng": -87.881485, "ref_id": 26986775, "rating": -1, "num_reviews": 0, "website": "https://www.facebook.com/103818404724482", "contact_phone": "+1 270-963-5662", "contact_email": null, "status": 1, "source_type": 1, "numberReviews": 0}, {"name": "Casey's", "type": "restaurant", "image": null, "address": "100 Marion Rd, Princeton, KY 42445", "lat": 37.117577, "lng": -87.89648, "ref_id": 21262700, "rating": -1, "num_reviews": 0, "website": "https://www.caseys.com/general-store/ky-princeton/100-marion-rd/3330", "contact_phone": "+1 270-365-5005", "contact_email": null, "status": 1, "source_type": 1, "numberReviews": 0}, {"name": "Taco John's", "type": "restaurant", "image": null, "address": "530 US Highway 62 W, Princeton, KY 42445-2410", "lat": 37.110806, "lng": -87.90412, "ref_id": 15845077, "rating": -1, "num_reviews": 0, "website": "https://locations.tacojohns.com/ky/princeton/530-us-hwy-62-west.html", "contact_phone": "+1 270-365-7112", "contact_email": "tacojohnsprincetonky@gmail.com", "status": 1, "source_type": 1, "numberReviews": 0}, {"name": "Morning 2 Night Delights & Whistle Stop Donuts", "type": "restaurant", "image": null, "address": "1031 W Main St, Princeton, KY 42445-1253", "lat": 37.116585, "lng": -87.89657, "ref_id": 26967521, "rating": -1, "num_reviews": 0, "website": "", "contact_phone": "+1 270-350-2774", "contact_email": null, "status": 1, "source_type": 1, "numberReviews": 0}, {"name": "Princeton Nutrition", "type": "restaurant", "image": null, "address": "394 US Highway 62 W, Princeton, KY 42445-2405", "lat": 37.11288, "lng": -87.90208, "ref_id": 26919969, "rating": -1, "num_reviews": 0, "website": "", "contact_phone": "+1 270-619-1090", "contact_email": null, "status": 1, "source_type": 1, "numberReviews": 0}, {"name": "Tom & Barb's One Stop Market", "type": "restaurant", "image": null, "address": "4179 State Route 93 S, Eddyville, KY 42038-7346", "lat": 37.04822, "lng": -88.0324, "ref_id": 26955809, "rating": -1, "num_reviews": 0, "website": "https://www.facebook.com/1626465464297025", "contact_phone": "+1 270-388-7745", "contact_email": null, "status": 1, "source_type": 1, "numberReviews": 0}, {"name": "Ruler Foods - Princeton, KY", "type": "restaurant", "image": null, "address": "500 US Highway 62 W, Princeton, KY 42445-2410", "lat": 37.1128, "lng": -87.90392, "ref_id": 26921396, "rating": -1, "num_reviews": 0, "website": "https://www.rulerfoods.com/?cid=loc_09000322_fb", "contact_phone": "+1 270-365-3753", "contact_email": null, "status": 1, "source_type": 1, "numberReviews": 0}, {"name": "Pizza Hut", "type": "restaurant", "image": null, "address": "206 Marion Rd, Princeton, KY 42445-6277", "lat": 37.119118, "lng": -87.89558, "ref_id": 26975220, "rating": -1, "num_reviews": 0, "website": "https://locations.pizzahut.com/ky/princeton/206-marion-rd?utm_medium=organic&utm_source=local&utm_campaign=yextpowerlistings&utm_content=website&utm_term=313055", "contact_phone": "+1 270-365-7382", "contact_email": null, "status": 1, "source_type": 1, "numberReviews": 0}, {"name": "Waffle House", "type": "restaurant", "image": "https://dynamic-media-cdn.tripadvisor.com/media/photo-o/1c/e0/59/66/waffle-house.jpg?w=1000&s=1", "address": "12679 US Route 60, Ashland, KY 41102-9676", "lat": 38.38879, "lng": -82.71625, "ref_id": 5104524, "rating": 4, "num_reviews": 0, "website": "https://locations.wafflehouse.com/shop/178344/waffle-house-1808", "contact_phone": "+1 606-929-9478", "contact_email": null, "status": 1, "source_type": 1, "numberReviews": 17}, {"name": "Mammaws Kitchen & Bar", "type": "restaurant", "image": null, "address": "765A Richpond Rockfield Rd rockn B Farm Venue, Rockfield, KY 42274-9520", "lat": 36.906357, "lng": -86.564735, "ref_id": 25308114, "rating": -1, "num_reviews": 0, "website": "https://mammawskitchenbar.com", "contact_phone": "+1 270-780-6297", "contact_email": "mammawskitchenbar@gmail.com", "status": 1, "source_type": 1, "numberReviews": 0}, {"name": "Dutch Bros Coffee", "type": "restaurant", "image": null, "address": "404 U.S. 31 W Bypass, Bowling Green, KY 42101", "lat": 36.995052, "lng": -86.42581, "ref_id": 27464925, "rating": -1, "num_reviews": 0, "website": "https://locations.dutchbros.com/dutch-bros-coffee-b50c97a2a636?y_source=1_MTAzNDIzMTY5OC03NjktbG9jYXRpb24ud2Vic2l0ZQ%3D%3D", "contact_phone": "+1 541-955-4700", "contact_email": "Feedback@dutchbros.com", "status": 1, "source_type": 1, "numberReviews": 0}, {"name": "Vince's Other Place", "type": "restaurant", "image": null, "address": "7701 Hamilton Ave, Cincinnati, OH 45231-3103", "lat": 39.233627, "lng": -84.5483, "ref_id": 26937092, "rating": -1, "num_reviews": 0, "website": "https://www.vincesotherplace.com/", "contact_phone": "+15137294525", "contact_email": null, "status": 1, "source_type": 1, "numberReviews": 0}, {"name": "Derby City Pizza", "type": "restaurant", "image": null, "address": "412 West Daisy Lane, New Albany, IN 47150", "lat": 38.30962, "lng": -85.84359, "ref_id": 26836682, "rating": -1, "num_reviews": 0, "website": "derbycitypizza.com", "contact_phone": "+1 812-590-6880", "contact_email": null, "status": 1, "source_type": 1, "numberReviews": 0}, {"name": "Hootie's Bait and Tackle", "type": "restaurant", "image": null, "address": "3101 Richmond Road, Lexington, KY 40509", "lat": 38.00235, "lng": -84.44501, "ref_id": 25519994, "rating": -1, "num_reviews": 0, "website": null, "contact_phone": null, "contact_email": null, "status": 1, "source_type": 1, "numberReviews": 0}, {"name": "The Press Juice & Health Bar", "type": "restaurant", "image": null, "address": "191 Kentucky Ave, Lexington, KY 40502-1754", "lat": 38.03622, "lng": -84.4921, "ref_id": 21123748, "rating": -1, "num_reviews": 0, "website": "https://thepressjuicebar.com/", "contact_phone": "+1 859-317-8915", "contact_email": "hello@thepressjuicebar.com", "status": 1, "source_type": 1, "numberReviews": 0}, {"name": "Krispy Krunchy Chicken", "type": "restaurant", "image": null, "address": "1875 Augusta Dr, Lexington, KY 40505-2471", "lat": 38.0559, "lng": -84.4395, "ref_id": 19670484, "rating": -1, "num_reviews": 0, "website": null, "contact_phone": null, "contact_email": null, "status": 1, "source_type": 1, "numberReviews": 0}, {"name": "El Antojito", "type": "restaurant", "image": null, "address": "565 East New Circle Road, Lexington, KY 40505", "lat": 38.052887, "lng": -84.457306, "ref_id": 25512211, "rating": -1, "num_reviews": 0, "website": null, "contact_phone": null, "contact_email": null, "status": 1, "source_type": 1, "numberReviews": 0}, {"name": "Hootie's Chicken Tenders", "type": "restaurant", "image": null, "address": "3101 Richmond Road, Lexington, KY 40509", "lat": 38.00325, "lng": -84.44495, "ref_id": 25520377, "rating": -1, "num_reviews": 0, "website": null, "contact_phone": null, "contact_email": null, "status": 1, "source_type": 1, "numberReviews": 0}, {"name": "Nathan's Famous", "type": "restaurant", "image": null, "address": "1849 Alysheba Way, Lexington, KY 40509", "lat": 38.019436, "lng": -84.419785, "ref_id": 25491064, "rating": -1, "num_reviews": 0, "website": null, "contact_phone": null, "contact_email": null, "status": 1, "source_type": 1, "numberReviews": 0}, {"name": "The Green Lantern Bar", "type": "restaurant", "image": null, "address": "497 W 3rd St, Lexington, KY 40508-1752", "lat": 38.055042, "lng": -84.49834, "ref_id": 26909524, "rating": -1, "num_reviews": 0, "website": "http://www.reverbnation.com/venue/thegreenlantern", "contact_phone": "+1 859-252-9539", "contact_email": null, "status": 1, "source_type": 1, "numberReviews": 0}, {"name": "Pasqually's Pizza & Wings", "type": "restaurant", "image": null, "address": "1555 East New Circle Road, Lexington, KY 40509", "lat": 38.01974, "lng": -84.45397, "ref_id": 25493961, "rating": -1, "num_reviews": 0, "website": null, "contact_phone": null, "contact_email": null, "status": 1, "source_type": 1, "numberReviews": 0}, {"name": "Senor Chimi", "type": "restaurant", "image": null, "address": "400 W Main St Triangle Park, By Rupp Arena, Lexington, KY 40507-1603", "lat": 38.048424, "lng": -84.49998, "ref_id": 24939490, "rating": -1, "num_reviews": 0, "website": "https://senorchimi.com", "contact_phone": "+1 859-309-9267", "contact_email": "senorchimi2022@gmail.com", "status": 1, "source_type": 1, "numberReviews": 0}, {"name": "Bayleaf Diaspora Kitchen", "type": "restaurant", "image": null, "address": "962 Delaware Ave, Lexington, KY 40505-3910", "lat": 38.03893, "lng": -84.47131, "ref_id": 26930151, "rating": -1, "num_reviews": 0, "website": "https://bayleafmeals.com/", "contact_phone": "+1 859-576-2707", "contact_email": null, "status": 1, "source_type": 1, "numberReviews": 0}, {"name": "Meijer Grocery", "type": "restaurant", "image": null, "address": "351 West Reynolds Road, Lexington, KY 40503", "lat": 37.995644, "lng": -84.53114, "ref_id": 25488713, "rating": -1, "num_reviews": 0, "website": null, "contact_phone": null, "contact_email": null, "status": 1, "source_type": 1, "numberReviews": 0}, {"name": "Bluegrass Super Greens", "type": "restaurant", "image": null, "address": "402 Rosemont Gdn, Lexington, KY 40503-1839", "lat": 38.02142, "lng": -84.5273, "ref_id": 26880197, "rating": -1, "num_reviews": 0, "website": "", "contact_phone": "+1 859-594-8696", "contact_email": null, "status": 1, "source_type": 1, "numberReviews": 0}, {"name": "Jimmy John's Sandwiches", "type": "restaurant", "image": null, "address": "105 North Mill Street, Lexington, KY 40507", "lat": 38.04833, "lng": -84.49881, "ref_id": 25523626, "rating": -1, "num_reviews": 0, "website": null, "contact_phone": null, "contact_email": null, "status": 1, "source_type": 1, "numberReviews": 0}, {"name": "Tylor's ASIAN Market", "type": "restaurant", "image": null, "address": "1555 E New Circle Rd, Lexington, KY 40509-1021", "lat": 38.01872, "lng": -84.45506, "ref_id": 26909955, "rating": -1, "num_reviews": 0, "website": "https://tylors-asian-market.hub.biz/", "contact_phone": "+1 859-266-6688", "contact_email": null, "status": 1, "source_type": 1, "numberReviews": 0}, {"name": "Centro", "type": "restaurant", "image": null, "address": "113 Cheapside, Lexington, KY 40507-1303", "lat": 38.048023, "lng": -84.49852, "ref_id": 26882552, "rating": -1, "num_reviews": 0, "website": "http://centro-lexington.com", "contact_phone": "+1 859-710-7721", "contact_email": null, "status": 1, "source_type": 1, "numberReviews": 0}, {"name": "Tsaocha", "type": "restaurant", "image": null, "address": "1080 South Broadway, Lexington, KY 40504", "lat": 38.036945, "lng": -84.51718, "ref_id": 25477629, "rating": -1, "num_reviews": 0, "website": null, "contact_phone": null, "contact_email": null, "status": 1, "source_type": 1, "numberReviews": 0}, {"name": "Inebriated Baker", "type": "restaurant", "image": null, "address": "3401 Nicholasville Rd, Lexington, KY 40503-3605", "lat": 37.989616, "lng": -84.52778, "ref_id": 26953708, "rating": -1, "num_reviews": 0, "website": "https://www.inebriatedbaker.com", "contact_phone": "+1 859-823-5874", "contact_email": null, "status": 1, "source_type": 1, "numberReviews": 0}, {"name": "Dippin' Dots", "type": "restaurant", "image": null, "address": "3401 Nicholasville Rd, Lexington, KY 40503-3605", "lat": 37.987198, "lng": -84.52865, "ref_id": 26994812, "rating": -1, "num_reviews": 0, "website": "https://www.dippindots.com/loc/ll/us/ky/lexington/3401-nicholasville-rd_", "contact_phone": "+1 859-271-5777", "contact_email": null, "status": 1, "source_type": 1, "numberReviews": 0}, {"name": "El Rey de los Pollos y Mariscos", "type": "restaurant", "image": null, "address": "1485 Alexandria Dr, Lexington, KY 40504-1610", "lat": 38.04758, "lng": -84.55245, "ref_id": 26915515, "rating": -1, "num_reviews": 0, "website": "http://www.thealliance.com", "contact_phone": "+1 859-373-0920", "contact_email": null, "status": 1, "source_type": 1, "numberReviews": 0}, {"name": "Speedway", "type": "restaurant", "image": null, "address": "2997 Liberty Road, Lexington, KY 40509", "lat": 38.00997, "lng": -84.422386, "ref_id": 25503109, "rating": -1, "num_reviews": 0, "website": null, "contact_phone": null, "contact_email": null, "status": 1, "source_type": 1, "numberReviews": 0}, {"name": "The Chicken Fairy", "type": "restaurant", "image": null, "address": "141 East Main Street, Lexington, KY 40507", "lat": 38.045856, "lng": -84.49595, "ref_id": 25473301, "rating": -1, "num_reviews": 0, "website": null, "contact_phone": null, "contact_email": null, "status": 1, "source_type": 1, "numberReviews": 0}, {"name": "Heine Brothers' Coffee -State Street", "type": "restaurant", "image": null, "address": "414 W Daisy Ln, New Albany, IN 47150-4568", "lat": 38.309612, "lng": -85.84291, "ref_id": 19899282, "rating": 5, "num_reviews": 0, "website": "http://heinebroscoffee.com", "contact_phone": "+1 812-590-1732", "contact_email": null, "status": 1, "source_type": 1, "numberReviews": 2}, {"name": "The Honey Baked Ham Company", "type": "restaurant", "image": "https://dynamic-media-cdn.tripadvisor.com/media/photo-o/18/7e/0c/99/honey-baked-ham.jpg?w=1000&s=1", "address": "3602 Northgate Ct. Ste 23, New Albany, IN 47150", "lat": 38.333126, "lng": -85.81641, "ref_id": 4516637, "rating": 5, "num_reviews": 0, "website": "https://www.honeybaked.com/stores/2220", "contact_phone": "+1 812-941-9426", "contact_email": null, "status": 1, "source_type": 1, "numberReviews": 4}, {"name": "Paddy Wagon Irish Pub", "type": "restaurant", "image": "https://dynamic-media-cdn.tripadvisor.com/media/photo-o/0c/44/c9/d9/20160727-191518-largejpg.jpg?w=1000&s=1", "address": "150 E Main St, Richmond, KY 40475-1647", "lat": 37.746773, "lng": -84.29324, "ref_id": 4988047, "rating": 3.5, "num_reviews": 0, "website": "https://www.richmondpaddywagon.com/", "contact_phone": "+1 859-625-1054", "contact_email": "Paddywagonbooking@gmail.com", "status": 1, "source_type": 1, "numberReviews": 23}, {"name": "El Mejor", "type": "restaurant", "image": "https://dynamic-media-cdn.tripadvisor.com/media/photo-o/17/73/ce/a2/el-mejor.jpg?w=1000&s=1", "address": "830 Eastern Byp RIchmond Mall, Richmond, KY 40475-2512", "lat": 37.72979, "lng": -84.27947, "ref_id": 9606436, "rating": 3.5, "num_reviews": 0, "website": "http://www.elmejorky.com/", "contact_phone": "+1 859-575-1669", "contact_email": null, "status": 1, "source_type": 1, "numberReviews": 21}, {"name": "White Castle", "type": "restaurant", "image": "https://dynamic-media-cdn.tripadvisor.com/media/photo-o/10/36/b9/4c/tiny-cheesburger.jpg?w=1000&s=1", "address": "808 Eastern Byp, Richmond, KY 40475-2512", "lat": 37.73058, "lng": -84.28494, "ref_id": 4646496, "rating": 4, "num_reviews": 0, "website": "http://www.whitecastle.com/", "contact_phone": "+1 859-623-5655", "contact_email": null, "status": 1, "source_type": 1, "numberReviews": 12}, {"name": "Little Caesars", "type": "restaurant", "image": null, "address": "535 Leighway Dr, Richmond, KY 40475-2311", "lat": 37.73694, "lng": -84.31616, "ref_id": 4652076, "rating": 4, "num_reviews": 0, "website": "https://littlecaesars.com/en-us/store/3987", "contact_phone": "+1 859-623-0771", "contact_email": null, "status": 1, "source_type": 1, "numberReviews": 15}, {"name": "Better Burgers & More", "type": "restaurant", "image": "https://dynamic-media-cdn.tripadvisor.com/media/photo-o/1b/66/44/e9/coca-cola-cake-vanilla.jpg?w=1000&s=1", "address": "952 Red House Rd, Richmond, KY 40475-9392", "lat": 37.7629, "lng": -84.28821, "ref_id": 4708584, "rating": 4.5, "num_reviews": 0, "website": "http://www.betterburgersmore.com/", "contact_phone": "+1 859-575-4233", "contact_email": "betterburgersmore@gmail.com", "status": 1, "source_type": 1, "numberReviews": 5}, {"name": "Wink's Bar", "type": "restaurant", "image": "https://dynamic-media-cdn.tripadvisor.com/media/photo-o/10/36/5d/46/wink-s-bar.jpg?w=1000&s=1", "address": "115 E Water St, Richmond, KY 40475-1603", "lat": 37.74623, "lng": -84.29381, "ref_id": 12730001, "rating": 4.5, "num_reviews": 0, "website": "https://www.facebook.com/winksbarky/", "contact_phone": "+1 859-582-1540", "contact_email": null, "status": 1, "source_type": 1, "numberReviews": 5}, {"name": "Domino's Pizza", "type": "restaurant", "image": null, "address": "S Porter Dr & Eastern Ave, Richmond, KY 40475", "lat": 37.73591, "lng": -84.31549, "ref_id": 5122549, "rating": 4, "num_reviews": 0, "website": "https://www.dominos.com/en/?redirect=homepage&utm_source=locallistings&utm_medium=loclist&utm_campaign=localmaps", "contact_phone": "+1 859-623-0030", "contact_email": null, "status": 1, "source_type": 1, "numberReviews": 12},