[{"name": "Osaka Hokko Marina Hull", "type": "hotel", "image": "https://dynamic-media-cdn.tripadvisor.com/media/photo-o/13/8f/45/7b/photo0jpg.jpg?w=1000&s=1", "address": "2-13-18 Tsuneyoshi, Konohana-ku, Osaka 554-0052 Qu\u00e2\u0323n Osaka", "lat": 34.673466, "lng": 135.40977, "ref_id": 9464109, "rating": 4, "num_reviews": 0, "website": "https://hull.jp/hotel/", "contact_phone": "+81 6-4400-5138", "contact_email": null, "status": 1, "source_type": 1, "numberReviews": 6}, {"name": "Minshuku Kataoka", "type": "hotel", "image": "https://dynamic-media-cdn.tripadvisor.com/media/photo-o/10/93/11/3a/caption.jpg?w=1000&s=1", "address": "146 Ejiri, Miyazu 629-2244 Qu\u00e2\u0323n Kyoto", "lat": 35.580948, "lng": 135.19827, "ref_id": 1597148, "rating": 4.5, "num_reviews": 0, "website": "http://yado-kataoka.com/", "contact_phone": "+81 772-27-0164", "contact_email": "", "status": 1, "source_type": 1, "numberReviews": 4}, {"name": "Minshuku Shimadaso", "type": "hotel", "image": "https://dynamic-media-cdn.tripadvisor.com/media/photo-o/28/1a/5a/b7/caption.jpg?w=1000&s=1", "address": "Kotobikihama, Kakezu, Aminocho, Kyotango 629-3112 Qu\u00e2\u0323n Kyoto", "lat": 35.70081, "lng": 135.05292, "ref_id": 1113632, "rating": 4.5, "num_reviews": 0, "website": "http://www.shimadaso.com/", "contact_phone": "+81 772-72-4110", "contact_email": "", "status": 1, "source_type": 1, "numberReviews": 3}, {"name": "Five Court Umeda", "type": "hotel", "image": null, "address": "3-18 Toganocho, Kita-Ku, Osaka 530-0056 Qu\u00e2\u0323n Osaka", "lat": 34.701138, "lng": 135.50539, "ref_id": 12319609, "rating": 3.5, "num_reviews": 0, "website": null, "contact_phone": null, "contact_email": null, "status": 1, "source_type": 1, "numberReviews": 10}, {"name": "Minshuku Sakaguchiso", "type": "hotel", "image": "https://dynamic-media-cdn.tripadvisor.com/media/photo-s/02/bf/79/c6/caption.jpg?w=1000&s=1", "address": "1186 Anaga, Minamiawaji 656-0661 Qu\u00e2\u0323n Hyogo", "lat": 34.276737, "lng": 134.66275, "ref_id": 1114871, "rating": 4.5, "num_reviews": 0, "website": "http://www.webty.net/skg/", "contact_phone": "+81 799-39-0523", "contact_email": "saka-sou@sansan-net.jp", "status": 1, "source_type": 1, "numberReviews": 6}, {"name": "Misengoya", "type": "hotel", "image": "https://dynamic-media-cdn.tripadvisor.com/media/photo-o/13/bb/48/a1/caption.jpg?w=1000&s=1", "address": "160-2 Tsubonouchi, Tenkawa-mura, Yoshino-gun 638-0321 Nara Prefecture", "lat": 34.22264, "lng": 135.84201, "ref_id": 1857457, "rating": 4.5, "num_reviews": 0, "website": "", "contact_phone": "+81 747-63-0236", "contact_email": "", "status": 1, "source_type": 1, "numberReviews": 3}, {"name": "Locanda Shin Osaka", "type": "hotel", "image": "https://dynamic-media-cdn.tripadvisor.com/media/photo-o/17/01/f4/64/caption.jpg?w=1000&s=1", "address": "4-11-14 Nishinakajima, Yodogawa-Ku, Osaka 532-0011 Qu\u00e2\u0323n Osaka", "lat": 34.72663, "lng": 135.49454, "ref_id": 14021351, "rating": 5, "num_reviews": 0, "website": "http://locanda-japan.com/shinosaka/index.html", "contact_phone": "+81 6-6195-6208", "contact_email": null, "status": 1, "source_type": 1, "numberReviews": 2}, {"name": "Aji to asobu yuan", "type": "hotel", "image": "https://dynamic-media-cdn.tripadvisor.com/media/photo-s/02/be/c2/16/caption.jpg?w=1000&s=1", "address": "939-1 Kasumikuokinora, Kami-cho, Mikata-gun 669-6433 Qu\u00e2\u0323n Hyogo", "lat": 35.656364, "lng": 134.65784, "ref_id": 1925304, "rating": 4.5, "num_reviews": 0, "website": "http://www.you-an.com/", "contact_phone": "+81 796-37-0229", "contact_email": "", "status": 1, "source_type": 1, "numberReviews": 5}, {"name": "Kinosaki Onsen Hanakoji Saigetsu", "type": "hotel", "image": "https://dynamic-media-cdn.tripadvisor.com/media/photo-o/1c/6c/61/b4/snow-crab-dinner.jpg?w=1000&s=1", "address": "108 Kinosakicho Yushima, Toyooka 669-6101 Qu\u00e2\u0323n Hyogo", "lat": 35.62496, "lng": 134.81288, "ref_id": 13397800, "rating": 4.5, "num_reviews": 0, "website": null, "contact_phone": "+81 796-32-0567", "contact_email": null, "status": 1, "source_type": 1, "numberReviews": 4}, {"name": "Wellstay Namba", "type": "hotel", "image": "https://dynamic-media-cdn.tripadvisor.com/media/photo-o/1c/74/1d/15/photo0jpg.jpg?w=1000&s=1", "address": "2-8-10 Motomachi, Naniwa-ku, Osaka 556-0016 Qu\u00e2\u0323n Osaka", "lat": 34.661182, "lng": 135.49756, "ref_id": 20329634, "rating": 4.5, "num_reviews": 0, "website": "https://well-stay.com/namba/", "contact_phone": "+81 6-6695-7071", "contact_email": null, "status": 1, "source_type": 1, "numberReviews": 3}, {"name": "Nanki Shirahama Panda Village", "type": "hotel", "image": "https://dynamic-media-cdn.tripadvisor.com/media/photo-o/14/be/0d/38/buffet-dinner.jpg?w=1000&s=1", "address": "2498-1 Katada, Shirahama-cho, Nishimuro-gun 649-2201 Wakayama Prefecture", "lat": 33.6807, "lng": 135.3777, "ref_id": 13387731, "rating": 4, "num_reviews": 0, "website": "http://www.panda-village.com/", "contact_phone": "+81 739-42-2200", "contact_email": null, "status": 1, "source_type": 1, "numberReviews": 9}, {"name": "Stella Higashiyama", "type": "hotel", "image": "https://dynamic-media-cdn.tripadvisor.com/media/photo-o/0d/aa/dc/1f/photo2jpg.jpg?w=1000&s=1", "address": "580 Anmachi, Jihoin, Higashiyama-Ku, Kyoto 605-0871 Qu\u00e2\u0323n Kyoto", "lat": 34.993366, "lng": 135.77518, "ref_id": 6561145, "rating": 4, "num_reviews": 0, "website": null, "contact_phone": "+81 80-3033-7031", "contact_email": null, "status": 1, "source_type": 1, "numberReviews": 12}, {"name": "Floral Sakura Hotel Kyoto", "type": "hotel", "image": "https://dynamic-media-cdn.tripadvisor.com/media/photo-o/14/93/1f/54/kyoto-sakura-hana-hotel.jpg?w=1000&s=1", "address": "100-5 Higashikujo Matsudacho, Minami-ku, Kyoto 601-8036 Qu\u00e2\u0323n Kyoto", "lat": 34.974842, "lng": 135.75378, "ref_id": 13817464, "rating": 5, "num_reviews": 0, "website": "http://sakurahananoyado.business.site/", "contact_phone": "+81 75-682-0105", "contact_email": null, "status": 1, "source_type": 1, "numberReviews": 4}, {"name": "Prince Smart Inn Kyoto Shijo Omiya", "type": "hotel", "image": "https://dynamic-media-cdn.tripadvisor.com/media/photo-o/23/5c/db/7c/9.jpg?w=1000&s=1", "address": "521 4-jo Dori Horikawa Nishiiru Karatsuyacho, Shimogyo-ku, Kyoto 600-8499 Qu\u00e2\u0323n Kyoto", "lat": 35.00346, "lng": 135.75095, "ref_id": 23945467, "rating": 4, "num_reviews": 0, "website": "https://www.princehotels.co.jp/psi/shijo-omiya/", "contact_phone": "+81 50-3154-7992", "contact_email": null, "status": 1, "source_type": 1, "numberReviews": 4}, {"name": "M's Inn Omiya Kuromon", "type": "hotel", "image": "https://dynamic-media-cdn.tripadvisor.com/media/photo-o/1b/0b/a1/13/caption.jpg?w=1000&s=1", "address": "327 Shimoichimonjicho, Nakagyo-Ku, Kyoto 604-8335 Qu\u00e2\u0323n Kyoto", "lat": 35.00781, "lng": 135.74973, "ref_id": 16695772, "rating": 3.5, "num_reviews": 0, "website": "", "contact_phone": "+81 75-746-7663", "contact_email": null, "status": 1, "source_type": 1, "numberReviews": 11}, {"name": "Kyoto Guesthouse Lantern Gion", "type": "hotel", "image": "https://dynamic-media-cdn.tripadvisor.com/media/photo-o/07/b0/38/2a/caption.jpg?w=1000&s=1", "address": "44-49 Bishamoncho, Higashiyama-ku, Kyoto 605-0812 Qu\u00e2\u0323n Kyoto", "lat": 35.000164, "lng": 135.77649, "ref_id": 7907307, "rating": 3.5, "num_reviews": 0, "website": null, "contact_phone": "+81 75-533-8887", "contact_email": "mail@lantern-gion.com", "status": 1, "source_type": 1, "numberReviews": 36}, {"name": "Kobe Student Youth Center", "type": "hotel", "image": "https://dynamic-media-cdn.tripadvisor.com/media/photo-o/14/59/b0/25/kobe-student-youth-center.jpg?w=1000&s=1", "address": "3-1-1 Yamadacho, Nada-Ku, Kobe 657-0064 Qu\u00e2\u0323n Hyogo", "lat": 34.721294, "lng": 135.23326, "ref_id": 2258774, "rating": 4, "num_reviews": 0, "website": "http://ksyc.jp", "contact_phone": "+81 78-851-2760", "contact_email": "", "status": 1, "source_type": 1, "numberReviews": 8}, {"name": "M's Hotel Sanjo Wakoku", "type": "hotel", "image": "https://dynamic-media-cdn.tripadvisor.com/media/photo-o/1d/c7/f9/ee/exterior.jpg?w=1000&s=1", "address": "396 Wakokucho Sakyoku, Kyoto 606-8363 Qu\u00e2\u0323n Kyoto", "lat": 35.010643, "lng": 135.77585, "ref_id": 19941708, "rating": 4, "num_reviews": 0, "website": "https://kyohotel.jp/hotel/hotelmsest-sanjowakoku/", "contact_phone": "+81 75-320-4141", "contact_email": null, "status": 1, "source_type": 1, "numberReviews": 5}, {"name": "Petit Hotel YAMA", "type": "hotel", "image": "https://dynamic-media-cdn.tripadvisor.com/media/photo-o/07/40/99/49/caption.jpg?w=1000&s=1", "address": "1635-2 Anaga, Minamiawaji 656-0661 Qu\u00e2\u0323n Hyogo", "lat": 34.281662, "lng": 134.6639, "ref_id": 1876809, "rating": 4, "num_reviews": 0, "website": "http://hotel-albion.net/", "contact_phone": "+81 799-39-0228", "contact_email": "", "status": 1, "source_type": 1, "numberReviews": 6}, {"name": "Hotel Meriken Port Kobe Motomachi", "type": "hotel", "image": "https://dynamic-media-cdn.tripadvisor.com/media/photo-o/22/08/58/90/6.jpg?w=1000&s=1", "address": "3-1-3 Sakaemachidori, Chuo-ku, Kobe 650-0023 Qu\u00e2\u0323n Hyogo", "lat": 34.68643, "lng": 135.18668, "ref_id": 23510866, "rating": 4.5, "num_reviews": 0, "website": "https://www.greens.co.jp/hmpkobe/", "contact_phone": "+81 78-599-9331", "contact_email": null, "status": 1, "source_type": 1, "numberReviews": 3}, {"name": "Minshuku Muro", "type": "hotel", "image": "https://dynamic-media-cdn.tripadvisor.com/media/photo-o/0d/9f/0e/90/dsc-0958-largejpg.jpg?w=1000&s=1", "address": "405-1 Muro, Uda 633-0421 Nara Prefecture", "lat": 34.536667, "lng": 136.03505, "ref_id": 8668508, "rating": 4.5, "num_reviews": 0, "website": "http://www.e-murou.com/", "contact_phone": "+81 745-93-2118", "contact_email": null, "status": 1, "source_type": 1, "numberReviews": 6}, {"name": "Hotel CoCoDe Plus", "type": "hotel", "image": "https://dynamic-media-cdn.tripadvisor.com/media/photo-o/11/6c/b4/69/caption.jpg?w=1000&s=1", "address": "5-5-13 Uehommachi, Tennoji-Ku, Osaka 543-0001 Qu\u00e2\u0323n Osaka", "lat": 34.667538, "lng": 135.52045, "ref_id": 12541225, "rating": 4.5, "num_reviews": 0, "website": "http://www.cocodeplus.com/", "contact_phone": "+81 6-4304-1180", "contact_email": "cocodeplus@gmail.com", "status": 1, "source_type": 1, "numberReviews": 6}, {"name": "Kayabuki no Oyado Matabe", "type": "hotel", "image": "https://dynamic-media-cdn.tripadvisor.com/media/photo-o/07/ee/94/1c/matabe.jpg?w=1000&s=1", "address": "25 Shimomaki, Miyamachokita, Nantan 601-0712 Qu\u00e2\u0323n Kyoto", "lat": 35.313335, "lng": 135.62204, "ref_id": 7812334, "rating": 4.5, "num_reviews": 0, "website": "http://www.kayabukinosato.com/index.html", "contact_phone": "+81 771-77-0258", "contact_email": null, "status": 1, "source_type": 1, "numberReviews": 6}, {"name": "Hotel Mimatsu", "type": "hotel", "image": "https://dynamic-media-cdn.tripadvisor.com/media/partner/bookingcom/photo-o/1a/a4/7a/87/367732.jpg?w=1000&s=1", "address": "10 Ogawacho, Nara 630-8233 Nara Prefecture", "lat": 34.679947, "lng": 135.82622, "ref_id": 1066603, "rating": 4.5, "num_reviews": 0, "website": "http://www.mimatu.net/", "contact_phone": "+81 742-24-3636", "contact_email": "", "status": 1, "source_type": 1, "numberReviews": 7}, {"name": "Farm Stay Banja", "type": "hotel", "image": "https://dynamic-media-cdn.tripadvisor.com/media/photo-o/15/03/41/41/this-is-especially-winterful.jpg?w=1000&s=1", "address": "31 Keihokushimokumatacho Suginotani, Ukyo-Ku, Kyoto 601-0272 Qu\u00e2\u0323n Kyoto", "lat": 35.162514, "lng": 135.60541, "ref_id": 11846350, "rating": 5, "num_reviews": 0, "website": "http://banjakyoto.wixsite.com/nativestyle", "contact_phone": "+81 90-8932-8269", "contact_email": "banja.kyoto@gmail.com", "status": 1, "source_type": 1, "numberReviews": 4}, {"name": "Guesthouse Fukuroku", "type": "hotel", "image": "https://dynamic-media-cdn.tripadvisor.com/media/photo-o/12/23/13/3c/p-20180222-210434-largejpg.jpg?w=1000&s=1", "address": "1-8-48 Shimoda, Shingu 647-0042 Wakayama Prefecture", "lat": 33.718464, "lng": 135.99536, "ref_id": 13136269, "rating": 4.5, "num_reviews": 0, "website": "https://www.facebook.com/fukuroku2016/", "contact_phone": "+81 90-5093-6445", "contact_email": null, "status": 1, "source_type": 1, "numberReviews": 5}, {"name": "Rakuten STAY \u00d7 ShaMaison Osaka Tsukishima Station\u200e", "type": "hotel", "image": "https://dynamic-media-cdn.tripadvisor.com/media/photo-o/26/b7/a9/8a/rakuten-stay-x-shamason.jpg?w=1000&s=1", "address": "Nishiyodogawa-ku Tsukishima 1-12-14, Osaka 555-0031 Qu\u00e2\u0323n Osaka", "lat": 34.70741, "lng": 135.4374, "ref_id": 16499262, "rating": 4.5, "num_reviews": 0, "website": "http://vacation-stay.jp/contents/guest/featured-acomm/rakuten-stay/rakuten-stay-x-shamaison/post-3985/", "contact_phone": "+81 50-3188-6990", "contact_email": null, "status": 1, "source_type": 1, "numberReviews": 4}, {"name": "Terakoya Hana-Tei", "type": "hotel", "image": "https://dynamic-media-cdn.tripadvisor.com/media/photo-o/1b/36/2e/00/dsc-4282-largejpg.jpg?w=1000&s=1", "address": "250-1 Nakamachi Nishigawa Takeda Wadayamacho, Asago 669-5252 Qu\u00e2\u0323n Hyogo", "lat": 35.29854, "lng": 134.83604, "ref_id": 8376106, "rating": 4, "num_reviews": 0, "website": "http://www.oyadohakusan.com/contents/terakoya/hana_tei/hana_tei.html", "contact_phone": "+81 79-674-0558", "contact_email": "takeda-terakoya@ivy.ocn.ne.jp", "status": 1, "source_type": 1, "numberReviews": 9}, {"name": "Hostel Hyaku", "type": "hotel", "image": "https://dynamic-media-cdn.tripadvisor.com/media/photo-o/11/8b/9f/c9/photo0jpg.jpg?w=1000&s=1", "address": "2-1-12 Kozu, Chuo, Osaka 542-0072 Qu\u00e2\u0323n Osaka", "lat": 34.667553, "lng": 135.5109, "ref_id": 12462026, "rating": 5, "num_reviews": 0, "website": "https://www.hostel-hyaku.com/", "contact_phone": null, "contact_email": null, "status": 1, "source_type": 1, "numberReviews": 4}, {"name": "Nipponia Hotel Kushimoto Kumanokaido", "type": "hotel", "image": "https://dynamic-media-cdn.tripadvisor.com/media/photo-o/27/45/b2/c7/caption.jpg?w=1000&s=1", "address": "879-1 Kushimoto, Kushimoto-cho, Higashimuro-gun 649-3503 Wakayama Prefecture", "lat": 33.469727, "lng": 135.77847, "ref_id": 17692897, "rating": 5, "num_reviews": 0, "website": "https://nipponia-kushimoto.jp/", "contact_phone": "+81 735-67-7194", "contact_email": null, "status": 1, "source_type": 1, "numberReviews": 2}, {"name": "Grandouce Hanazonocho \u2161", "type": "hotel", "image": "https://dynamic-media-cdn.tripadvisor.com/media/partner/bookingcom/photo-o/2a/df/14/84/caption.jpg?w=1000&s=1", "address": "2-4-7 Asahi Nishinari-ku, Osaka 557-0032 Qu\u00e2\u0323n Osaka", "lat": 34.643734, "lng": 135.49187, "ref_id": 20261427, "rating": 5, "num_reviews": 0, "website": null, "contact_phone": null, "contact_email": null, "status": 1, "source_type": 1, "numberReviews": 3}, {"name": "Takuto Stay Osaka Uehommachi", "type": "hotel", "image": "https://dynamic-media-cdn.tripadvisor.com/media/photo-o/1b/10/76/52/caption.jpg?w=1000&s=1", "address": "2-3-10 Tohei, Chuo, Osaka 542-0063 Qu\u00e2\u0323n Osaka", "lat": 34.66728, "lng": 135.51854, "ref_id": 17674206, "rating": 4.5, "num_reviews": 0, "website": "https://www.takuto-stay.com/osakauehommachi/", "contact_phone": "+81 6-6223-3774", "contact_email": null, "status": 1, "source_type": 1, "numberReviews": 4}, {"name": "Faldic Inn Main Bldg.", "type": "hotel", "image": "https://dynamic-media-cdn.tripadvisor.com/media/photo-o/16/0c/cd/36/double-room.jpg?w=1000&s=1", "address": "462-32 Shinhakusuimarucho, Kamigyo-Ku, Kyoto 602-8205 Qu\u00e2\u0323n Kyoto", "lat": 35.02529, "lng": 135.74698, "ref_id": 12426175, "rating": 5, "num_reviews": 0, "website": "http://faldic.com", "contact_phone": "+81 75-417-1588", "contact_email": "info@faldic.com", "status": 1, "source_type": 1, "numberReviews": 4}, {"name": "Elitz INN Shijo Karasuma", "type": "hotel", "image": "https://dynamic-media-cdn.tripadvisor.com/media/photo-o/18/3b/fc/60/photo3jpg.jpg?w=1000&s=1", "address": "59 Shijodori Shinmachi Higashiiri Tsukihokocho, Shimogyo-Ku 4 to 10th Floor Elitz Shijo Karasuma Bldg., Kyoto 600-8492 Qu\u00e2\u0323n Kyoto", "lat": 35.00356, "lng": 135.75749, "ref_id": 13796695, "rating": 4.5, "num_reviews": 0, "website": null, "contact_phone": "+81 75-253-5020", "contact_email": null, "status": 1, "source_type": 1, "numberReviews": 5}, {"name": "Hostel Ginkakuji", "type": "hotel", "image": "https://dynamic-media-cdn.tripadvisor.com/media/photo-o/10/bd/0a/05/hostel-ginkakuji.jpg?w=1000&s=1", "address": "58-2 Jodoji Nishidacho, Sakyo-Ku, Kyoto 606-8417 Qu\u00e2\u0323n Kyoto", "lat": 35.02704, "lng": 135.79123, "ref_id": 10368802, "rating": 4, "num_reviews": 0, "website": "http://hostelginkakuji.com", "contact_phone": "+81 50-5534-3873", "contact_email": "hostelginkakuji@gmail.com", "status": 1, "source_type": 1, "numberReviews": 10}, {"name": "Seaside Satake", "type": "hotel", "image": "https://dynamic-media-cdn.tripadvisor.com/media/photo-o/0e/94/74/05/dsc-1173-largejpg.jpg?w=1000&s=1", "address": "1980 Aminocho Asamogawa, Kyotango 629-3104 Qu\u00e2\u0323n Kyoto", "lat": 35.688393, "lng": 135.02415, "ref_id": 1118944, "rating": 4.5, "num_reviews": 0, "website": null, "contact_phone": "+81 772-72-1188", "contact_email": "", "status": 1, "source_type": 1, "numberReviews": 7}, {"name": "Rejoice Stay Kyoto Nijo Gekko", "type": "hotel", "image": "https://dynamic-media-cdn.tripadvisor.com/media/photo-o/13/12/1b/4c/bed-chair.jpg?w=1000&s=1", "address": "33-5 Nishinokyo Higashigekkocho, Nakagyo-Ku, Kyoto 604-8422 Qu\u00e2\u0323n Kyoto", "lat": 35.01021, "lng": 135.73834, "ref_id": 12900070, "rating": 4, "num_reviews": 0, "website": "https://rejoicestay-kng.jp/en/", "contact_phone": "+81 3-6551-2151", "contact_email": "info@nijo-hotel.com", "status": 1, "source_type": 1, "numberReviews": 10}, {"name": "Tabinoyado Tokiwano", "type": "hotel", "image": "https://dynamic-media-cdn.tripadvisor.com/media/photo-o/0e/28/c1/4e/photo0jpg.jpg?w=1000&s=1", "address": "1328 Nashiki hidakacho, Toyooka 669-5379 Qu\u00e2\u0323n Hyogo", "lat": 35.495487, "lng": 134.67896, "ref_id": 2526899, "rating": 4.5, "num_reviews": 0, "website": null, "contact_phone": "+81 796-45-0258", "contact_email": "", "status": 1, "source_type": 1, "numberReviews": 3}, {"name": "Hotel Vine Osaka Kitahama", "type": "hotel", "image": "https://dynamic-media-cdn.tripadvisor.com/media/partner/bookingcom/photo-o/29/35/da/eb/caption.jpg?w=1000&s=1", "address": "1-6-6 Hiranomachi, Chuo, Osaka 541-0046 Qu\u00e2\u0323n Osaka", "lat": 34.687546, "lng": 135.5078, "ref_id": 23523769, "rating": 4.5, "num_reviews": 0, "website": null, "contact_phone": "+81(6)42563690", "contact_email": null, "status": 1, "source_type": 1, "numberReviews": 2}, {"name": "Guest House Shirahama R Cafe", "type": "hotel", "image": "https://dynamic-media-cdn.tripadvisor.com/media/photo-o/0d/f3/5c/ff/photo0jpg.jpg?w=1000&s=1", "address": "1090-15, Shirahama-cho, Nishimuro-gun 649-2211 Wakayama Prefecture", "lat": 33.68823, "lng": 135.34824, "ref_id": 7690460, "rating": 5, "num_reviews": 0, "website": "https://r-cafe.jimdo.com/", "contact_phone": "+81 739-20-4865", "contact_email": "lohaslohas999@gmail.com", "status": 1, "source_type": 1, "numberReviews": 4}, {"name": "Ako Heights", "type": "hotel", "image": "https://dynamic-media-cdn.tripadvisor.com/media/photo-s/02/be/ea/f1/caption.jpg?w=1000&s=1", "address": "2470-64 Osaki, Ako 678-0221 Qu\u00e2\u0323n Hyogo", "lat": 34.74045, "lng": 134.4229, "ref_id": 1050030, "rating": 3.5, "num_reviews": 0, "website": "http://www.ako-haitu.jp/", "contact_phone": "+81 791-48-8935", "contact_email": "info@ako-haitu.jp", "status": 1, "source_type": 1, "numberReviews": 11}, {"name": "gallery hotel KAGUYA", "type": "hotel", "image": "https://dynamic-media-cdn.tripadvisor.com/media/photo-o/1d/0f/2d/86/gallery-hotel-kaguya.jpg?w=1000&s=1", "address": "446 Mikagecho, Shimogyo-ku, Kyoto 600-8447 Qu\u00e2\u0323n Kyoto", "lat": 34.99987, "lng": 135.75674, "ref_id": 23422929, "rating": 4.5, "num_reviews": 0, "website": "http://kaguya-kyoto.com", "contact_phone": "+81 75-585-4279", "contact_email": "stay.kaguya@gmail.com", "status": 1, "source_type": 1, "numberReviews": 2}, {"name": "Iam Hotel", "type": "hotel", "image": "https://dynamic-media-cdn.tripadvisor.com/media/photo-o/26/38/91/58/iam-hotel.jpg?w=1000&s=1", "address": "1-5-13, Sennichimae, Chuo, Osaka 542-0074 Qu\u00e2\u0323n Osaka", "lat": 34.66782, "lng": 135.50433, "ref_id": 20458084, "rating": 4.5, "num_reviews": 0, "website": "http://www.iamhotel.jp", "contact_phone": "+81 6-6227-8128", "contact_email": "iamhotel.namba@gmail.com", "status": 1, "source_type": 1, "numberReviews": 3}, {"name": "CoBo Hostel", "type": "hotel", "image": "https://dynamic-media-cdn.tripadvisor.com/media/photo-o/12/33/ea/5c/photo5jpg.jpg?w=1000&s=1", "address": "30-12 Karahashitakadacho, Minami-ku, Kyoto 601-8464 Qu\u00e2\u0323n Kyoto", "lat": 34.980854, "lng": 135.74171, "ref_id": 12973657, "rating": 5, "num_reviews": 0, "website": "", "contact_phone": "+81 75-203-1196", "contact_email": "aioicobo@gmail.com", "status": 1, "source_type": 1, "numberReviews": 3}, {"name": "Machiya no Yado Gu", "type": "hotel", "image": "https://dynamic-media-cdn.tripadvisor.com/media/photo-o/18/99/dd/06/photo2jpg.jpg?w=1000&s=1", "address": "8 Nishiterabayashicho, Nara 630-8372 Nara Prefecture", "lat": 34.679615, "lng": 135.83, "ref_id": 17603096, "rating": 5, "num_reviews": 0, "website": "https://machiya.online", "contact_phone": "+81 742-31-2333", "contact_email": "nara.gu.yado@gmail.com", "status": 1, "source_type": 1, "numberReviews": 2}, {"name": "Sansuikan", "type": "hotel", "image": null, "address": "909 Tando, Yabu 667-1124 Qu\u00e2\u0323n Hyogo", "lat": 35.386395, "lng": 134.53696, "ref_id": 2539241, "rating": 5, "num_reviews": 0, "website": "http://www.y-sansui.com/", "contact_phone": "+81 79-667-7007", "contact_email": "", "status": 1, "source_type": 1, "numberReviews": 2}, {"name": "Cafe & Pension K-yard", "type": "hotel", "image": "https://dynamic-media-cdn.tripadvisor.com/media/photo-s/02/75/d0/05/filename-p4240010-jpg.jpg?w=1000&s=1", "address": "4 Miyanomotocho, Sagano, Ukyo-ku, Kyoto 616-8315 Qu\u00e2\u0323n Kyoto", "lat": 35.01464, "lng": 135.69392, "ref_id": 1116022, "rating": 5, "num_reviews": 0, "website": null, "contact_phone": "+81 75-861-3010", "contact_email": "", "status": 1, "source_type": 1, "numberReviews": 4}, {"name": "Tomato Guest House", "type": "hotel", "image": "https://dynamic-media-cdn.tripadvisor.com/media/photo-o/19/0a/dd/9d/caption.jpg?w=1000&s=1", "address": "135 Shimizu-Cho, Shimogyo-Ku, Kyoto 600-8241 Qu\u00e2\u0323n Kyoto", "lat": 35.022587, "lng": 135.76035, "ref_id": 1115172, "rating": 3, "num_reviews": 0, "website": "http://pascon.gozaru.jp/", "contact_phone": "+81 75-531-8823", "contact_email": "", "status": 1, "source_type": 1, "numberReviews": 89}, {"name": "Mandokoro", "type": "hotel", "image": "https://dynamic-media-cdn.tripadvisor.com/media/photo-o/1a/b5/50/37/img-20200125-175555-largejpg.jpg?w=1000&s=1", "address": "101 Imoze, Totsukawa-mura, Yoshino-gun 637-1224 Nara Prefecture", "lat": 34.034843, "lng": 135.69473, "ref_id": 8805463, "rating": 4, "num_reviews": 0, "website": "http://totsukawa.info/joho/kobbetu_page/mandokoro.html", "contact_phone": "+81 746-67-0476", "contact_email": null, "status": 1, "source_type": 1, "numberReviews": 7}, {"name": "Peace House Suzunami", "type": "hotel", "image": "https://dynamic-media-cdn.tripadvisor.com/media/photo-o/0f/b6/a1/8b/front.jpg?w=1000&s=1", "address": "3-20 Chausuyamacho, Tennoji-Ku, Osaka 543-0063 Qu\u00e2\u0323n Osaka", "lat": 34.649296, "lng": 135.51219, "ref_id": 11835497, "rating": 4, "num_reviews": 0, "website": "http://www.osaka-guest-house.com/Japanese-index.html", "contact_phone": "+81 90-9866-2643", "contact_email": "peacehousetennoji3@gmail.com", "status": 1, "source_type": 1, "numberReviews": 9}, {"name": "Hoshinokokan", "type": "hotel", "image": "https://dynamic-media-cdn.tripadvisor.com/media/photo-o/0f/e1/1b/42/caption.jpg?w=1000&s=1", "address": "1470-24 Aoyama, Himeji 671-2222 Qu\u00e2\u0323n Hyogo", "lat": 34.85271, "lng": 134.62868, "ref_id": 3570980, "rating": 4, "num_reviews": 0, "website": "https://ssl.himeji-hoshinoko.jp/stay", "contact_phone": "+81 79-267-3050", "contact_email": null, "status": 1, "source_type": 1, "numberReviews": 9}, {"name": "Hotel Replace Namba Osaka", "type": "hotel", "image": "https://dynamic-media-cdn.tripadvisor.com/media/photo-o/18/a4/03/ab/photo1jpg.jpg?w=1000&s=1", "address": "2-11-14 Shimanouchi, Chuo, Osaka 542-0082 Qu\u00e2\u0323n Osaka", "lat": 34.670277, "lng": 135.5075, "ref_id": 16676942, "rating": 4, "num_reviews": 0, "website": "http://www.hotel-replace.com/", "contact_phone": "+81 6-6484-3188", "contact_email": "info@hotel-replace.com", "status": 1, "source_type": 1, "numberReviews": 5}, {"name": "Sanjyojuku", "type": "hotel", "image": "https://dynamic-media-cdn.tripadvisor.com/media/photo-o/03/48/b1/1a/caption.jpg?w=1000&s=1", "address": "453 Taruyacho, Nakagyo-Ku, Kyoto 604-8322 Qu\u00e2\u0323n Kyoto", "lat": 35.009777, "lng": 135.75092, "ref_id": 3701929, "rating": 4, "num_reviews": 0, "website": "http://sanjojuku.kyoto.jp/", "contact_phone": "+81 75-468-9779", "contact_email": "info@sanjojuku.kyoto.jp", "status": 1, "source_type": 1, "numberReviews": 13}, {"name": "Sakaihama Rakuten Onsen Shofuku", "type": "hotel", "image": "https://dynamic-media-cdn.tripadvisor.com/media/photo-o/1b/08/98/50/photo4jpg.jpg?w=1000&s=1", "address": "1-1 Chikkoyawatamachi, Sakai-ku, Sakai 590-0901 Qu\u00e2\u0323n Osaka", "lat": 34.597218, "lng": 135.44685, "ref_id": 12785098, "rating": 4.5, "num_reviews": 0, "website": null, "contact_phone": null, "contact_email": null, "status": 1, "source_type": 1, "numberReviews": 4}, {"name": "Rakan no Sato", "type": "hotel", "image": "https://dynamic-media-cdn.tripadvisor.com/media/photo-o/1a/a4/7f/25/caption.jpg?w=1000&s=1", "address": "28 Yanocho Uryu, Aioi 678-0091 Qu\u00e2\u0323n Hyogo", "lat": 34.880516, "lng": 134.44487, "ref_id": 8776994, "rating": 4.5, "num_reviews": 0, "website": "http://rakansan.com/index.html", "contact_phone": "+81 791-29-0900", "contact_email": null, "status": 1, "source_type": 1, "numberReviews": 4}, {"name": "Comfort Inn Yokaichi", "type": "hotel", "image": "https://dynamic-media-cdn.tripadvisor.com/media/photo-o/2a/93/5b/5f/hotel-exterior.jpg?w=1000&s=1", "address": "495-1 Nakojicho Aioi, Higashiomi 527-0045 Shiga Prefecture", "lat": 35.09576, "lng": 136.23022, "ref_id": 1093146, "rating": 3.5, "num_reviews": 0, "website": "https://www.choice-hotels.jp/yokaichi/", "contact_phone": "+81 748-24-1220", "contact_email": "info@choice-hotels.jp", "status": 1, "source_type": 1, "numberReviews": 14}, {"name": "Hotel Bell Kyoto", "type": "hotel", "image": "https://dynamic-media-cdn.tripadvisor.com/media/photo-o/2b/27/2f/79/caption.jpg?w=1000&s=1", "address": "370 Tomitacho, Higashiboraindori Hanayacho Sagaru, Shimogyo-Ku, Kyoto 600-8186 Qu\u00e2\u0323n Kyoto", "lat": 34.99298, "lng": 135.76108, "ref_id": 14147155, "rating": 4, "num_reviews": 0, "website": "http://rinn-kyomachi.com/en/list/hotel-bell-kyoto/", "contact_phone": "+81 75-366-5885", "contact_email": "bellkyoto@rinn-kyomachi.com", "status": 1, "source_type": 1, "numberReviews": 5}, {"name": "Basket Osaka", "type": "hotel", "image": "https://dynamic-media-cdn.tripadvisor.com/media/photo-o/18/90/a4/7c/photo1jpg.jpg?w=1000&s=1", "address": "3-13-2 Noda, Fukushima-Ku, Osaka 553-0005 Qu\u00e2\u0323n Osaka", "lat": 34.68823, "lng": 135.4749, "ref_id": 15674375, "rating": 4.5, "num_reviews": 0, "website": null, "contact_phone": null, "contact_email": null, "status": 1, "source_type": 1, "numberReviews": 3}, {"name": "Kyostay Iroha Umekoji", "type": "hotel", "image": "https://dynamic-media-cdn.tripadvisor.com/media/photo-o/17/32/62/41/photo0jpg.jpg?w=1000&s=1", "address": "37 Gokiyacho, Omiyadori Schichijo Agaru, Shimogyo-Ku, Kyoto 600-8267 Qu\u00e2\u0323n Kyoto", "lat": 34.990078, "lng": 135.74901, "ref_id": 15685949, "rating": 4.5, "num_reviews": 0, "website": null, "contact_phone": null, "contact_email": null, "status": 1, "source_type": 1, "numberReviews": 3}, {"name": "CutterINN Kyoto", "type": "hotel", "image": "https://dynamic-media-cdn.tripadvisor.com/media/photo-o/1b/0b/a7/7f/grand-japaning-hotel.jpg?w=1000&s=1", "address": "490-1 Seidocho, Nakagyo-ku, Kyoto 604-8274 Qu\u00e2\u0323n Kyoto", "lat": 35.009457, "lng": 135.75436, "ref_id": 16695840, "rating": 4.5, "num_reviews": 0, "website": null, "contact_phone": "+81 75-746-7663", "contact_email": null, "status": 1, "source_type": 1, "numberReviews": 4}, {"name": "Minshuku Kawarabisou", "type": "hotel", "image": "https://dynamic-media-cdn.tripadvisor.com/media/photo-o/14/66/ba/34/caption.jpg?w=1000&s=1", "address": "841 Kitaimanishi, Nosegawa-mura, Yoshino-gun 648-0307 Nara Prefecture", "lat": 34.10972, "lng": 135.62328, "ref_id": 1485618, "rating": 4.5, "num_reviews": 0, "website": "http://kawarabisou.com", "contact_phone": "+81 90-1442-5687", "contact_email": "kawarabi@kcn.jp", "status": 1, "source_type": 1, "numberReviews": 3}, {"name": "New Marutaso", "type": "hotel", "image": "https://dynamic-media-cdn.tripadvisor.com/media/photo-o/09/68/d8/bb/dsc-0005-largejpg.jpg?w=1000&s=1", "address": "13 Kakezu, Aminocho, Kyotango 629-3112 Qu\u00e2\u0323n Kyoto", "lat": 35.701084, "lng": 135.05315, "ref_id": 1114404, "rating": 5, "num_reviews": 0, "website": "http://www.new-maruta.com/", "contact_phone": "+81 772-72-5716", "contact_email": "", "status": 1, "source_type": 1, "numberReviews": 4}, {"name": "Hirota Guest House", "type": "hotel", "image": "https://dynamic-media-cdn.tripadvisor.com/media/photo-s/00/19/b1/2d/the-room-where-my-husband.jpg?w=1000&s=1", "address": "665 Seimei-cho, Tomikoji Nishi-iru,Nijodori, Nakagyo-ku, Kyoto 604-0951 Qu\u00e2\u0323n Kyoto", "lat": 35.013786, "lng": 135.76482, "ref_id": 321357, "rating": 4, "num_reviews": 0, "website": "", "contact_phone": "+81 75-221-2474", "contact_email": "", "status": 1, "source_type": 1, "numberReviews": 11}, {"name": "Kidera No Ie", "type": "hotel", "image": "https://dynamic-media-cdn.tripadvisor.com/media/photo-o/14/d5/ec/fc/caption.jpg?w=1000&s=1", "address": "779 Kideracho, Nara 630-8306 Nara Prefecture", "lat": 34.674397, "lng": 135.83406, "ref_id": 12873113, "rating": 4, "num_reviews": 0, "website": "http://www.machiyado.com/", "contact_phone": "+81 742-25-5500", "contact_email": null, "status": 1, "source_type": 1, "numberReviews": 5}, {"name": "Kamakurayama Farm", "type": "hotel", "image": "https://dynamic-media-cdn.tripadvisor.com/media/photo-o/12/dd/4d/1a/caption.jpg?w=1000&s=1", "address": "2756 Murousambommatsu, Uda 633-0317 Nara Prefecture", "lat": 34.57588, "lng": 136.03091, "ref_id": 12639465, "rating": 5, "num_reviews": 0, "website": "http://kamakurayama-farm.com", "contact_phone": "+81 745-88-9438", "contact_email": "socoann@gmail.com", "status": 1, "source_type": 1, "numberReviews": 3}, {"name": "Youth Hostel Moroyoso", "type": "hotel", "image": null, "address": "461 Moroyose, Shinonsen-cho, Mikata-gun 669-6753 Qu\u00e2\u0323n Hyogo", "lat": 35.619385, "lng": 134.43242, "ref_id": 6023550, "rating": 5, "num_reviews": 0, "website": "http://www.jyh.or.jp/info.php?jyhno=5416", "contact_phone": "+81 796-82-1279", "contact_email": null, "status": 1, "source_type": 1, "numberReviews": 2}, {"name": "Amano-hashidate Yusai", "type": "hotel", "image": "https://dynamic-media-cdn.tripadvisor.com/media/photo-o/05/d2/70/ce/amano-hashidate-yusai.jpg?w=1000&s=1", "address": "2653 Suzu, Miyazu 629-2251 Qu\u00e2\u0323n Kyoto", "lat": 35.563263, "lng": 135.17053, "ref_id": 3492978, "rating": 5, "num_reviews": 0, "website": null, "contact_phone": "+81 772-46-6878", "contact_email": null, "status": 1, "source_type": 1, "numberReviews": 4}, {"name": "FDS En Osaka", "type": "hotel", "image": "https://dynamic-media-cdn.tripadvisor.com/media/photo-o/15/a3/3b/fc/fds-en-osaka-standard.jpg?w=1000&s=1", "address": "2-2-17 Hanazonominami, Nishinari-Ku, Osaka 557-0015 Qu\u00e2\u0323n Osaka", "lat": 34.63904, "lng": 135.49564, "ref_id": 15574558, "rating": 4.5, "num_reviews": 0, "website": null, "contact_phone": null, "contact_email": null, "status": 1, "source_type": 1, "numberReviews": 3}, {"name": "Miyako Hotel Kyoto Hachijo", "type": "hotel", "image": "https://dynamic-media-cdn.tripadvisor.com/media/photo-o/28/4a/94/ec/miyako-hotel-kyoto-hachijo.jpg?w=1000&s=1", "address": "17 Nishi Kujoin-Machi, Minami-Ku, Kyoto 601-8412 Qu\u00e2\u0323n Kyoto", "lat": 34.984184, "lng": 135.75598, "ref_id": 302823, "rating": 4.5, "num_reviews": 0, "website": "https://www.miyakohotels.ne.jp/kyoto-hachijo/", "contact_phone": "+81 75-661-7111", "contact_email": "frontoffice-kyotohachijo@miyakohotels.ne.jp", "status": 1, "source_type": 1, "numberReviews": 9}, {"name": "APA Hotel Tennoji Ekimae", "type": "hotel", "image": "https://dynamic-media-cdn.tripadvisor.com/media/photo-o/15/77/de/be/caption.jpg?w=1000&s=1", "address": "1-4-11 Abenosuji, Abeno-ku, Osaka 545-0052 Qu\u00e2\u0323n Osaka", "lat": 34.647, "lng": 135.51198, "ref_id": 1093103, "rating": 3.5, "num_reviews": 0, "website": "http://www.apahotel.com/hotel/kansai/05_tennouji-ekimae/index.html", "contact_phone": "+81 6-6645-9111", "contact_email": "", "status": 1, "source_type": 1, "numberReviews": 187}, {"name": "APA Hotel Shinosaka Ekimae", "type": "hotel", "image": "https://dynamic-media-cdn.tripadvisor.com/media/photo-o/1b/bf/0c/ec/caption.jpg?w=1000&s=1", "address": "1-21-27 Higashi Nakajima Higashi Yodogawa-ku, Osaka 533-0033 Qu\u00e2\u0323n Osaka", "lat": 34.733627, "lng": 135.50424, "ref_id": 19992048, "rating": 4, "num_reviews": 0, "website": "https://www.apahotel.com/hotel/kansai/shinosaka-ekimae/", "contact_phone": "+81 6-6990-3611", "contact_email": "ahosaeki@apa.co.jp", "status": 1, "source_type": 1, "numberReviews": 13}, {"name": "Candeo Hotels Osaka Kishibe", "type": "hotel", "image": "https://dynamic-media-cdn.tripadvisor.com/media/photo-o/19/4e/f9/d3/photo4jpg.jpg?w=1000&s=1", "address": "5-45 Kishibe Shimmachi, Suita 564-0018 Qu\u00e2\u0323n Osaka", "lat": 34.777657, "lng": 135.53926, "ref_id": 15522763, "rating": 4, "num_reviews": 0, "website": "https://www.candeohotels.com/ja/osaka-kishibe/", "contact_phone": "+81 6-6190-1500", "contact_email": null, "status": 1, "source_type": 1, "numberReviews": 18}, {"name": "Green Hotel Yes Ohmi Hachiman", "type": "hotel", "image": "https://dynamic-media-cdn.tripadvisor.com/media/photo-o/16/a7/41/5d/caption.jpg?w=1000&s=1", "address": "21-6 Nakamura-cho, Omihachiman 523-0894 Shiga Prefecture", "lat": 35.126396, "lng": 136.09792, "ref_id": 1090590, "rating": 4, "num_reviews": 0, "website": "http://www.gh-y.com/", "contact_phone": "+81 748-32-8180", "contact_email": "ghy8180@gh-y.com", "status": 1, "source_type": 1, "numberReviews": 71}, {"name": "Rinn Gion Bishamon", "type": "hotel", "image": "https://dynamic-media-cdn.tripadvisor.com/media/photo-o/10/e4/98/89/caption.jpg?w=1000&s=1", "address": "44-24 Bishamoncho, Higashiyama-ku, Kyoto 605-0812 Qu\u00e2\u0323n Kyoto", "lat": 35.00049, "lng": 135.77644, "ref_id": 12880092, "rating": 4.5, "num_reviews": 0, "website": "https://real-ec.co.jp/rinn_gionbishamon/index.html", "contact_phone": "+81 75-354-5460", "contact_email": null, "status": 1, "source_type": 1, "numberReviews": 30}, {"name": "Gojo Guest House Annex", "type": "hotel", "image": "https://dynamic-media-cdn.tripadvisor.com/media/photo-o/0f/d4/d0/d4/caption.jpg?w=1000&s=1", "address": "11-26 Komatsucho, Yamatooji, Higashiyama-Ku, Kyoto 605-0811 Qu\u00e2\u0323n Kyoto", "lat": 34.99821, "lng": 135.77582, "ref_id": 676505, "rating": 4, "num_reviews": 0, "website": "http://gojo-guest-house.com/annex/", "contact_phone": "+81 75-525-2298", "contact_email": "stayannex@gojo-guest-house.com", "status": 1, "source_type": 1, "numberReviews": 46}, {"name": "R Inn Fukuchiyama", "type": "hotel", "image": "https://dynamic-media-cdn.tripadvisor.com/media/photo-o/06/d0/cd/ae/caption.jpg?w=1000&s=1", "address": "3-20-1 Ekinancho, Fukuchiyama 620-0940 Qu\u00e2\u0323n Kyoto", "lat": 35.29528, "lng": 135.11707, "ref_id": 1089048, "rating": 4, "num_reviews": 0, "website": "http://fukuchiyama.r-inn.info/", "contact_phone": "+81 773-25-5000", "contact_email": "", "status": 1, "source_type": 1, "numberReviews": 54}, {"name": "Bellevue Garden Hotel Kansai International Airport", "type": "hotel", "image": "https://dynamic-media-cdn.tripadvisor.com/media/photo-o/2b/27/3b/23/caption.jpg?w=1000&s=1", "address": "3-3-34 Ichibanishi, Izumisano 598-0006 Qu\u00e2\u0323n Osaka", "lat": 34.4083, "lng": 135.3201, "ref_id": 307676, "rating": 3.5, "num_reviews": 0, "website": "http://www.bellevue-kix.com/", "contact_phone": "+81 72-469-1112", "contact_email": "", "status": 1, "source_type": 1, "numberReviews": 218}, {"name": "Viale Osaka", "type": "hotel", "image": "https://dynamic-media-cdn.tripadvisor.com/media/photo-o/0b/44/88/0b/caption.jpg?w=1000&s=1", "address": "3-1-3 Azuchimachi, Chuo, Osaka 541-0052 Qu\u00e2\u0323n Osaka", "lat": 34.684444, "lng": 135.5031, "ref_id": 1132541, "rating": 4, "num_reviews": 0, "website": "http://www.viale-osaka.com/", "contact_phone": "+81 6-4705-2411", "contact_email": "", "status": 1, "source_type": 1, "numberReviews": 45}, {"name": "Hotel Kitanoya", "type": "hotel", "image": "https://dynamic-media-cdn.tripadvisor.com/media/photo-o/13/e9/19/72/caption.jpg?w=1000&s=1", "address": "100 Monju, Miyazu 626-0001 Qu\u00e2\u0323n Kyoto", "lat": 35.559902, "lng": 135.17764, "ref_id": 1074883, "rating": 4, "num_reviews": 0, "website": "", "contact_phone": "+81 772-22-4126", "contact_email": "", "status": 1, "source_type": 1, "numberReviews": 60}, {"name": "Hotel Kuretakeso Kyoto Kiyomizu Gojo", "type": "hotel", "image": "https://dynamic-media-cdn.tripadvisor.com/media/photo-o/1a/04/2e/d0/caption.jpg?w=1000&s=1", "address": "79-2 Yoshinocho, Higashiyama-Ku, Kyoto 605-0878 Qu\u00e2\u0323n Kyoto", "lat": 34.99467, "lng": 135.77261, "ref_id": 19385596, "rating": 4.5, "num_reviews": 0, "website": "http://www.kuretake-inn.com/kyoto/", "contact_phone": "+81 75-551-3411", "contact_email": "kyoto@kuratake-inn.com", "status": 1, "source_type": 1, "numberReviews": 11}, {"name": "Guest House Sun Rich Kyoto Station", "type": "hotel", "image": "https://dynamic-media-cdn.tripadvisor.com/media/photo-o/0d/bf/e6/09/guest-house-sun-rich.jpg?w=1000&s=1", "address": "MInami-ku Nishikujo Yokomachi 56-1, Kyoto 601-8427 Qu\u00e2\u0323n Kyoto", "lat": 34.983536, "lng": 135.75017, "ref_id": 3656144, "rating": 4.5, "num_reviews": 0, "website": "http://www.guesthousekyoto.com/productsk.html", "contact_phone": "+81 75-661-9131", "contact_email": null, "status": 1, "source_type": 1, "numberReviews": 36}, {"name": "Welco Inn Yodoyabashi", "type": "hotel", "image": "https://dynamic-media-cdn.tripadvisor.com/media/photo-o/0d/42/f9/16/caption.jpg?w=1000&s=1", "address": "3-2-18 Kitahama, Chuo, Osaka 541-0041 Qu\u00e2\u0323n Osaka", "lat": 34.691795, "lng": 135.50284, "ref_id": 1083925, "rating": 3.5, "num_reviews": 0, "website": "", "contact_phone": "+81 6-6223-1600", "contact_email": "", "status": 1, "source_type": 1, "numberReviews": 88}, {"name": "Cabin & Capsule Hotel J-ship Osaka Namba", "type": "hotel", "image": "https://dynamic-media-cdn.tripadvisor.com/media/photo-o/1d/15/8b/b9/caption.jpg?w=1000&s=1", "address": "2-2-14 Minatomachi, Naniwa-ku, Osaka 556-0017 Qu\u00e2\u0323n Osaka", "lat": 34.664104, "lng": 135.49445, "ref_id": 13476742, "rating": 4.5, "num_reviews": 0, "website": "http://hotel-j-ship.com/", "contact_phone": "+81 6-7167-1171", "contact_email": "info@hotel-j-ship.com", "status": 1, "source_type": 1, "numberReviews": 20}, {"name": "Toyoko Inn Shinsaibashi Nishi", "type": "hotel", "image": "https://dynamic-media-cdn.tripadvisor.com/media/photo-o/29/fe/2a/76/caption.jpg?w=1000&s=1", "address": "1-9-22 Kitahorie, Nishi-Ku, Osaka 550-0014 Qu\u00e2\u0323n Osaka", "lat": 34.67481, "lng": 135.49602, "ref_id": 1493257, "rating": 3.5, "num_reviews": 0, "website": "http://www.toyoko-inn.com/hotel/00023/", "contact_phone": "+81 6-6536-1045", "contact_email": "", "status": 1, "source_type": 1, "numberReviews": 74}, {"name": "Glanz kei Karasuma Ebisugawa", "type": "hotel", "image": "https://dynamic-media-cdn.tripadvisor.com/media/photo-o/18/ca/af/80/20190810-154407-largejpg.jpg?w=1000&s=1", "address": "84 Tomoecho Ebisugawadori Muromachi Higashi Iru, Nakagyo-ku, Kyoto 604-0863 Qu\u00e2\u0323n Kyoto", "lat": 35.014996, "lng": 135.759, "ref_id": 17518197, "rating": 4.5, "num_reviews": 0, "website": "http://karasumaeng.glanzkei.com/", "contact_phone": "+81 75-708-2352", "contact_email": null, "status": 1, "source_type": 1, "numberReviews": 19}, {"name": "Katsuura Gyoen", "type": "hotel", "image": "https://dynamic-media-cdn.tripadvisor.com/media/photo-o/22/7c/41/66/caption.jpg?w=1000&s=1", "address": "Kitahamakaigan, Nachikatsuura-cho, Higashimuro-gun 649-5334 Wakayama Prefecture", "lat": 33.63359, "lng": 135.94293, "ref_id": 1124717, "rating": 3.5, "num_reviews": 0, "website": "http://www.katuuragyoen.co.jp/", "contact_phone": "+81 735-52-0333", "contact_email": "katsuuragyoen@mystays.com", "status": 1, "source_type": 1, "numberReviews": 117}, {"name": "Nara Washington Hotel Plaza", "type": "hotel", "image": "https://dynamic-media-cdn.tripadvisor.com/media/photo-o/0e/b0/ec/92/caption.jpg?w=1000&s=1", "address": "31-1 Shimosanjocho, Nara 630-8236 Nara Prefecture", "lat": 34.68214, "lng": 135.82306, "ref_id": 1066631, "rating": 3.5, "num_reviews": 0, "website": "http://washington.jp/nara/", "contact_phone": "+81 742-27-0410", "contact_email": "", "status": 1, "source_type": 1, "numberReviews": 171}, {"name": "Takayamaso Hanano", "type": "hotel", "image": "https://dynamic-media-cdn.tripadvisor.com/media/photo-o/14/c7/95/60/caption.jpg?w=1000&s=1", "address": "400-1 Arimacho, Kita-Ku, Kobe 651-1401 Qu\u00e2\u0323n Hyogo", "lat": 34.79699, "lng": 135.24947, "ref_id": 488386, "rating": 4, "num_reviews": 0, "website": "http://www.arima-hanano.com/", "contact_phone": "+81 78-904-0744", "contact_email": "info@arima-hanano.com", "status": 1, "source_type": 1, "numberReviews": 49}, {"name": "Hannari", "type": "hotel", "image": "https://dynamic-media-cdn.tripadvisor.com/media/photo-s/02/ce/04/d6/hannari.jpg?w=1000&s=1", "address": "693 Kushigecho, Higuredori Shimotateurisagaru, Kamigyo-Ku, Kyoto 602-8127 Qu\u00e2\u0323n Kyoto", "lat": 35.019875, "lng": 135.74763, "ref_id": 1115574, "rating": 4, "num_reviews": 0, "website": "http://hannari-guesthouse.com/", "contact_phone": "+81 75-803-1300", "contact_email": "info@hannari-guesthouse.com", "status": 1, "source_type": 1, "numberReviews": 48}, {"name": "Henn na Hotel Osaka Namba", "type": "hotel", "image": "https://dynamic-media-cdn.tripadvisor.com/media/photo-o/1c/f3/52/1d/caption.jpg?w=1000&s=1", "address": "2-10-16 Nishishinsaibashi, Chuo, Osaka 542-0086 Qu\u00e2\u0323n Osaka", "lat": 34.671104, "lng": 135.49855, "ref_id": 16717871, "rating": 4, "num_reviews": 0, "website": "https://www.hennnahotel.com/nishishinsaibashi/", "contact_phone": "+81 50-5576-8355", "contact_email": null, "status": 1, "source_type": 1, "numberReviews": 18}, {"name": "Racine Home Kyoto", "type": "hotel", "image": "https://dynamic-media-cdn.tripadvisor.com/media/photo-o/15/0f/be/b8/racine-home.jpg?w=1000&s=1", "address": "334 Kamijuzuyacho, Shimogyo-Ku, Kyoto 600-8150 Qu\u00e2\u0323n Kyoto", "lat": 34.99252, "lng": 135.76099, "ref_id": 11644569, "rating": 5, "num_reviews": 0, "website": "http://racine-inc.co.jp/", "contact_phone": "+81 75-353-6315", "contact_email": "racinehome-kyoto@mandr.co.jp", "status": 1, "source_type": 1, "numberReviews": 17}, {"name": "Yululu", "type": "hotel", "image": "https://dynamic-media-cdn.tripadvisor.com/media/photo-o/09/c1/c1/48/caption.jpg?w=1000&s=1", "address": "288 Kinoshtacho, Nakagyo-Ku, Kyoto 604-8104 Qu\u00e2\u0323n Kyoto", "lat": 35.009865, "lng": 135.7625, "ref_id": 5967028, "rating": 4, "num_reviews": 0, "website": "http://guesthouse-yululu.kyoto.jp/", "contact_phone": "+81 90-4033-7633", "contact_email": "yululu288@gmail.com", "status": 1, "source_type": 1, "numberReviews": 41}, {"name": "Toyoko Inn Nara Shin Omiya Ekimae", "type": "hotel", "image": "https://dynamic-media-cdn.tripadvisor.com/media/photo-o/2a/02/fc/c4/inn.jpg?w=1000&s=1", "address": "4-3-2 Shibatsujicho, Nara 630-8114 Nara Prefecture", "lat": 34.686356, "lng": 135.81131, "ref_id": 1084756, "rating": 3.5, "num_reviews": 0, "website": "http://www.toyoko-inn.com/hotel/00183/index.html", "contact_phone": "+81 742-36-1045", "contact_email": "", "status": 1, "source_type": 1, "numberReviews": 76}, {"name": "Raku Hostel Osaka", "type": "hotel", "image": "https://dynamic-media-cdn.tripadvisor.com/media/photo-o/12/5c/7c/6a/getlstd-property-photo.jpg?w=1000&s=1", "address": "5-8-20 Nakanocho, Miyakojima-ku, Osaka 534-0027 Qu\u00e2\u0323n Osaka", "lat": 34.705517, "lng": 135.523, "ref_id": 13832727, "rating": 5, "num_reviews": 0, "website": "http://rakuhostelosaka.business.site/", "contact_phone": "+81 80-4010-7703", "contact_email": null, "status": 1, "source_type": 1, "numberReviews": 16}, {"name": "Nissho Besso", "type": "hotel", "image": "https://dynamic-media-cdn.tripadvisor.com/media/photo-o/04/a8/c3/93/caption.jpg?w=1000&s=1", "address": "13 Nakanocho, Nakagyo-ku, Kyoto 604-8083 Qu\u00e2\u0323n Kyoto", "lat": 35.008614, "lng": 135.76456, "ref_id": 1080380, "rating": 4, "num_reviews": 0, "website": "http://nissho-besso.com/", "contact_phone": "+81 75-221-7878", "contact_email": "", "status": 1, "source_type": 1, "numberReviews": 48}, {"name": "Omuro Kaikan", "type": "hotel", "image": "https://dynamic-media-cdn.tripadvisor.com/media/photo-o/0d/27/39/6d/caption.jpg?w=1000&s=1", "address": "33 Omuro Ouchi, Ukyo-ku, Kyoto 616-8092 Qu\u00e2\u0323n Kyoto", "lat": 35.0302, "lng": 135.71318, "ref_id": 1092458, "rating": 4.5, "num_reviews": 0, "website": "http://www.ninnaji.or.jp/syukubou/", "contact_phone": "+81 75-464-3664", "contact_email": "syukubou@ninnaji.or.jp", "status": 1, "source_type": 1, "numberReviews": 36}, {"name": "Hotel Asiato", "type": "hotel", "image": "https://dynamic-media-cdn.tripadvisor.com/media/photo-o/1a/96/91/58/oyo-43948-hotel-asiato.jpg?w=1000&s=1", "address": "2-10-2, Nippombashi, Chuo, Osaka 542-0073 Qu\u00e2\u0323n Osaka", "lat": 34.663643, "lng": 135.50685, "ref_id": 13202353, "rating": 4.5, "num_reviews": 0, "website": "https://www.hotel-asiato.com/", "contact_phone": "+81 6-4393-8768", "contact_email": null, "status": 1, "source_type": 1, "numberReviews": 19}, {"name": "Setre Marina Biwako", "type": "hotel", "image": "https://dynamic-media-cdn.tripadvisor.com/media/photo-o/10/8d/29/9e/photo0jpg.jpg?w=1000&s=1", "address": "1380-1 Mizuhocho, Moriyama 524-0102 Shiga Prefecture", "lat": 35.117275, "lng": 135.9444, "ref_id": 5039871, "rating": 4, "num_reviews": 0, "website": "http://www.hotelsetre-biwako.com/", "contact_phone": "+81 77-585-1125", "contact_email": null, "status": 1, "source_type": 1, "numberReviews": 41}, {"name": "Hotel Yamatoyo", "type": "hotel", "image": "https://dynamic-media-cdn.tripadvisor.com/media/photo-s/02/9b/94/e8/filename-4-jpg-thumbnail0.jpg?w=1000&s=1", "address": "910 Tando, Yabu 667-1124 Qu\u00e2\u0323n Hyogo", "lat": 35.386395, "lng": 134.53693, "ref_id": 1083738, "rating": 3.5, "num_reviews": 0, "website": "https://yamatoyo.net/", "contact_phone": "+81 79-667-8301", "contact_email": "", "status": 1, "source_type": 1, "numberReviews": 6}, {"name": "Minshuku Kazuko", "type": "hotel", "image": "https://dynamic-media-cdn.tripadvisor.com/media/photo-o/0b/33/1c/18/4-14.jpg?w=1000&s=1", "address": "2098-16 Minatomiya, Kumihama, Kyotango 629-3422 Qu\u00e2\u0323n Kyoto", "lat": 35.64294, "lng": 134.90852, "ref_id": 1113461, "rating": 5, "num_reviews": 0, "website": "http://www12.plala.or.jp/progres/", "contact_phone": "+81 772-83-0380", "contact_email": "", "status": 1, "source_type": 1, "numberReviews": 1}, {"name": "Liberty House Gonbeh", "type": "hotel", "image": "https://dynamic-media-cdn.tripadvisor.com/media/photo-o/16/9e/c6/e3/2018.jpg?w=1000&s=1", "address": "13 Nashiki, Hidakacho, Toyooka 669-5379 Qu\u00e2\u0323n Hyogo", "lat": 35.49215, "lng": 134.67699, "ref_id": 2542053, "rating": 4, "num_reviews": 0, "website": "", "contact_phone": "+81 796-45-0249", "contact_email": "info@kannabe-gonbeh.com", "status": 1, "source_type": 1, "numberReviews": 1}, {"name": "Ichinoyu Hotel", "type": "hotel", "image": "https://dynamic-media-cdn.tripadvisor.com/media/photo-s/02/bf/2b/f4/caption.jpg?w=1000&s=1", "address": "223-1 Ohara, Totsukawa-mura, Yoshino-gun 637-1333 Nara Prefecture", "lat": 33.988323, "lng": 135.7947, "ref_id": 1124527, "rating": 3, "num_reviews": 0, "website": "", "contact_phone": "+81 746-62-0101", "contact_email": "", "status": 1, "source_type": 1, "numberReviews": 11}, {"name": "Ryori Ryokan Nishikitei", "type": "hotel", "image": null, "address": "55 Kurusu, Nose-cho, Toyono-gun 563-0351 Qu\u00e2\u0323n Osaka", "lat": 34.968094, "lng": 135.39783, "ref_id": 2025160, "rating": 4, "num_reviews": 0, "website": null, "contact_phone": "+81 72-734-0028", "contact_email": "", "status": 1, "source_type": 1, "numberReviews": 2}, {"name": "Mitahamaso", "type": "hotel", "image": "https://dynamic-media-cdn.tripadvisor.com/media/photo-o/19/a6/ee/fd/caption.jpg?w=1000&s=1", "address": "1316-2 Shimohama, Kasumi-ku, Kami-cho, Mikata-gun 669-6564 Qu\u00e2\u0323n Hyogo", "lat": 35.649487, "lng": 134.60701, "ref_id": 13371510, "rating": 3.5, "num_reviews": 0, "website": "http://www.mitahamaso.com/", "contact_phone": "+81 796-36-0066", "contact_email": null, "status": 1, "source_type": 1, "numberReviews": 2}, {"name": "Nabeya", "type": "hotel", "image": "https://dynamic-media-cdn.tripadvisor.com/media/photo-o/09/a6/63/79/caption.jpg?w=1000&s=1", "address": "871 Shimonohama, Kasumi-ku, Kami-cho, Mikata-gun 669-6564 Qu\u00e2\u0323n Hyogo", "lat": 35.644543, "lng": 134.61203, "ref_id": 1875583, "rating": 5, "num_reviews": 0, "website": "", "contact_phone": "+81 796-36-0462", "contact_email": "", "status": 1, "source_type": 1, "numberReviews": 1}, {"name": "Family Pension Ibuki", "type": "hotel", "image": "https://dynamic-media-cdn.tripadvisor.com/media/photo-o/08/5b/fa/79/caption.jpg?w=1000&s=1", "address": "983-1 Ueno, Maibara 521-0312 Shiga Prefecture", "lat": 35.39597, "lng": 136.37827, "ref_id": 1114382, "rating": 5, "num_reviews": 0, "website": "", "contact_phone": "+81 749-58-1323", "contact_email": "", "status": 1, "source_type": 1, "numberReviews": 1}, {"name": "Tojinoyado", "type": "hotel", "image": "https://dynamic-media-cdn.tripadvisor.com/media/photo-s/02/29/fb/6a/caption.jpg?w=1000&s=1", "address": "137-18 Moroyose, Shinonsen-cho, Mikata-gun 669-6753 Qu\u00e2\u0323n Hyogo", "lat": 35.621925, "lng": 134.43755, "ref_id": 1485520, "rating": 4, "num_reviews": 0, "website": "http://www.touji-yado.com/", "contact_phone": "+81 796-82-3116", "contact_email": "", "status": 1, "source_type": 1, "numberReviews": 2}, {"name": "Wasurenagusa", "type": "hotel", "image": null, "address": "3400-8 Yura, Miyazu 626-0071 Qu\u00e2\u0323n Kyoto", "lat": 35.522945, "lng": 135.27274, "ref_id": 2535705, "rating": 5, "num_reviews": 0, "website": "http://www.wasurenagusa.info/", "contact_phone": "+81 772-26-0434", "contact_email": "", "status": 1, "source_type": 1, "numberReviews": 1}, {"name": "Alaise de Bale Shirahama", "type": "hotel", "image": "https://dynamic-media-cdn.tripadvisor.com/media/photo-o/1c/be/ea/46/shirahama.jpg?w=1000&s=1", "address": "2500-127 Katata, Shirahama-cho, Nishimuro-gun 649-2201 Wakayama Prefecture", "lat": 33.680798, "lng": 135.37154, "ref_id": 1485984, "rating": 3, "num_reviews": 0, "website": "https://www.baleshirahama.com/", "contact_phone": "+81 739-42-3291", "contact_email": "", "status": 1, "source_type": 1, "numberReviews": 18}, {"name": "Pension Cuckoo Nest", "type": "hotel", "image": "https://dynamic-media-cdn.tripadvisor.com/media/photo-o/0b/55/35/a2/caption.jpg?w=1000&s=1", "address": "5-40 Okuda Makinocho Shiratani, Takashima 520-1837 Shiga Prefecture", "lat": 35.50502, "lng": 136.04366, "ref_id": 1114168, "rating": 3.5, "num_reviews": 0, "website": "http://www.biwa.ne.jp/~cuckoo/", "contact_phone": "+81 740-27-1148", "contact_email": "", "status": 1, "source_type": 1, "numberReviews": 4}, {"name": "Kojima Minshuku", "type": "hotel", "image": null, "address": "1545-1 Shionomisaki, Kushimoto-cho, Higashimuro-gun 649-3502 Wakayama Prefecture", "lat": 33.45349, "lng": 135.76364, "ref_id": 1881114, "rating": 5, "num_reviews": 0, "website": "", "contact_phone": "+81 735-62-1607", "contact_email": "", "status": 1, "source_type": 1, "numberReviews": 1}, {"name": "Village Forest Myouken", "type": "hotel", "image": null, "address": "817-1 Nakakumakino, Taka-cho, Taka-gun 679-1103 Qu\u00e2\u0323n Hyogo", "lat": 35.08263, "lng": 134.92496, "ref_id": 1874662, "rating": 5, "num_reviews": 0, "website": "", "contact_phone": "+81 795-32-1144", "contact_email": "", "status": 1, "source_type": 1, "numberReviews": 1}, {"name": "Eisyo", "type": "hotel", "image": null, "address": "651 Shimonohama Kasumi-ku, Kami-cho, Mikata-gun 669-6564 Qu\u00e2\u0323n Hyogo", "lat": 35.64603, "lng": 134.61284, "ref_id": 1875570, "rating": 4, "num_reviews": 0, "website": "http://eisyou.net/", "contact_phone": "+81 796-36-0610", "contact_email": "", "status": 1, "source_type": 1, "numberReviews": 4}, {"name": "Toyoko Inn Osaka Namba", "type": "hotel", "image": null, "address": "4-11-4 Nippombashi, Naniwa-Ku, Osaka 556-0005 Qu\u00e2\u0323n Osaka", "lat": 34.660046, "lng": 135.50558, "ref_id": 19892782, "rating": 4, "num_reviews": 0, "website": "https://www.toyoko-inn.com/search/detail/00254", "contact_phone": "+81 6-7668-1045", "contact_email": null, "status": 1, "source_type": 1, "numberReviews": 1}, {"name": "Minshuku Shoza", "type": "hotel", "image": "https://dynamic-media-cdn.tripadvisor.com/media/photo-o/1c/ea/5b/b1/caption.jpg?w=1000&s=1", "address": "1884 Minaomiya, Kumihamacho, Kyotango 629-3422 Qu\u00e2\u0323n Kyoto", "lat": 35.64264, "lng": 134.90799, "ref_id": 1112567, "rating": 4, "num_reviews": 0, "website": "", "contact_phone": "+81 772-83-0117", "contact_email": "", "status": 1, "source_type": 1, "numberReviews": 2}, {"name": "Business Hotels Kanaya", "type": "hotel", "image": "https://dynamic-media-cdn.tripadvisor.com/media/photo-o/1a/8f/70/a8/business-hotels-kanaya.jpg?w=1000&s=1", "address": "633 Kanaya, Aridagawa-cho, Arida-gun 643-0152 Wakayama Prefecture", "lat": 34.064003, "lng": 135.25314, "ref_id": 13392028, "rating": 4, "num_reviews": 0, "website": null, "contact_phone": "+81 737-32-2156", "contact_email": null, "status": 1, "source_type": 1, "numberReviews": 1}, {"name": "Sanwaso Isonoka", "type": "hotel", "image": "https://dynamic-media-cdn.tripadvisor.com/media/photo-s/02/bf/59/b3/caption.jpg?w=1000&s=1", "address": "2 Aminocho Kobama, Kyotango 629-3113 Qu\u00e2\u0323n Kyoto", "lat": 35.69234, "lng": 135.03085, "ref_id": 2027931, "rating": 4, "num_reviews": 0, "website": null, "contact_phone": "+81 772-72-2673", "contact_email": "", "status": 1, "source_type": 1, "numberReviews": 2}, {"name": "Minshuku Maikoya", "type": "hotel", "image": "https://dynamic-media-cdn.tripadvisor.com/media/photo-o/02/bf/76/64/caption.jpg?w=1000&s=1", "address": "1096-1 Minamikomatsu, Otsu 520-0502 Shiga Prefecture", "lat": 35.23216, "lng": 135.96098, "ref_id": 1862222, "rating": 3.5, "num_reviews": 0, "website": "http://www.geocities.jp/ohmimaiko_maikoya/", "contact_phone": "+81 120-355-130", "contact_email": "ohmimaiko_maikoya@yahoo.co.jp", "status": 1, "source_type": 1, "numberReviews": 7}, {"name": "Sagano", "type": "hotel", "image": "https://dynamic-media-cdn.tripadvisor.com/media/photo-o/03/a3/98/de/sagano-bamboo-grooves.jpg?w=1000&s=1", "address": "18 Sagashaka Monzenminami-Cho, Ukyo-Ku, Kyoto 616-8424 Qu\u00e2\u0323n Kyoto", "lat": 35.009003, "lng": 135.69073, "ref_id": 1461751, "rating": 3.5, "num_reviews": 0, "website": "", "contact_phone": "+81 75-861-1448", "contact_email": "", "status": 1, "source_type": 1, "numberReviews": 4}, {"name": "Harukomakazan", "type": "hotel", "image": "https://dynamic-media-cdn.tripadvisor.com/media/photo-s/02/bf/56/34/caption.jpg?w=1000&s=1", "address": "475 Bekku, Yabu 667-1128 Qu\u00e2\u0323n Hyogo", "lat": 35.387283, "lng": 134.5657, "ref_id": 1083737, "rating": 5, "num_reviews": 0, "website": "", "contact_phone": "+81 79-667-8329", "contact_email": "", "status": 1, "source_type": 1, "numberReviews": 1}, {"name": "Miyama", "type": "hotel", "image": "https://dynamic-media-cdn.tripadvisor.com/media/photo-s/01/4a/e5/a0/caption.jpg?w=1000&s=1", "address": "27 Hatayashikihashinocho, Wakayama 640-8393 Wakayama Prefecture", "lat": 34.23575, "lng": 135.18372, "ref_id": 1085249, "rating": 3, "num_reviews": 0, "website": null, "contact_phone": "+81 73-428-1169", "contact_email": "", "status": 1, "source_type": 1, "numberReviews": 11}, {"name": "Tabinoyado Ako", "type": "hotel", "image": "https://dynamic-media-cdn.tripadvisor.com/media/photo-s/02/bf/73/24/caption.jpg?w=1000&s=1", "address": "694 Yushima, Kinosaki-cho, Toyooka 669-6101 Qu\u00e2\u0323n Hyogo", "lat": 35.626904, "lng": 134.81105, "ref_id": 1862178, "rating": 3.5, "num_reviews": 0, "website": null, "contact_phone": "+81 796-32-2963", "contact_email": "kawato@luck.ocn.ne.jp", "status": 1, "source_type": 1, "numberReviews": 3}, {"name": "Ryokan Hamaya", "type": "hotel", "image": null, "address": "48-1 Takeno, Takenocho, Toyooka 669-6201 Qu\u00e2\u0323n Hyogo", "lat": 35.660973, "lng": 134.76279, "ref_id": 4454219, "rating": 4, "num_reviews": 0, "website": "http://www.eonet.ne.jp/~hamaya-ryokan/index.html", "contact_phone": "+81 796-47-0028", "contact_email": null, "status": 1, "source_type": 1, "numberReviews": 2}, {"name": "Seaside Ubuyu", "type": "hotel", "image": "https://dynamic-media-cdn.tripadvisor.com/media/photo-o/1a/28/ce/e7/dsc-0259-largejpg.jpg?w=1000&s=1", "address": "122 Ubuyu, Hidaka-cho, Hidaka-gun 649-1233 Wakayama Prefecture", "lat": 33.912445, "lng": 135.08344, "ref_id": 1910171, "rating": 4, "num_reviews": 0, "website": "http://www.mjnet.ne.jp/ubuyu/", "contact_phone": "+81 738-64-2498", "contact_email": "", "status": 1, "source_type": 1, "numberReviews": 1}, {"name": "Hotel Itami", "type": "hotel", "image": "https://dynamic-media-cdn.tripadvisor.com/media/photo-o/21/24/a2/5e/caption.jpg?w=1000&s=1", "address": "2-3-32 Fujinoki, Itami 664-0847 Qu\u00e2\u0323n Hyogo", "lat": 34.783222, "lng": 135.42422, "ref_id": 5611804, "rating": 3.5, "num_reviews": 0, "website": "https://www.hotel-itami.net/", "contact_phone": "+81 72-784-2600", "contact_email": null, "status": 1, "source_type": 1, "numberReviews": 2}, {"name": "Hachikogen Hotel Tanitsune", "type": "hotel", "image": "https://dynamic-media-cdn.tripadvisor.com/media/photo-s/02/be/e5/69/caption.jpg?w=1000&s=1", "address": "Tando, 909 Hachi Kogen, Yabu 667-1100 Qu\u00e2\u0323n Hyogo", "lat": 35.383606, "lng": 134.53616, "ref_id": 1880972, "rating": 5, "num_reviews": 0, "website": "http://www.tanitsune.com/", "contact_phone": "+81 79-667-8316", "contact_email": "", "status": 1, "source_type": 1, "numberReviews": 1}, {"name": "Hatago Hasegawa Nara Inn", "type": "hotel", "image": "https://dynamic-media-cdn.tripadvisor.com/media/photo-o/0b/07/8e/01/caption.jpg?w=1000&s=1", "address": "1474 Takabatakecho, Nara 630-8301 Nara Prefecture", "lat": 34.676025, "lng": 135.84962, "ref_id": 1086838, "rating": 3.5, "num_reviews": 0, "website": "http://www.hatago-hasegawa.sakura.ne.jp/", "contact_phone": "+81 742-26-7766", "contact_email": "", "status": 1, "source_type": 1, "numberReviews": 4}, {"name": "Guest House Hana", "type": "hotel", "image": "https://dynamic-media-cdn.tripadvisor.com/media/photo-o/11/cf/43/5b/hana.jpg?w=1000&s=1", "address": "1-2-3 Hamaotsu 2F Seiryukaikan, Otsu 520-0047 Shiga Prefecture", "lat": 35.010323, "lng": 135.8634, "ref_id": 9698381, "rating": 2.5, "num_reviews": 0, "website": null, "contact_phone": "+81 90-8125-9886", "contact_email": "hana8888_1288@yahoo.co.jp", "status": 1, "source_type": 1, "numberReviews": 3}, {"name": "Isodokei", "type": "hotel", "image": "https://dynamic-media-cdn.tripadvisor.com/media/photo-s/02/bf/5e/3a/caption.jpg?w=1000&s=1", "address": "3749-11, Shirahama-cho, Nishimuro-gun 649-2211 Wakayama Prefecture", "lat": 33.689327, "lng": 135.35364, "ref_id": 1864142, "rating": 4, "num_reviews": 0, "website": "", "contact_phone": "+81 739-43-0478", "contact_email": "", "status": 1, "source_type": 1, "numberReviews": 7}, {"name": "Nico Hotel", "type": "hotel", "image": "https://dynamic-media-cdn.tripadvisor.com/media/partner/bookingcom/photo-o/29/31/b1/3d/caption.jpg?w=1000&s=1", "address": "2-16-11 Kawarayamachi, Chuo, Osaka 542-0066 Qu\u00e2\u0323n Osaka", "lat": 34.67002, "lng": 135.51141, "ref_id": 17511793, "rating": 3, "num_reviews": 0, "website": "http://nicohotel.jp", "contact_phone": "+81 50-5539-6613", "contact_email": "info@nicohotel.jp", "status": 1, "source_type": 1, "numberReviews": 5}, {"name": "T&K Hostel Kobe Sannomiya East", "type": "hotel", "image": "https://dynamic-media-cdn.tripadvisor.com/media/photo-o/15/26/e9/b5/caption.jpg?w=1000&s=1", "address": "5-6-14 Oishi Higashimachi, Nada-Ku, Kobe 657-0043 Qu\u00e2\u0323n Hyogo", "lat": 34.707977, "lng": 135.23387, "ref_id": 12145803, "rating": 4.5, "num_reviews": 0, "website": "https://tk-budget-japanese-inn.business.site/", "contact_phone": "+81 78-882-7391", "contact_email": "t.khostel.kobe@gmail.com", "status": 1, "source_type": 1, "numberReviews": 2}, {"name": "Green Park Omoidenomori", "type": "hotel", "image": "https://dynamic-media-cdn.tripadvisor.com/media/photo-o/02/bf/82/14/caption.jpg?w=1000&s=1", "address": "341-3 Kutsukikase, Takashima 520-1415 Shiga Prefecture", "lat": 35.34381, "lng": 135.92142, "ref_id": 1877883, "rating": 4.5, "num_reviews": 0, "website": "http://gp-kutsuki.com/", "contact_phone": "+81 740-38-2770", "contact_email": "", "status": 1, "source_type": 1, "numberReviews": 3}, {"name": "Seaside Nishinaka", "type": "hotel", "image": "https://dynamic-media-cdn.tripadvisor.com/media/photo-o/13/be/51/0a/caption.jpg?w=1000&s=1", "address": "566 Kumihamachoasahi, Kyotango 629-3424 Qu\u00e2\u0323n Kyoto", "lat": 35.655247, "lng": 134.88226, "ref_id": 2530178, "rating": 5, "num_reviews": 0, "website": "http://www.mjnet.ne.jp/nishinaka/", "contact_phone": "+81 772-83-0184", "contact_email": "", "status": 1, "source_type": 1, "numberReviews": 2}, {"name": "Tabibitoyado Kirinya", "type": "hotel", "image": "https://dynamic-media-cdn.tripadvisor.com/media/photo-o/0d/06/80/49/getlstd-property-photo.jpg?w=1000&s=1", "address": "4-4 Uji Myoraku 3F Kyoei Bldg., Uji 611-0021 Qu\u00e2\u0323n Kyoto", "lat": 34.89151, "lng": 135.80565, "ref_id": 9756093, "rating": 4.5, "num_reviews": 0, "website": "http://ujikirinya.web.fc2.com/", "contact_phone": "+81 774-46-8064", "contact_email": "travelersdou@gmail.com", "status": 1, "source_type": 1, "numberReviews": 2}, {"name": "Minshuku Yoshinoya", "type": "hotel", "image": "https://dynamic-media-cdn.tripadvisor.com/media/photo-s/02/bf/7e/af/caption.jpg?w=1000&s=1", "address": "2088 Kumihamacho Minatomiya, Kyotango 629-3442 Qu\u00e2\u0323n Kyoto", "lat": 35.643005, "lng": 134.90903, "ref_id": 1113635, "rating": 3, "num_reviews": 0, "website": "", "contact_phone": "+81 772-83-0450", "contact_email": "", "status": 1, "source_type": 1, "numberReviews": 3}, {"name": "Pension Kotomu", "type": "hotel", "image": "https://dynamic-media-cdn.tripadvisor.com/media/photo-o/01/ba/d6/e6/view-from-top-floor-balcony.jpg?w=1000&s=1", "address": "Chawanzaka, Kiyomizu Shinmichi, Higashiyama-ku, Kyoto 605-0846 Qu\u00e2\u0323n Kyoto", "lat": 34.995182, "lng": 135.78032, "ref_id": 1437385, "rating": 4.5, "num_reviews": 0, "website": "http://www.chawanzaka.com/kotomu/", "contact_phone": "+81 75-531-1848", "contact_email": "pension.kotomu@k5.dion.ne.jp", "status": 1, "source_type": 1, "numberReviews": 5}, {"name": "QQ Guesthouse", "type": "hotel", "image": "https://dynamic-media-cdn.tripadvisor.com/media/photo-o/11/b9/5f/44/photo1jpg.jpg?w=1000&s=1", "address": "1-14-17 Shitennoji, Tennoji-ku, Osaka 543-0051 Qu\u00e2\u0323n Osaka", "lat": 34.653824, "lng": 135.514, "ref_id": 9829870, "rating": 4.5, "num_reviews": 0, "website": null, "contact_phone": "+81 70-5667-6545", "contact_email": "qqguesthouse@gmail.com", "status": 1, "source_type": 1, "numberReviews": 2}, {"name": "Hosen-ji Zen Center", "type": "hotel", "image": "https://dynamic-media-cdn.tripadvisor.com/media/photo-o/14/c0/52/9e/this-is-a-wonderful-zen.jpg?w=1000&s=1", "address": "52 Nakajo, Yamamoto, Shino-cho, Kameoka 621-0825 Qu\u00e2\u0323n Kyoto", "lat": 35.01141, "lng": 135.61238, "ref_id": 325847, "rating": 4.5, "num_reviews": 0, "website": "", "contact_phone": "+81 771-24-0378", "contact_email": "", "status": 1, "source_type": 1, "numberReviews": 2}, {"name": "Stihl no Mori", "type": "hotel", "image": "https://dynamic-media-cdn.tripadvisor.com/media/photo-o/0b/2f/6e/b4/photo0jpg.jpg?w=1000&s=1", "address": "Hiyoshicho Amawaka, Nantan 629-0334 Qu\u00e2\u0323n Kyoto", "lat": 35.136974, "lng": 135.52995, "ref_id": 7029501, "rating": 4, "num_reviews": 0, "website": "http://forest-hiyoshi.jp/", "contact_phone": "+81 771-72-1339", "contact_email": null, "status": 1, "source_type": 1, "numberReviews": 5}, {"name": "M's Hotel Gojo Naginatagiri", "type": "hotel", "image": "https://dynamic-media-cdn.tripadvisor.com/media/photo-o/1d/c7/63/b5/triple-room.jpg?w=1000&s=1", "address": "211 Naginatagiricho, Shimogyo-Ku, Kyoto 600-8438 Qu\u00e2\u0323n Kyoto", "lat": 34.99762, "lng": 135.75778, "ref_id": 17484659, "rating": 3.5, "num_reviews": 0, "website": "https://kyohotel.jp/hotel/grand-japaning-hotel-gojo-naginatagiri/", "contact_phone": "+81 75-320-4140", "contact_email": null, "status": 1, "source_type": 1, "numberReviews": 5}, {"name": "Hotel Naniwa Shinsekaimae", "type": "hotel", "image": "https://dynamic-media-cdn.tripadvisor.com/media/photo-o/11/b6/dd/6b/hotel-naniwa-shinsekaimae.jpg?w=1000&s=1", "address": "3-16-11 Nipponbashihigashi, Naniwa-ku, Osaka 556-0006 Qu\u00e2\u0323n Osaka", "lat": 34.65417, "lng": 135.50737, "ref_id": 12966548, "rating": 3.5, "num_reviews": 0, "website": "http://hotelnaniwa.net/", "contact_phone": "+81 6-6606-9230", "contact_email": null, "status": 1, "source_type": 1, "numberReviews": 5}, {"name": "Weekly Sho Hotel Namba", "type": "hotel", "image": "https://dynamic-media-cdn.tripadvisor.com/media/photo-o/11/b1/35/c4/caption.jpg?w=1000&s=1", "address": "2-17-6, Nippombashi, Chuo, Osaka 542-0073 Qu\u00e2\u0323n Osaka", "lat": 34.66312, "lng": 135.50838, "ref_id": 12999767, "rating": 4, "num_reviews": 0, "website": "http://www.weekly-sho.jp/ws-nanba.html", "contact_phone": "+81 6-6632-3345", "contact_email": null, "status": 1, "source_type": 1, "numberReviews": 3}, {"name": "Chiisana Oyado Takiroku", "type": "hotel", "image": "https://dynamic-media-cdn.tripadvisor.com/media/photo-o/08/20/60/5c/caption.jpg?w=1000&s=1", "address": "65-1 Kundani, Kasumi-ku, Kami-cho, Mikata-gun 669-6402 Qu\u00e2\u0323n Hyogo", "lat": 35.653687, "lng": 134.69357, "ref_id": 1925311, "rating": 4.5, "num_reviews": 0, "website": "http://www.eonet.ne.jp/~takiroku/", "contact_phone": "+81 796-38-0667", "contact_email": "", "status": 1, "source_type": 1, "numberReviews": 3}, {"name": "Daily Apartment House Ichijo Ivy", "type": "hotel", "image": "https://dynamic-media-cdn.tripadvisor.com/media/photo-o/0e/69/ea/81/caption.jpg?w=1000&s=1", "address": "109 Fukudaimyojincho, Horikawadori Ichijo Sagaru, Kamigyo-Ku, Kyoto 602-8233 Qu\u00e2\u0323n Kyoto", "lat": 35.026154, "lng": 135.75134, "ref_id": 3354424, "rating": 3.5, "num_reviews": 0, "website": "http://ivy.free-d.jp", "contact_phone": "+81 75-255-9009", "contact_email": "ivy@free-d.jp", "status": 1, "source_type": 1, "numberReviews": 7}, {"name": "Maruyama Village", "type": "hotel", "image": "https://dynamic-media-cdn.tripadvisor.com/media/photo-o/14/31/65/d6/caption.jpg?w=1000&s=1", "address": "30 Maruyama, Tanba Sasayama 669-2361 Qu\u00e2\u0323n Hyogo", "lat": 35.103657, "lng": 135.24294, "ref_id": 2560971, "rating": 5, "num_reviews": 0, "website": "http://maruyama-v.jp/", "contact_phone": "+81 79-552-5770", "contact_email": "", "status": 1, "source_type": 1, "numberReviews": 2}, {"name": "Minshuku Teruteya", "type": "hotel", "image": "https://dynamic-media-cdn.tripadvisor.com/media/photo-o/0f/8f/71/ee/caption.jpg?w=1000&s=1", "address": "97 Hongucho Yunomine, Tanabe 647-1732 Wakayama Prefecture", "lat": 33.828262, "lng": 135.75763, "ref_id": 1925392, "rating": 3.5, "num_reviews": 0, "website": "", "contact_phone": "+81 735-42-0255", "contact_email": "", "status": 1, "source_type": 1, "numberReviews": 7}, {"name": "Hotel Otsu", "type": "hotel", "image": "https://dynamic-media-cdn.tripadvisor.com/media/photo-o/03/e8/40/fa/caption.jpg?w=1000&s=1", "address": "971-1 Minamishigacho, Otsu 520-0018 Shiga Prefecture", "lat": 35.03886, "lng": 135.84814, "ref_id": 1485754, "rating": 3.5, "num_reviews": 0, "website": null, "contact_phone": "+81 77-524-3518", "contact_email": "", "status": 1, "source_type": 1, "numberReviews": 8}, {"name": "Pension Mind Games", "type": "hotel", "image": "https://dynamic-media-cdn.tripadvisor.com/media/photo-o/03/52/81/70/caption.jpg?w=1000&s=1", "address": "48-5 Kurumamichicho Sagatenryuji Ukyo-ku, Kyoto 616-8373 Qu\u00e2\u0323n Kyoto", "lat": 35.01662, "lng": 135.68015, "ref_id": 3653280, "rating": 4, "num_reviews": 0, "website": "http://www.mind-games.jp", "contact_phone": "+81 75-871-3900", "contact_email": null, "status": 1, "source_type": 1, "numberReviews": 3}, {"name": "Buddha GuestHouse Shirahama-Spa", "type": "hotel", "image": "https://dynamic-media-cdn.tripadvisor.com/media/photo-o/0f/fa/0c/00/caption.jpg?w=1000&s=1", "address": "1778-6, Shirahama-cho, Nishimuro-gun 649-2200 Wakayama Prefecture", "lat": 33.673973, "lng": 135.33818, "ref_id": 7052615, "rating": 4, "num_reviews": 0, "website": "http://www.bgh-shirahama-onsen.com/home.htm", "contact_phone": "+81 90-1258-9516", "contact_email": null, "status": 1, "source_type": 1, "numberReviews": 3}, {"name": "Yasugiya", "type": "hotel", "image": "https://dynamic-media-cdn.tripadvisor.com/media/photo-o/0e/18/dc/df/caption.jpg?w=1000&s=1", "address": "215-1 Yasugi Kasumi-ku, Kami-cho, Mikata-gun 669-6403 Qu\u00e2\u0323n Hyogo", "lat": 35.648277, "lng": 134.7035, "ref_id": 2014452, "rating": 4, "num_reviews": 0, "website": "", "contact_phone": "+81 796-38-0087", "contact_email": "", "status": 1, "source_type": 1, "numberReviews": 6}, {"name": "Briller Universal Japon", "type": "hotel", "image": null, "address": "1-34-16 Nishikujo, Konohana-Ku, Osaka 554-0012 Qu\u00e2\u0323n Osaka", "lat": 34.681557, "lng": 135.46686, "ref_id": 12986934, "rating": 4, "num_reviews": 0, "website": null, "contact_phone": null, "contact_email": null, "status": 1, "source_type": 1, "numberReviews": 4}, {"name": "Hara Business Hotel", "type": "hotel", "image": "https://dynamic-media-cdn.tripadvisor.com/media/photo-o/06/29/fa/10/caption.jpg?w=1000&s=1", "address": "3-17 Suginobaba, Wakayama 640-8212 Wakayama Prefecture", "lat": 34.237904, "lng": 135.16898, "ref_id": 1047593, "rating": 4, "num_reviews": 0, "website": "", "contact_phone": "+81 73-431-5627", "contact_email": "", "status": 1, "source_type": 1, "numberReviews": 5}, {"name": "Pesione Kitamura", "type": "hotel", "image": "https://dynamic-media-cdn.tripadvisor.com/media/photo-s/02/bf/54/50/caption.jpg?w=1000&s=1", "address": "159-10 Tada, Hidakacho, Toyooka 669-5371 Qu\u00e2\u0323n Hyogo", "lat": 35.507904, "lng": 134.68329, "ref_id": 2026612, "rating": 4, "num_reviews": 0, "website": null, "contact_phone": "+81 796-45-0330", "contact_email": "", "status": 1, "source_type": 1, "numberReviews": 4}, {"name": "Kyomai Inn", "type": "hotel", "image": "https://dynamic-media-cdn.tripadvisor.com/media/photo-o/09/bf/b4/f1/img-20151206-082752-largejpg.jpg?w=1000&s=1", "address": "685-2 Higashishiokojicho, Shimogyo-Ku, Kyoto 600-8216 Qu\u00e2\u0323n Kyoto", "lat": 34.987087, "lng": 135.76183, "ref_id": 1115637, "rating": 4, "num_reviews": 0, "website": "http://kyomai.net/", "contact_phone": "+81 75-604-6440", "contact_email": null, "status": 1, "source_type": 1, "numberReviews": 4}, {"name": "Guest House Tenku", "type": "hotel", "image": null, "address": "220 Wadayamacho Takeda, Asago 669-5252 Qu\u00e2\u0323n Hyogo", "lat": 35.299706, "lng": 134.83684, "ref_id": 12960196, "rating": 5, "num_reviews": 0, "website": "http://tenku109.jp/", "contact_phone": "+81 79-666-8836", "contact_email": null, "status": 1, "source_type": 1, "numberReviews": 1}, {"name": "Guesthouse Kyoto Ekimae", "type": "hotel", "image": "https://dynamic-media-cdn.tripadvisor.com/media/photo-o/15/1f/4e/60/guesthouse-kyoto-ekimae.jpg?w=1000&s=1", "address": "Higashi Kujo Higashi Iwamotocho 18-6, Minami-ku, Kyoto 601-8006 Qu\u00e2\u0323n Kyoto", "lat": 34.98398, "lng": 135.76566, "ref_id": 7702043, "rating": 3.5, "num_reviews": 0, "website": null, "contact_phone": "+81 90-3941-3191", "contact_email": null, "status": 1, "source_type": 1, "numberReviews": 8}, {"name": "Yanaseya", "type": "hotel", "image": "https://dynamic-media-cdn.tripadvisor.com/media/photo-o/09/30/ed/aa/caption.jpg?w=1000&s=1", "address": "2-7-3 Hommachi, Gojo 637-0041 Nara Prefecture", "lat": 34.34876, "lng": 135.69348, "ref_id": 8389313, "rating": 5, "num_reviews": 0, "website": "http://yanaseya.info/", "contact_phone": null, "contact_email": null, "status": 1, "source_type": 1, "numberReviews": 2}, {"name": "Tsuruhashi Station Uro Apartment", "type": "hotel", "image": null, "address": "7-3 Tojocho, Tennoji-Ku, Osaka 543-0026 Qu\u00e2\u0323n Osaka", "lat": 34.66362, "lng": 135.52939, "ref_id": 15680525, "rating": 5, "num_reviews": 0, "website": null, "contact_phone": "+81 80-4821-0915", "contact_email": null, "status": 1, "source_type": 1, "numberReviews": 1}, {"name": "The Lively Osaka Honmachi", "type": "hotel", "image": "https://dynamic-media-cdn.tripadvisor.com/media/photo-o/1a/24/c4/8e/the-lively-honmachi-osaka.jpg?w=1000&s=1", "address": "1-5-11 Minamihommachi, Chuo, Osaka 541-0054 Qu\u00e2\u0323n Osaka", "lat": 34.68292, "lng": 135.5077, "ref_id": 17577303, "rating": 4.5, "num_reviews": 0, "website": "https://www.the-lively.com/osaka", "contact_phone": "+81 50-3138-1988", "contact_email": "honmachi@the-lively.com", "status": 1, "source_type": 1, "numberReviews": 267}, {"name": "The Millennials Kyoto", "type": "hotel", "image": "https://dynamic-media-cdn.tripadvisor.com/media/photo-o/17/35/77/d7/caption.jpg?w=1000&s=1", "address": "235 Yamazakicho, Nakagyo-ku, Kyoto 604-8032 Qu\u00e2\u0323n Kyoto", "lat": 35.007393, "lng": 135.76886, "ref_id": 12643852, "rating": 5, "num_reviews": 0, "website": "http://www.themillennials.jp/", "contact_phone": "+81 75-212-6887", "contact_email": null, "status": 1, "source_type": 1, "numberReviews": 346}, {"name": "Hyatt Regency Kyoto", "type": "hotel", "image": "https://dynamic-media-cdn.tripadvisor.com/media/photo-o/1c/4b/72/18/caption.jpg?w=1000&s=1", "address": "644-2 Sanjusangendo-Mawari, Higashiyama-Ku, Kyoto 605-0941 Qu\u00e2\u0323n Kyoto", "lat": 34.98879, "lng": 135.77354, "ref_id": 601531, "rating": 4.5, "num_reviews": 0, "website": "http://kyoto.regency.hyatt.com", "contact_phone": "+81 75-541-1234", "contact_email": "kyoto.regency@hyatt.com", "status": 1, "source_type": 1, "numberReviews": 3524}, {"name": "BnA Alter Museum", "type": "hotel", "image": "https://dynamic-media-cdn.tripadvisor.com/media/photo-o/1a/cc/1c/d8/bna-alter-museum.jpg?w=1000&s=1", "address": "267-1 Temmacho, Shimogyo-Ku, Kyoto 600-8024 Qu\u00e2\u0323n Kyoto", "lat": 35.00022, "lng": 135.76843, "ref_id": 17379882, "rating": 5, "num_reviews": 0, "website": "http://bnaaltermuseum.com/rooms/", "contact_phone": "+81 75-748-1278", "contact_email": "info@bnaaltermuseum.com", "status": 1, "source_type": 1, "numberReviews": 125}, {"name": "Nohga Hotel Kiyomizu Kyoto", "type": "hotel", "image": "https://dynamic-media-cdn.tripadvisor.com/media/photo-o/29/be/7e/78/caption.jpg?w=1000&s=1", "address": "4-450-1 Gojohashi Higashi, Higashiyama-ku, Kyoto 605-0846 Qu\u00e2\u0323n Kyoto", "lat": 34.994965, "lng": 135.7741, "ref_id": 23974593, "rating": 5, "num_reviews": 0, "website": "https://nohgahotel.com/kiyomizu/", "contact_phone": "+81 75-323-7120", "contact_email": null, "status": 1, "source_type": 1, "numberReviews": 61}, {"name": "Hotel Nikko Nara", "type": "hotel", "image": "https://dynamic-media-cdn.tripadvisor.com/media/photo-o/29/33/e8/56/exterior.jpg?w=1000&s=1", "address": "8-1 Sanjo Hommachi, Nara 630-8122 Nara Prefecture", "lat": 34.68155, "lng": 135.81851, "ref_id": 574405, "rating": 4, "num_reviews": 0, "website": "https://www.nikkonara.jp/", "contact_phone": "+81 742-35-6812", "contact_email": "info@nikkonara.jp", "status": 1, "source_type": 1, "numberReviews": 1690}, {"name": "The Royal Park Canvas Osaka Kitahama", "type": "hotel", "image": "https://dynamic-media-cdn.tripadvisor.com/media/photo-o/19/3c/56/4c/caption.jpg?w=1000&s=1", "address": "1-9-8 Kitahama, Chuo, Osaka 541-0041 Qu\u00e2\u0323n Osaka", "lat": 34.690937, "lng": 135.50679, "ref_id": 16871893, "rating": 4.5, "num_reviews": 0, "website": "http://www.the-royalpark.jp/canvas/osakakitahama/", "contact_phone": "+81 6-6220-1111", "contact_email": null, "status": 1, "source_type": 1, "numberReviews": 42}, {"name": "Dhawa Yura Kyoto", "type": "hotel", "image": "https://dynamic-media-cdn.tripadvisor.com/media/photo-o/28/58/83/ca/bf1-bamboo-garden.jpg?w=1000&s=1", "address": "84 Ohashicho, Higashiyama-ku, Kyoto 605-0009 Qu\u00e2\u0323n Kyoto", "lat": 35.008976, "lng": 135.77391, "ref_id": 17338181, "rating": 4.5, "num_reviews": 0, "website": "https://www.dhawa.com/hotels/dhawa-yura-kyoto", "contact_phone": "+81 75-366-5800", "contact_email": "yurakyoto@dhawa.com", "status": 1, "source_type": 1, "numberReviews": 157}, {"name": "Premier Hotel Cabin President Osaka", "type": "hotel", "image": "https://dynamic-media-cdn.tripadvisor.com/media/photo-o/18/a4/d8/e7/cabin.jpg?w=1000&s=1", "address": "1-3-19 Minamimorimachi, Kita-ku, Osaka 530-0054 Qu\u00e2\u0323n Osaka", "lat": 34.69723, "lng": 135.51076, "ref_id": 12213313, "rating": 4.5, "num_reviews": 0, "website": "https://cabin.kenhotels.com/osaka/", "contact_phone": "+81 6-6363-1201", "contact_email": "info-cabinosaka@kenhotels.com", "status": 1, "source_type": 1, "numberReviews": 150}, {"name": "Super Hotel City Osaka & Natural Hot Springs", "type": "hotel", "image": "https://dynamic-media-cdn.tripadvisor.com/media/photo-s/02/dc/1b/ad/caption.jpg?w=1000&s=1", "address": "3-6-35 Edobori, Nishi-Ku, Osaka 550-0002 Qu\u00e2\u0323n Osaka", "lat": 34.685436, "lng": 135.48518, "ref_id": 1092486, "rating": 4, "num_reviews": 0, "website": "http://www.superhotel.co.jp/osakaspa/osakaspa.html", "contact_phone": "+81 6-6447-9000", "contact_email": "", "status": 1, "source_type": 1, "numberReviews": 457}, {"name": "Kyoto Brighton Hotel", "type": "hotel", "image": "https://dynamic-media-cdn.tripadvisor.com/media/photo-o/13/ac/6e/42/caption.jpg?w=1000&s=1", "address": "330 Shiteicho Nakadachiuri Shinmachi-Dori, Kamigyo-Ku (West side of Gosho), Kyoto 602-8071 Qu\u00e2\u0323n Kyoto", "lat": 35.02446, "lng": 135.75589, "ref_id": 307638, "rating": 4.5, "num_reviews": 0, "website": "http://www.brightonhotels.co.jp/kyoto/", "contact_phone": "+81 75-441-4411", "contact_email": "kbh_reserve@brightonhotels.co.jp", "status": 1, "source_type": 1, "numberReviews": 1098}, {"name": "Hotel Elcient Kyoto", "type": "hotel", "image": "https://dynamic-media-cdn.tripadvisor.com/media/photo-o/22/ac/5e/2f/2.jpg?w=1000&s=1", "address": "13 Higashikujo Higashisannocho, Minami-Ku, Kyoto 601-8004 Qu\u00e2\u0323n Kyoto", "lat": 34.98378, "lng": 135.76138, "ref_id": 1114922, "rating": 4, "num_reviews": 0, "website": "http://www.elcient.com/kyoto", "contact_phone": "+81 75-672-1100", "contact_email": "", "status": 1, "source_type": 1, "numberReviews": 435}, {"name": "Daiwa Roynet Hotel Kobe Sannomiya", "type": "hotel", "image": "https://dynamic-media-cdn.tripadvisor.com/media/photo-o/0b/17/64/9a/twin-room.jpg?w=1000&s=1", "address": "5-1-6 Gokodori, Chuo-Ku, Kobe 651-0087 Qu\u00e2\u0323n Hyogo", "lat": 34.692993, "lng": 135.19852, "ref_id": 1067486, "rating": 4, "num_reviews": 0, "website": "http://www.daiwaroynet.jp/kobesannomiya/", "contact_phone": "+81 78-291-4055", "contact_email": "kobesannomiya@daiwaroyal.jp", "status": 1, "source_type": 1, "numberReviews": 378}, {"name": "Kyoto Tokyu Hotel", "type": "hotel", "image": "https://dynamic-media-cdn.tripadvisor.com/media/photo-o/2b/1c/5d/8a/main-entrance.jpg?w=1000&s=1", "address": "580 Kakimotocho, Gojo-Sagaru, Horikawa-Dori, Shimogyo-Ku, Kyoto 600-8519 Qu\u00e2\u0323n Kyoto", "lat": 34.995094, "lng": 135.75175, "ref_id": 301925, "rating": 4, "num_reviews": 0, "website": "http://www.tokyuhotelsjapan.com/global/kyoto-h#utm_source=TA_kyo_en", "contact_phone": "+81 75-341-2411", "contact_email": "kyoto-h.rs@tokyuhotels.co.jp", "status": 1, "source_type": 1, "numberReviews": 1557}, {"name": "Star Gate Hotel Kansai Airport", "type": "hotel", "image": "https://dynamic-media-cdn.tripadvisor.com/media/photo-o/11/cf/bb/12/caption.jpg?w=1000&s=1", "address": "1 Rinku Orai Kita, Izumisano 598-8511 Qu\u00e2\u0323n Osaka", "lat": 34.411247, "lng": 135.2998, "ref_id": 307415, "rating": 4, "num_reviews": 0, "website": "http://www.s-gth.jp/", "contact_phone": "+81 72-460-1111", "contact_email": "roomrsv@s-gth.jp", "status": 1, "source_type": 1, "numberReviews": 728}, {"name": "Ark Hotel Osaka Shinsaibashi", "type": "hotel", "image": "https://dynamic-media-cdn.tripadvisor.com/media/photo-o/09/ea/94/75/twin-room--v10350990.jpg?w=1000&s=1", "address": "1-19-18 Shimanouchi, Chuo, Osaka 542-0082 Qu\u00e2\u0323n Osaka", "lat": 34.67486, "lng": 135.5066, "ref_id": 607431, "rating": 3.5, "num_reviews": 0, "website": "https://www.route-inn.co.jp/", "contact_phone": "+81 6-6252-5111", "contact_email": "s-nisiyama@osaka.ark-hotel.co.jp", "status": 1, "source_type": 1, "numberReviews": 284}, {"name": "Dotonbori Hotel", "type": "hotel", "image": "https://dynamic-media-cdn.tripadvisor.com/media/photo-o/13/b2/43/62/caption.jpg?w=1000&s=1", "address": "2-3-25, Dotombori, Chuo, Osaka 542-0071 Qu\u00e2\u0323n Osaka", "lat": 34.66861, "lng": 135.49875, "ref_id": 557794, "rating": 4.5, "num_reviews": 0, "website": "http://dotonbori-h.co.jp/", "contact_phone": "+81 6-6213-9040", "contact_email": "front@dotonbori-h.co.jp", "status": 1, "source_type": 1, "numberReviews": 819}, {"name": "Hotel Villa Fontaine Kobe-Sannomiya", "type": "hotel", "image": "https://dynamic-media-cdn.tripadvisor.com/media/photo-o/10/47/6e/b8/caption.jpg?w=1000&s=1", "address": "4-1-4 Asahidori, Chuo-Ku, Kobe 651-0095 Qu\u00e2\u0323n Hyogo", "lat": 34.696156, "lng": 135.1975, "ref_id": 3856491, "rating": 4, "num_reviews": 0, "website": "http://www.hvf.jp/kobe-sannomiya/", "contact_phone": "+81 78-224-5500", "contact_email": null, "status": 1, "source_type": 1, "numberReviews": 332}, {"name": "Daiwa Roynet Hotel Nara", "type": "hotel", "image": "https://dynamic-media-cdn.tripadvisor.com/media/photo-o/1a/33/f2/3b/caption.jpg?w=1000&s=1", "address": "11-12 Sanjo Hommachi, Nara 630-8122 Nara Prefecture", "lat": 34.680283, "lng": 135.81772, "ref_id": 17694431, "rating": 4.5, "num_reviews": 0, "website": "https://www.daiwaroynet.jp/nara/", "contact_phone": "+81 742-30-6186", "contact_email": null, "status": 1, "source_type": 1, "numberReviews": 30}, {"name": "Hotel Sobial Osaka Dome Mae", "type": "hotel", "image": "https://dynamic-media-cdn.tripadvisor.com/media/photo-o/0e/e3/d0/71/photo0jpg.jpg?w=1000&s=1", "address": "1-17-29 Sangenya Higashi, Taisho-Ku, Osaka 551-0002 Qu\u00e2\u0323n Osaka", "lat": 34.66537, "lng": 135.47945, "ref_id": 11878795, "rating": 4, "num_reviews": 0, "website": "http://sobial.jp/", "contact_phone": "+81 6-6552-8011", "contact_email": null, "status": 1, "source_type": 1, "numberReviews": 70}, {"name": "Hotel Monterey Kyoto", "type": "hotel", "image": "https://dynamic-media-cdn.tripadvisor.com/media/photo-o/08/6d/1f/cb/caption.jpg?w=1000&s=1", "address": "604 Manjuyacho, Karasumadori Sanjo Sagaru, Nakagyo-Ku, Kyoto 604-8161 Qu\u00e2\u0323n Kyoto", "lat": 35.007812, "lng": 135.75937, "ref_id": 634599, "rating": 4, "num_reviews": 0, "website": "http://www.hotelmonterey.co.jp/kyoto/", "contact_phone": "+81 75-251-7111", "contact_email": "kytd@hotelmonterey.co.jp", "status": 1, "source_type": 1, "numberReviews": 2299}, {"name": "Natural Hot Spring Midosuji Hotel", "type": "hotel", "image": "https://dynamic-media-cdn.tripadvisor.com/media/photo-o/1b/69/a2/23/caption.jpg?w=1000&s=1", "address": "3-7-20, Namba, Chuo, Osaka 542-0076 Qu\u00e2\u0323n Osaka", "lat": 34.666214, "lng": 135.5009, "ref_id": 1083621, "rating": 4, "num_reviews": 0, "website": "http://www.bhsg.jp/midosuji/", "contact_phone": "+81 6-6644-1111", "contact_email": "midosuji@bhsg.jp", "status": 1, "source_type": 1, "numberReviews": 203}, {"name": "sequence KYOTO GOJO", "type": "hotel", "image": "https://dynamic-media-cdn.tripadvisor.com/media/photo-o/1b/cc/a1/e9/terrace-night.jpg?w=1000&s=1", "address": "409 Gojokarasumacho, Shimogyo-Ku, Kyoto 600-8418 Qu\u00e2\u0323n Kyoto", "lat": 34.997997, "lng": 135.75949, "ref_id": 19984158, "rating": 4, "num_reviews": 0, "website": "http://www.sequencehotels.com/kyoto-gojo/", "contact_phone": "+81 75-353-0031", "contact_email": "sequence-kyotogojo@gardenhotels.co.jp", "status": 1, "source_type": 1, "numberReviews": 29}, {"name": "Hotel Keihan Yodoyabashi", "type": "hotel", "image": "https://dynamic-media-cdn.tripadvisor.com/media/photo-o/19/36/5e/34/caption.jpg?w=1000&s=1", "address": "2-4-6 Kitahama, Chuo, Osaka 541-0041 Qu\u00e2\u0323n Osaka", "lat": 34.69113, "lng": 135.50473, "ref_id": 12241608, "rating": 4, "num_reviews": 0, "website": "http://www.hotelkeihan.co.jp/yodoyabashi/", "contact_phone": "+81 6-6229-0321", "contact_email": null, "status": 1, "source_type": 1, "numberReviews": 100}, {"name": "Daiwa Roynet Hotel Kyoto Shijo Karasuma", "type": "hotel", "image": "https://dynamic-media-cdn.tripadvisor.com/media/photo-o/08/a7/f9/c3/standard-twin-room--v7891900.jpg?w=1000&s=1", "address": "678 Omandokorocho, Karasumadori Bukkoji Sagaru, Shimogyo-Ku, Kyoto 600-8413 Qu\u00e2\u0323n Kyoto", "lat": 35.00091, "lng": 135.75969, "ref_id": 2530193, "rating": 4, "num_reviews": 0, "website": "http://www.daiwaroynet.jp/kyoto-shijo/", "contact_phone": "+81 75-342-1166", "contact_email": "kyoto-shijo@daiwaroyal.jp", "status": 1, "source_type": 1, "numberReviews": 703}, {"name": "La'gent Hotel Osaka Bay", "type": "hotel", "image": "https://dynamic-media-cdn.tripadvisor.com/media/photo-o/0f/b5/3a/1d/photo0jpg.jpg?w=1000&s=1", "address": "1-1-57 Sakurajima, Konohana-Ku, Osaka 554-0031 Qu\u00e2\u0323n Osaka", "lat": 34.66238, "lng": 135.43466, "ref_id": 12319749, "rating": 4, "num_reviews": 0, "website": "http://lagent.jp/osaka-bay/", "contact_phone": "+81 6-4804-1771", "contact_email": "osaka-bay@lagent.jp", "status": 1, "source_type": 1, "numberReviews": 61}, {"name": "Daiwa Roynet Hotel Yotsubashi", "type": "hotel", "image": "https://dynamic-media-cdn.tripadvisor.com/media/photo-o/09/d4/e1/fb/lobby--v10242780.jpg?w=1000&s=1", "address": "1-10-12 Shimmachi, Nishi-Ku, Osaka 550-0013 Qu\u00e2\u0323n Osaka", "lat": 34.677734, "lng": 135.49596, "ref_id": 302760, "rating": 4, "num_reviews": 0, "website": "http://www.daiwaroynet.jp/yotsubashi/", "contact_phone": "+81 6-6534-8055", "contact_email": "yotsubashi@daiwaroyal.jp", "status": 1, "source_type": 1, "numberReviews": 259}, {"name": "Rihga Royal Hotel Osaka", "type": "hotel", "image": "https://dynamic-media-cdn.tripadvisor.com/media/photo-o/2b/48/4e/c1/hotel-exterior.jpg?w=1000&s=1", "address": "5-3-68 Nakanoshima, Kita-ku Kita-Ku, Osaka 530-0005 Qu\u00e2\u0323n Osaka", "lat": 34.68995, "lng": 135.4873, "ref_id": 302408, "rating": 4, "num_reviews": 0, "website": "http://www.rihga.co.jp/osaka", "contact_phone": "+81 6-6448-1121", "contact_email": "osaka@rihga.co.jp", "status": 1, "source_type": 1, "numberReviews": 2121}, {"name": "Comfort Hotel Osaka Shinsaibashi", "type": "hotel", "image": "https://dynamic-media-cdn.tripadvisor.com/media/photo-o/2a/d3/bc/84/hotel-exterior.jpg?w=1000&s=1", "address": "1-15-15 Higashi-Shinsaibashi, Chuo, Osaka 542-0083 Qu\u00e2\u0323n Osaka", "lat": 34.67201, "lng": 135.5035, "ref_id": 299468, "rating": 4, "num_reviews": 0, "website": "https://www.choice-hotels.jp/hotel/shinsaibashi/", "contact_phone": "+81 6-6258-3111", "contact_email": "info@choice-hotels.jp", "status": 1, "source_type": 1, "numberReviews": 316}, {"name": "M's Hotel Gojo Odawara", "type": "hotel", "image": "https://dynamic-media-cdn.tripadvisor.com/media/photo-o/1d/d4/72/d2/exterior.jpg?w=1000&s=1", "address": "232 Odawaracho, Shimogyo-Ku, Kyoto 600-8430 Qu\u00e2\u0323n Kyoto", "lat": 34.997322, "lng": 135.75742, "ref_id": 17847753, "rating": 4, "num_reviews": 0, "website": "https://kyohotel.jp/hotel/gojoodawara/", "contact_phone": "+81 75-320-4139", "contact_email": "yoyaku@granms.jp", "status": 1, "source_type": 1, "numberReviews": 8}, {"name": "Teramachi Matsubara Hotel Grandereverie", "type": "hotel", "image": "https://dynamic-media-cdn.tripadvisor.com/media/photo-o/1a/07/52/54/habitacion-doble.jpg?w=1000&s=1", "address": "707-2 Uematsucho, Teramachidori Matsubara Sagaru, Shimogyo-Ku, Kyoto 600-8028 Qu\u00e2\u0323n Kyoto", "lat": 34.998737, "lng": 135.76701, "ref_id": 16529284, "rating": 5, "num_reviews": 0, "website": "http://grandereveriehotels.jp/teramachimatsubara/", "contact_phone": "+81 75-341-0577", "contact_email": "teramachimatsubara@grandereverie.jp", "status": 1, "source_type": 1, "numberReviews": 2}, {"name": "STAY in the City AMEMURA", "type": "hotel", "image": "https://dynamic-media-cdn.tripadvisor.com/media/photo-o/14/d7/98/55/wifi.jpg?w=1000&s=1", "address": "2-18-15 Nishishinsaibashi, Chuo, Osaka 542-0086 Qu\u00e2\u0323n Osaka", "lat": 34.67135, "lng": 135.49763, "ref_id": 13820789, "rating": 5, "num_reviews": 0, "website": null, "contact_phone": "+81 3-6427-2400", "contact_email": "amemura_support@stay-hotels.jp", "status": 1, "source_type": 1, "numberReviews": 2}, {"name": "Takuto Stay Kyobashi Tsumiki", "type": "hotel", "image": "https://dynamic-media-cdn.tripadvisor.com/media/photo-o/19/33/38/08/second-floor-free-space.jpg?w=1000&s=1", "address": "2-8-13 Katamachi, Miyakojima-ku, Osaka 534-0025 Qu\u00e2\u0323n Osaka", "lat": 34.69397, "lng": 135.52768, "ref_id": 15106443, "rating": 4.5, "num_reviews": 0, "website": "https://www.takuto-stay.com/kyobashi/", "contact_phone": "+81 6-4400-9487", "contact_email": "tkt.kyobashi@gmail.com", "status": 1, "source_type": 1, "numberReviews": 4}, {"name": "Kujo Stays", "type": "hotel", "image": "https://dynamic-media-cdn.tripadvisor.com/media/photo-o/17/e4/d8/6e/kujo-stays.jpg?w=1000&s=1", "address": "8 Higashikujo Nakatonodacho, Minami-Ku, Kyoto 601-8048 Qu\u00e2\u0323n Kyoto", "lat": 34.9811, "lng": 135.75566, "ref_id": 16656197, "rating": 5, "num_reviews": 0, "website": null, "contact_phone": "+81 75-574-7100", "contact_email": null, "status": 1, "source_type": 1, "numberReviews": 2}, {"name": "Daiwa Roynet Hotel Osaka Sakaisuji Hommachi", "type": "hotel", "image": "https://dynamic-media-cdn.tripadvisor.com/media/photo-o/28/24/de/79/2023-1.jpg?w=1000&s=1", "address": "1-5-10 Honcho, Chuo, Osaka 541-0053 Qu\u00e2\u0323n Osaka", "lat": 34.68375, "lng": 135.50768, "ref_id": 23721204, "rating": 3.5, "num_reviews": 0, "website": "http://www.daiwaroynet.jp/osaka-sakaisujihonmachi/", "contact_phone": "+81 6-4256-0655", "contact_email": null, "status": 1, "source_type": 1, "numberReviews": 7}, {"name": "Santana Guest House Kyoto", "type": "hotel", "image": "https://dynamic-media-cdn.tripadvisor.com/media/photo-o/0a/b2/9f/f2/double-bed-room-and-the.jpg?w=1000&s=1", "address": "45-2 Nanajo Goshonouchi Nakamachi, Shimogyo-Ku, Kyoto 600-8862 Qu\u00e2\u0323n Kyoto", "lat": 34.98644, "lng": 135.73155, "ref_id": 8804425, "rating": 3.5, "num_reviews": 0, "website": "https://www.facebook.com/santanakyoto/timeline?ref=page_internal", "contact_phone": "+81 75-201-1875", "contact_email": null, "status": 1, "source_type": 1, "numberReviews": 11}, {"name": "Centrage Ark Shinsaibashi", "type": "hotel", "image": "https://dynamic-media-cdn.tripadvisor.com/media/photo-o/16/d3/9c/20/photo6jpg.jpg?w=1000&s=1", "address": "1-14-27 Shimanouchi, Chuo, Osaka 542-0082 Qu\u00e2\u0323n Osaka", "lat": 34.673367, "lng": 135.50757, "ref_id": 15654361, "rating": 4.5, "num_reviews": 0, "website": null, "contact_phone": null, "contact_email": null, "status": 1, "source_type": 1, "numberReviews": 3}, {"name": "Minshuku Yamatoya", "type": "hotel", "image": "https://dynamic-media-cdn.tripadvisor.com/media/photo-o/0e/ce/18/94/dsc-0022-largejpg.jpg?w=1000&s=1", "address": "630-5 Hiratani, Totsukawa-mura, Yoshino-gun 637-1554 Nara Prefecture", "lat": 33.941402, "lng": 135.76674, "ref_id": 11679763, "rating": 3.5, "num_reviews": 0, "website": "http://www.yamatoya-totsukawa.com/", "contact_phone": "+81 746-64-0028", "contact_email": null, "status": 1, "source_type": 1, "numberReviews": 6}, {"name": "Kyo no Yado En", "type": "hotel", "image": "https://dynamic-media-cdn.tripadvisor.com/media/photo-o/17/6e/f0/5c/the-kiyomizu-dera-temple.jpg?w=1000&s=1", "address": "6-583-50 Gojohashi Higashi, Higashiyama-Ku, Kyoto 605-0846 Qu\u00e2\u0323n Kyoto", "lat": 34.995377, "lng": 135.77933, "ref_id": 16717532, "rating": 5, "num_reviews": 0, "website": "http://kyoto-en.com/", "contact_phone": "+81 75-606-5333", "contact_email": null, "status": 1, "source_type": 1, "numberReviews": 2}, {"name": "Sakaya Hanjiro", "type": "hotel", "image": "https://dynamic-media-cdn.tripadvisor.com/media/photo-o/26/9c/da/cb/caption.jpg?w=1000&s=1", "address": "413-1 Minamihiura, Tenkawa-mura, Yoshino-gun 638-0322 Nara Prefecture", "lat": 34.226135, "lng": 135.83833, "ref_id": 19851858, "rating": 4.5, "num_reviews": 0, "website": "https://sakaya-hanjiro.com/", "contact_phone": "+81 90-3282-2542", "contact_email": "info@sakaya-hanjiro.com", "status": 1, "source_type": 1, "numberReviews": 2}, {"name": "KKR Nara Mikasaso", "type": "hotel", "image": "https://dynamic-media-cdn.tripadvisor.com/media/photo-o/0e/0d/b3/f5/caption.jpg?w=1000&s=1", "address": "1224 Takabatakecho, Nara 630-8301 Nara Prefecture", "lat": 34.678303, "lng": 135.84273, "ref_id": 1087097, "rating": 3.5, "num_reviews": 0, "website": "http://www.kkrnara.com/", "contact_phone": "+81 742-22-5582", "contact_email": "", "status": 1, "source_type": 1, "numberReviews": 20}, {"name": "Houkousou", "type": "hotel", "image": "https://dynamic-media-cdn.tripadvisor.com/media/photo-s/02/bf/74/76/caption.jpg?w=1000&s=1", "address": "10-1 Koencho, Nagahama 526-0065 Shiga Prefecture", "lat": 35.37697, "lng": 136.2623, "ref_id": 1093196, "rating": 3.5, "num_reviews": 0, "website": "http://www.houkousou.com/", "contact_phone": "+81 749-62-0144", "contact_email": "", "status": 1, "source_type": 1, "numberReviews": 20}, {"name": "Foga Inn", "type": "hotel", "image": "https://dynamic-media-cdn.tripadvisor.com/media/photo-o/0a/b2/1b/ac/photo0jpg.jpg?w=1000&s=1", "address": "4-10-22 Minamisemba, Chuo, Osaka 542-0081 Qu\u00e2\u0323n Osaka", "lat": 34.677383, "lng": 135.49844, "ref_id": 8771296, "rating": 3.5, "num_reviews": 0, "website": null, "contact_phone": "+81 6-4708-4410", "contact_email": null, "status": 1, "source_type": 1, "numberReviews": 14}, {"name": "Orange-so", "type": "hotel", "image": "https://dynamic-media-cdn.tripadvisor.com/media/photo-o/0e/c1/da/22/photo0jpg.jpg?w=1000&s=1", "address": "196 Nadajoho, Minamiawaji 656-0551 Qu\u00e2\u0323n Hyogo", "lat": 34.209038, "lng": 134.8105, "ref_id": 2541801, "rating": 4.5, "num_reviews": 0, "website": "http://awaji-orangesou.com/", "contact_phone": "+81 799-56-0751", "contact_email": "", "status": 1, "source_type": 1, "numberReviews": 4}, {"name": "Sekai Hotel - Nishikujo", "type": "hotel", "image": "https://dynamic-media-cdn.tripadvisor.com/media/photo-o/17/0e/21/1f/ordinary-is-what-s-worth.jpg?w=1000&s=1", "address": "1-4-16 Nishikujo, Konohana-ku, Osaka 554-0012 Qu\u00e2\u0323n Osaka", "lat": 34.683697, "lng": 135.46893, "ref_id": 16556277, "rating": 5, "num_reviews": 0, "website": "https://www.sekaihotel.jp/area/nishikujo/", "contact_phone": "+81 6-6462-7770", "contact_email": null, "status": 1, "source_type": 1, "numberReviews": 2}, {"name": "Guest House Kyo no En Nishiya", "type": "hotel", "image": "https://dynamic-media-cdn.tripadvisor.com/media/photo-o/09/6c/9d/48/kyoto-guesthouse-kyo.jpg?w=1000&s=1", "address": "20-1 Kitashirakawa Shimobettocho, Sakyo-Ku, Kyoto 606-8286 Qu\u00e2\u0323n Kyoto", "lat": 35.030308, "lng": 135.79189, "ref_id": 3475894, "rating": 4, "num_reviews": 0, "website": null, "contact_phone": "+81 75-721-8178", "contact_email": "mail@kyonoen.com", "status": 1, "source_type": 1, "numberReviews": 7}, {"name": "Oyado Ashitamo", "type": "hotel", "image": "https://dynamic-media-cdn.tripadvisor.com/media/photo-o/02/bf/6a/fe/caption.jpg?w=1000&s=1", "address": "49-19, Saganomiyanomotocho, Ukyo-ku, Kyoto 616-8315 Qu\u00e2\u0323n Kyoto", "lat": 35.013832, "lng": 135.6928, "ref_id": 2530070, "rating": 4.5, "num_reviews": 0, "website": null, "contact_phone": "+81 75-881-5035", "contact_email": "kyotoasitamo@gmail.com", "status": 1, "source_type": 1, "numberReviews": 4}, {"name": "Rinn Kiyomizu-Gojo", "type": "hotel", "image": "https://dynamic-media-cdn.tripadvisor.com/media/photo-o/13/99/4b/f8/photo0jpg.jpg?w=1000&s=1", "address": "7-392 Miyagawasuji, Higashiyama-ku, Kyoto 605-0801 Qu\u00e2\u0323n Kyoto", "lat": 34.996964, "lng": 135.7696, "ref_id": 13846992, "rating": 4, "num_reviews": 0, "website": null, "contact_phone": "+81 75-746-2402", "contact_email": null, "status": 1, "source_type": 1, "numberReviews": 6}, {"name": "Otaniya", "type": "hotel", "image": "https://dynamic-media-cdn.tripadvisor.com/media/photo-o/08/74/47/02/caption.jpg?w=1000&s=1", "address": "375-3 Tochio, Tenkawa-mura, Yoshino-gun 638-0542 Nara Prefecture", "lat": 34.203712, "lng": 135.82222, "ref_id": 1910149, "rating": 4.5, "num_reviews": 0, "website": "http://www.ntcs.ne.jp/tenkawa/shop/tomaru/39.html", "contact_phone": "+81 747-65-0009", "contact_email": "", "status": 1, "source_type": 1, "numberReviews": 4}, {"name": "Kyoyado Okara", "type": "hotel", "image": "https://dynamic-media-cdn.tripadvisor.com/media/photo-o/11/97/c8/60/manga-room-view-from.jpg?w=1000&s=1", "address": "477 Nishinotoincho, Shimogyo-Ku, Kyoto 600-8327 Qu\u00e2\u0323n Kyoto", "lat": 34.99254, "lng": 135.75508, "ref_id": 12418969, "rating": 4.5, "num_reviews": 0, "website": "http://kyoto-okara.com/", "contact_phone": "+81 75-741-6420", "contact_email": null, "status": 1, "source_type": 1, "numberReviews": 3}, {"name": "Wakatake", "type": "hotel", "image": "https://dynamic-media-cdn.tripadvisor.com/media/photo-o/05/ed/ad/c9/caption.jpg?w=1000&s=1", "address": "1062-8 Tsubaki, Shirahama-cho, Nishimuro-gun 649-2326 Wakayama Prefecture", "lat": 33.603027, "lng": 135.3904, "ref_id": 2018795, "rating": 4, "num_reviews": 0, "website": "http://www.spa-wakatake.com/", "contact_phone": "+81 739-46-0716", "contact_email": "", "status": 1, "source_type": 1, "numberReviews": 5},