[{"name": "Due Pietro", "type": "restaurant", "image": "https://dynamic-media-cdn.tripadvisor.com/media/photo-o/12/85/0f/b2/caption.jpg?w=1000&s=1", "address": "2-2-43, Tenjin, Chuo, Fukuoka 810-0001 Qu\u00e2\u0323n Fukuoka", "lat": 33.589058, "lng": 130.39882, "ref_id": 1702930, "rating": 4, "num_reviews": 0, "website": null, "contact_phone": "+81 92-733-7508", "contact_email": "", "status": 1, "source_type": 1, "numberReviews": 4}, {"name": "Hakata Sanki Chikushino", "type": "restaurant", "image": "https://dynamic-media-cdn.tripadvisor.com/media/photo-o/0d/4c/14/ff/store-interior.jpg?w=1000&s=1", "address": "1-1-6 Tonoharunishi Tenpaizaka entrance, Chikushino 818-0073 Qu\u00e2\u0323n Fukuoka", "lat": 33.497093, "lng": 130.50461, "ref_id": 11667069, "rating": 4, "num_reviews": 0, "website": "http://hakata-sanki.jp/", "contact_phone": "+81 92-408-6766", "contact_email": "g-21331-70798@mail.talknote.com", "status": 1, "source_type": 1, "numberReviews": 5}, {"name": "Bar le Atori", "type": "restaurant", "image": "https://dynamic-media-cdn.tripadvisor.com/media/photo-o/10/4b/68/8c/caption.jpg?w=1000&s=1", "address": "1-1-23 Takasago Fukuoka Toei Hotel 1F, Chuo, Fukuoka 810-0011 Qu\u00e2\u0323n Fukuoka", "lat": 33.581852, "lng": 130.40556, "ref_id": 10725665, "rating": 3.5, "num_reviews": 0, "website": "https://www.toeihotel-fukuoka.com/restaurant#381303", "contact_phone": "+81 92-524-2126", "contact_email": null, "status": 1, "source_type": 1, "numberReviews": 6}, {"name": "Solae Dining Hana", "type": "restaurant", "image": "https://dynamic-media-cdn.tripadvisor.com/media/photo-o/12/43/97/83/solae-dining-hana.jpg?w=1000&s=1", "address": "739 Aoki 3F Fukuoka International Airport Passenger Terminal Bldg., Hakata, Fukuoka 812-0851 Qu\u00e2\u0323n Fukuoka", "lat": 33.58464, "lng": 130.44528, "ref_id": 13479056, "rating": 3.5, "num_reviews": 0, "website": null, "contact_phone": null, "contact_email": null, "status": 1, "source_type": 1, "numberReviews": 5}, {"name": "Ito King Hakata Gem-Dori", "type": "restaurant", "image": "https://dynamic-media-cdn.tripadvisor.com/media/photo-o/13/1a/b9/ae/caption.jpg?w=1000&s=1", "address": "1-1 Hakataekichuogai, Hakata, Fukuoka 812-0012 Qu\u00e2\u0323n Fukuoka", "lat": 33.590496, "lng": 130.42107, "ref_id": 13068897, "rating": 3.5, "num_reviews": 0, "website": null, "contact_phone": "+81 92-431-1507", "contact_email": null, "status": 1, "source_type": 1, "numberReviews": 7}, {"name": "Magarikado", "type": "restaurant", "image": "https://dynamic-media-cdn.tripadvisor.com/media/photo-o/15/1c/88/21/caption.jpg?w=1000&s=1", "address": "Aobadai, Dazaifu 818-0137 Qu\u00e2\u0323n Fukuoka", "lat": 33.5129, "lng": 130.48643, "ref_id": 1680172, "rating": 4, "num_reviews": 0, "website": null, "contact_phone": "+81 92-924-4875", "contact_email": "", "status": 1, "source_type": 1, "numberReviews": 4}, {"name": "Sakanaichiba Daimyo", "type": "restaurant", "image": "https://dynamic-media-cdn.tripadvisor.com/media/photo-o/18/7e/6f/9f/caption.jpg?w=1000&s=1", "address": "2-9-5 Daimyo 2F Grand Building ,2-9-5, Chuo, Fukuoka 810-0041 Qu\u00e2\u0323n Fukuoka", "lat": 33.589928, "lng": 130.39366, "ref_id": 17690067, "rating": 4.5, "num_reviews": 0, "website": "https://sakanaichiba-daimyo.com/?utm_source=google&utm_medium=map%2F", "contact_phone": "+81 92-713-6544", "contact_email": null, "status": 1, "source_type": 1, "numberReviews": 2}, {"name": "Giblets Nabe Pot Shishi", "type": "restaurant", "image": "https://dynamic-media-cdn.tripadvisor.com/media/photo-o/05/d6/89/47/giblets-nabe-pot-shishi.jpg?w=1000&s=1", "address": "2-4-35 Yakuin Estate More Chateau Yakuin 102, Chuo, Fukuoka 810-0022 Qu\u00e2\u0323n Fukuoka", "lat": 33.581, "lng": 130.39532, "ref_id": 6057548, "rating": 4.5, "num_reviews": 0, "website": null, "contact_phone": "+81 92-713-2244", "contact_email": null, "status": 1, "source_type": 1, "numberReviews": 2}, {"name": "Hiroshimaokonomiyaki Sampachi Hakata", "type": "restaurant", "image": "https://dynamic-media-cdn.tripadvisor.com/media/photo-o/0b/ba/c6/e5/caption.jpg?w=1000&s=1", "address": "3-11-32 Sarayama Minami-Ku, Fukuoka Qu\u00e2\u0323n Fukuoka", "lat": 33.543297, "lng": 130.40219, "ref_id": 7469501, "rating": 4, "num_reviews": 0, "website": null, "contact_phone": "+81 92-512-3815", "contact_email": null, "status": 1, "source_type": 1, "numberReviews": 4}, {"name": "McDonald's Noma Oike", "type": "restaurant", "image": "https://dynamic-media-cdn.tripadvisor.com/media/photo-o/05/d5/63/05/mcdonald-s-noma-oike.jpg?w=1000&s=1", "address": "1-1-1 Terazuka Minami-Ku, Fukuoka 815-0074 Qu\u00e2\u0323n Fukuoka", "lat": 33.555565, "lng": 130.40637, "ref_id": 6044672, "rating": 4, "num_reviews": 0, "website": null, "contact_phone": "+81 92-554-6690", "contact_email": null, "status": 1, "source_type": 1, "numberReviews": 6}, {"name": "Joyfull Hirokawa", "type": "restaurant", "image": "https://dynamic-media-cdn.tripadvisor.com/media/photo-o/10/45/a5/3b/caption.jpg?w=1000&s=1", "address": "957-1 Niishiro, Hirokawa-machi, Yame-gun 834-0115 Qu\u00e2\u0323n Fukuoka", "lat": 33.24832, "lng": 130.5444, "ref_id": 7631863, "rating": 3.5, "num_reviews": 0, "website": null, "contact_phone": "+81 943-33-1065", "contact_email": null, "status": 1, "source_type": 1, "numberReviews": 7}, {"name": "Yoshinoya Kurume Kamitsu", "type": "restaurant", "image": "https://dynamic-media-cdn.tripadvisor.com/media/photo-o/0b/ac/8c/ad/photo0jpg.jpg?w=1000&s=1", "address": "1417-14 Kamitsumachi, Kurume 830-0052 Qu\u00e2\u0323n Fukuoka", "lat": 33.289505, "lng": 130.53036, "ref_id": 6049672, "rating": 3.5, "num_reviews": 0, "website": "https://stores.yoshinoya.com/ysn_044829", "contact_phone": "+81 942-51-0505", "contact_email": null, "status": 1, "source_type": 1, "numberReviews": 7}, {"name": "Memboteuchi-An Yame", "type": "restaurant", "image": "https://dynamic-media-cdn.tripadvisor.com/media/photo-o/13/cf/f4/c1/memboteuchi-an-yame.jpg?w=1000&s=1", "address": "791 Yoshida, Yame Qu\u00e2\u0323n Fukuoka", "lat": 33.225414, "lng": 130.55724, "ref_id": 7548064, "rating": 4, "num_reviews": 0, "website": null, "contact_phone": "+81 943-24-6505", "contact_email": null, "status": 1, "source_type": 1, "numberReviews": 4}, {"name": "Magasin de Camion", "type": "restaurant", "image": "https://dynamic-media-cdn.tripadvisor.com/media/photo-o/0f/20/c4/38/photo1jpg.jpg?w=1000&s=1", "address": "31-19 Higashimachi, Kurume Qu\u00e2\u0323n Fukuoka", "lat": 33.312138, "lng": 130.51764, "ref_id": 7547043, "rating": 4.5, "num_reviews": 0, "website": null, "contact_phone": "+81 942-38-2225", "contact_email": null, "status": 1, "source_type": 1, "numberReviews": 4}, {"name": "Gasto Kurume Chuo", "type": "restaurant", "image": "https://dynamic-media-cdn.tripadvisor.com/media/photo-o/0f/2c/bb/59/caption.jpg?w=1000&s=1", "address": "14-10 Mutsumoncho, Kurume 830-0031 Qu\u00e2\u0323n Fukuoka", "lat": 33.310707, "lng": 130.51349, "ref_id": 9655659, "rating": 4, "num_reviews": 0, "website": null, "contact_phone": "+81 942-40-0560", "contact_email": null, "status": 1, "source_type": 1, "numberReviews": 5}, {"name": "Sushikin Emakkusu", "type": "restaurant", "image": "https://dynamic-media-cdn.tripadvisor.com/media/photo-o/15/ef/13/69/caption.jpg?w=1000&s=1", "address": "316-2 Higashimachi, Kurume 830-0032 Qu\u00e2\u0323n Fukuoka", "lat": 33.31276, "lng": 130.52135, "ref_id": 13070113, "rating": 4.5, "num_reviews": 0, "website": null, "contact_phone": "+81 942-34-4513", "contact_email": null, "status": 1, "source_type": 1, "numberReviews": 4}, {"name": "Forest Tobikata", "type": "restaurant", "image": "https://dynamic-media-cdn.tripadvisor.com/media/photo-o/16/28/ce/d7/caption.jpg?w=1000&s=1", "address": "2174-5 Shiraki Tachibanamachi, Yame 834-0084 Qu\u00e2\u0323n Fukuoka", "lat": 33.15811, "lng": 130.56308, "ref_id": 13261282, "rating": 4.5, "num_reviews": 0, "website": null, "contact_phone": "+81 943-35-1777", "contact_email": null, "status": 1, "source_type": 1, "numberReviews": 3}, {"name": "Kushitora", "type": "restaurant", "image": "https://dynamic-media-cdn.tripadvisor.com/media/photo-o/09/b4/33/f9/photo0jpg.jpg?w=1000&s=1", "address": "1-19 Kogashira-Machi, Kurume Qu\u00e2\u0323n Fukuoka", "lat": 33.31417, "lng": 130.51003, "ref_id": 7668511, "rating": 4.5, "num_reviews": 0, "website": null, "contact_phone": "+81 942-31-2100", "contact_email": null, "status": 1, "source_type": 1, "numberReviews": 4}, {"name": "Dining Toride", "type": "restaurant", "image": "https://dynamic-media-cdn.tripadvisor.com/media/photo-o/05/d4/f9/63/dining-toride.jpg?w=1000&s=1", "address": "32-30 Higashimachi, Kurume 830-0032 Qu\u00e2\u0323n Fukuoka", "lat": 33.312084, "lng": 130.51782, "ref_id": 6061976, "rating": 4, "num_reviews": 0, "website": null, "contact_phone": "+81 942-37-7326", "contact_email": null, "status": 1, "source_type": 1, "numberReviews": 5}, {"name": "Champon Center Araki", "type": "restaurant", "image": "https://dynamic-media-cdn.tripadvisor.com/media/photo-o/1b/07/f6/87/caption.jpg?w=1000&s=1", "address": "1109-1 Fujita Arakimachi, Kurume Qu\u00e2\u0323n Fukuoka", "lat": 33.261143, "lng": 130.51057, "ref_id": 7546993, "rating": 4.5, "num_reviews": 0, "website": null, "contact_phone": "+81 942-26-8808", "contact_email": null, "status": 1, "source_type": 1, "numberReviews": 4}, {"name": "Yakiniku (Grilled meat) no Koga", "type": "restaurant", "image": "https://dynamic-media-cdn.tripadvisor.com/media/photo-o/12/48/19/78/caption.jpg?w=1000&s=1", "address": "4-7 Suwanomachi, Kurume Qu\u00e2\u0323n Fukuoka", "lat": 33.31128, "lng": 130.5244, "ref_id": 3851279, "rating": 3.5, "num_reviews": 0, "website": null, "contact_phone": "+81 942-36-0362", "contact_email": null, "status": 1, "source_type": 1, "numberReviews": 7}, {"name": "Yuzuan, Kurume Honten", "type": "restaurant", "image": "https://dynamic-media-cdn.tripadvisor.com/media/photo-o/08/ae/12/26/caption.jpg?w=1000&s=1", "address": "125-1 Kushiharamachi, Kurume 830-0013 Qu\u00e2\u0323n Fukuoka", "lat": 33.31939, "lng": 130.5166, "ref_id": 8446069, "rating": 5, "num_reviews": 0, "website": "http://yuzuan.co.jp", "contact_phone": "+81 942-38-5559", "contact_email": null, "status": 1, "source_type": 1, "numberReviews": 3}, {"name": "Sumiyaki Toriken", "type": "restaurant", "image": "https://dynamic-media-cdn.tripadvisor.com/media/photo-o/19/ec/ba/f3/1811.jpg?w=1000&s=1", "address": "105-21 Torimachi, Kurume 830-0018 Qu\u00e2\u0323n Fukuoka", "lat": 33.31614, "lng": 130.51831, "ref_id": 19331125, "rating": 5, "num_reviews": 0, "website": "https://www.facebook.com/SumiyakiToriken/", "contact_phone": "+81 942-34-2089", "contact_email": null, "status": 1, "source_type": 1, "numberReviews": 2}, {"name": "Abekobe", "type": "restaurant", "image": null, "address": "12-14 Hommachi, Kurume 830-0044 Qu\u00e2\u0323n Fukuoka", "lat": 33.31203, "lng": 130.5075, "ref_id": 16887623, "rating": 5, "num_reviews": 0, "website": "http://www.kurume-abekobe.com/", "contact_phone": "+81 942-65-8535", "contact_email": null, "status": 1, "source_type": 1, "numberReviews": 1}, {"name": "Coco Ichibanya Kurume Karihara", "type": "restaurant", "image": "https://dynamic-media-cdn.tripadvisor.com/media/photo-o/05/d6/f5/73/coco-ichibanya-kurume.jpg?w=1000&s=1", "address": "1527-1 Kokubumachi, Kurume 839-0863 Qu\u00e2\u0323n Fukuoka", "lat": 33.297535, "lng": 130.52696, "ref_id": 6050658, "rating": 4, "num_reviews": 0, "website": null, "contact_phone": "+81 942-51-0801", "contact_email": null, "status": 1, "source_type": 1, "numberReviews": 6}, {"name": "Takeco1982", "type": "restaurant", "image": "https://dynamic-media-cdn.tripadvisor.com/media/photo-o/14/68/52/5b/caption.jpg?w=1000&s=1", "address": "102-10 Torimachi Takeda Bldg.1F, Kurume 830-0018 Qu\u00e2\u0323n Fukuoka", "lat": 33.316467, "lng": 130.51701, "ref_id": 15051616, "rating": 5, "num_reviews": 0, "website": "http://takeco1982.com/", "contact_phone": "+81 942-39-8600", "contact_email": null, "status": 1, "source_type": 1, "numberReviews": 2}, {"name": "McDonald's 208 Yanagawa Store", "type": "restaurant", "image": "https://dynamic-media-cdn.tripadvisor.com/media/photo-o/05/d7/0f/ed/mcdonald-s-208-yanagawa.jpg?w=1000&s=1", "address": "890-1 Mitsuhashimachi Yanagawa, Yanagawa 832-0806 Qu\u00e2\u0323n Fukuoka", "lat": 33.177197, "lng": 130.40285, "ref_id": 6071591, "rating": 4, "num_reviews": 0, "website": null, "contact_phone": "+81 944-74-8250", "contact_email": null, "status": 1, "source_type": 1, "numberReviews": 13}, {"name": "Patisserie Jeu. Jeux", "type": "restaurant", "image": "https://dynamic-media-cdn.tripadvisor.com/media/photo-o/1a/b2/a8/4a/caption.jpg?w=1000&s=1", "address": "337-2 Mitsuhashimachi Kamafunatsu, Yanagawa Qu\u00e2\u0323n Fukuoka", "lat": 33.16588, "lng": 130.42383, "ref_id": 7547855, "rating": 4.5, "num_reviews": 0, "website": null, "contact_phone": "+81 944-75-6322", "contact_email": null, "status": 1, "source_type": 1, "numberReviews": 3}, {"name": "Iriya Udon", "type": "restaurant", "image": "https://dynamic-media-cdn.tripadvisor.com/media/photo-o/0a/7c/0b/b8/photo0jpg.jpg?w=1000&s=1", "address": "201 Chuodori, Yamaga Kumamoto Prefecture", "lat": 33.014355, "lng": 130.68457, "ref_id": 7537845, "rating": 4.5, "num_reviews": 0, "website": null, "contact_phone": "+81 968-43-6029", "contact_email": null, "status": 1, "source_type": 1, "numberReviews": 17}, {"name": "Kahoku Hanten", "type": "restaurant", "image": "https://dynamic-media-cdn.tripadvisor.com/media/photo-o/17/dd/6c/dc/img-20190608-142649-largejpg.jpg?w=1000&s=1", "address": "1 Onsen Plaza 1F, Yamaga 861-0501 Kumamoto Prefecture", "lat": 33.014492, "lng": 130.6894, "ref_id": 6043467, "rating": 4.5, "num_reviews": 0, "website": "http://ja-jp.facebook.com/kahokuhanten/", "contact_phone": "+81 968-43-2853", "contact_email": null, "status": 1, "source_type": 1, "numberReviews": 14}, {"name": "Pizzeria da Tsurubara", "type": "restaurant", "image": "https://dynamic-media-cdn.tripadvisor.com/media/photo-o/10/ba/44/ea/photo0jpg.jpg?w=1000&s=1", "address": "1495 Yamaga, Yamaga 861-0501 Kumamoto Prefecture", "lat": 33.017006, "lng": 130.68864, "ref_id": 6050256, "rating": 4, "num_reviews": 0, "website": "https://www.facebook.com/tsurubara2004/info/?tab=page_info", "contact_phone": "+81 968-43-8920", "contact_email": "rhworks7021@hotmail.com", "status": 1, "source_type": 1, "numberReviews": 13}, {"name": "Fukuyama Bakery", "type": "restaurant", "image": "https://dynamic-media-cdn.tripadvisor.com/media/photo-o/1b/2e/ad/f6/photo0jpg.jpg?w=1000&s=1", "address": "1777-13 Kawanobori, Arao Kumamoto Prefecture", "lat": 32.973602, "lng": 130.46341, "ref_id": 3787793, "rating": 4.5, "num_reviews": 0, "website": "http://fukuyama-bakery.co.jp/", "contact_phone": "+81 968-64-4300", "contact_email": null, "status": 1, "source_type": 1, "numberReviews": 8}, {"name": "Azumi Udon Omuta", "type": "restaurant", "image": "https://dynamic-media-cdn.tripadvisor.com/media/photo-o/08/6c/d1/a1/caption.jpg?w=1000&s=1", "address": "413-1 Funatsumachi, Omuta 836-0073 Qu\u00e2\u0323n Fukuoka", "lat": 33.009235, "lng": 130.43843, "ref_id": 6226261, "rating": 4.5, "num_reviews": 0, "website": null, "contact_phone": "+81 944-56-5011", "contact_email": null, "status": 1, "source_type": 1, "numberReviews": 9}, {"name": "Raimu", "type": "restaurant", "image": "https://dynamic-media-cdn.tripadvisor.com/media/photo-o/12/e2/92/e2/imag0667-largejpg.jpg?w=1000&s=1", "address": "4-13-1 Higashiyakata, Arao Kumamoto Prefecture", "lat": 32.98019, "lng": 130.4524, "ref_id": 7537633, "rating": 4, "num_reviews": 0, "website": "http://u-raimu.jp/", "contact_phone": "+81 968-64-7778", "contact_email": null, "status": 1, "source_type": 1, "numberReviews": 9}, {"name": "Yamaguchi Unagi-Ya", "type": "restaurant", "image": "https://dynamic-media-cdn.tripadvisor.com/media/photo-o/10/66/9b/32/photo0jpg.jpg?w=1000&s=1", "address": "1-286 Tenryomachi, Omuta Qu\u00e2\u0323n Fukuoka", "lat": 33.016426, "lng": 130.43712, "ref_id": 7547495, "rating": 4.5, "num_reviews": 0, "website": null, "contact_phone": "+81 944-54-4675", "contact_email": null, "status": 1, "source_type": 1, "numberReviews": 10}, {"name": "Kikusui no Sato", "type": "restaurant", "image": "https://dynamic-media-cdn.tripadvisor.com/media/photo-o/18/a7/4f/7e/caption.jpg?w=1000&s=1", "address": "276-1 Maebaru, Nagomi-machi, Tamana-gun 865-0126 Kumamoto Prefecture", "lat": 32.988827, "lng": 130.6086, "ref_id": 10069160, "rating": 4, "num_reviews": 0, "website": "http://www.kikusuinosato.com/", "contact_phone": "+81 968-86-5055", "contact_email": null, "status": 1, "source_type": 1, "numberReviews": 10}, {"name": "Kousen Dago Kuranaga", "type": "restaurant", "image": "https://dynamic-media-cdn.tripadvisor.com/media/photo-o/0e/d7/17/22/caption.jpg?w=1000&s=1", "address": "1678 Kuranaga, Omuta Qu\u00e2\u0323n Fukuoka", "lat": 33.085625, "lng": 130.45956, "ref_id": 3868088, "rating": 4, "num_reviews": 0, "website": "http://www.kousendago.com/", "contact_phone": "+81 944-58-1711", "contact_email": null, "status": 1, "source_type": 1, "numberReviews": 10}, {"name": "Vishunutamana", "type": "restaurant", "image": "https://dynamic-media-cdn.tripadvisor.com/media/photo-o/16/c5/8f/04/photo2jpg.jpg?w=1000&s=1", "address": "155-1 Uoyacho Takase, Tamana Kumamoto Prefecture", "lat": 32.930096, "lng": 130.56473, "ref_id": 7537781, "rating": 5, "num_reviews": 0, "website": "http://bishnu-group.net/", "contact_phone": "+81 968-72-0885", "contact_email": null, "status": 1, "source_type": 1, "numberReviews": 5}, {"name": "Tofu Kobo Higo No Chaya", "type": "restaurant", "image": "https://dynamic-media-cdn.tripadvisor.com/media/photo-o/0b/c0/55/22/photo2jpg.jpg?w=1000&s=1", "address": "920-1 Kobaru Nankan-Machi, Nankan-machi, Tamana-gun 861-0811 Kumamoto Prefecture", "lat": 33.045612, "lng": 130.56483, "ref_id": 6071806, "rating": 4, "num_reviews": 0, "website": null, "contact_phone": "+81 968-53-3057", "contact_email": null, "status": 1, "source_type": 1, "numberReviews": 11}, {"name": "Matsunoya", "type": "restaurant", "image": null, "address": "139-26 Kurogawacho Kokurogawa, Imari Saga Prefecture", "lat": 33.329426, "lng": 129.85147, "ref_id": 7500455, "rating": -1, "num_reviews": 0, "website": null, "contact_phone": "+81 955-27-0136", "contact_email": null, "status": 1, "source_type": 1, "numberReviews": 0}, {"name": "Yuko Tea", "type": "restaurant", "image": null, "address": "643-1 Miyanomachi, Hirado 859-5112 Nagasaki Prefecture", "lat": 33.370266, "lng": 129.55234, "ref_id": 20165614, "rating": -1, "num_reviews": 0, "website": null, "contact_phone": "+81 950-22-2470", "contact_email": null, "status": 1, "source_type": 1, "numberReviews": 0}, {"name": "Izakaya Nogunogu", "type": "restaurant", "image": null, "address": "723 Hasuwamen, Saza-cho, Kitamatsura-gun Nagasaki Prefecture", "lat": 33.23635, "lng": 129.65097, "ref_id": 7484180, "rating": -1, "num_reviews": 0, "website": null, "contact_phone": "+81 956-62-5008", "contact_email": null, "status": 1, "source_type": 1, "numberReviews": 0}, {"name": "Sangen", "type": "restaurant", "image": null, "address": "325-1 Satomen Shisacho, Matsuura Nagasaki Prefecture", "lat": null, "lng": null, "ref_id": 7531048, "rating": -1, "num_reviews": 0, "website": null, "contact_phone": "+81 956-72-5253", "contact_email": null, "status": 1, "source_type": 1, "numberReviews": 0}, {"name": "Izakayashunraku", "type": "restaurant", "image": null, "address": "434 Kihikidacho, Hirado 859-5113 Nagasaki Prefecture", "lat": 33.367054, "lng": 129.55212, "ref_id": 13059919, "rating": -1, "num_reviews": 0, "website": null, "contact_phone": "+81 950-22-4855", "contact_email": null, "status": 1, "source_type": 1, "numberReviews": 0}, {"name": "Suzume No Yado", "type": "restaurant", "image": null, "address": "256 Onocho, Sasebo Nagasaki Prefecture", "lat": 33.21219, "lng": 129.7398, "ref_id": 7472413, "rating": -1, "num_reviews": 0, "website": null, "contact_phone": "+81 956-49-7485", "contact_email": null, "status": 1, "source_type": 1, "numberReviews": 0}, {"name": "Hana", "type": "restaurant", "image": null, "address": "11-5 Tabarucho, Sasebo 857-0136 Nagasaki Prefecture", "lat": 33.207058, "lng": 129.72102, "ref_id": 9672945, "rating": -1, "num_reviews": 0, "website": null, "contact_phone": "+81 956-40-6367", "contact_email": null, "status": 1, "source_type": 1, "numberReviews": 0}, {"name": "Nisugi", "type": "restaurant", "image": null, "address": "921-5 Kamimotoyamacho, Sasebo 858-0903 Nagasaki Prefecture", "lat": 33.208298, "lng": 129.68913, "ref_id": 17356165, "rating": -1, "num_reviews": 0, "website": null, "contact_phone": "+81 956-40-6121", "contact_email": null, "status": 1, "source_type": 1, "numberReviews": 0}, {"name": "Temma", "type": "restaurant", "image": null, "address": "557-2 Irino Hizencho, Karatsu Saga Prefecture", "lat": 33.444347, "lng": 129.81026, "ref_id": 7670093, "rating": -1, "num_reviews": 0, "website": null, "contact_phone": "+81 955-54-1980", "contact_email": null, "status": 1, "source_type": 1, "numberReviews": 0}, {"name": "Rice Club Mikuriya", "type": "restaurant", "image": null, "address": "345 Mikuriyacho Satomen, Matsuura 859-4752 Nagasaki Prefecture", "lat": 33.365265, "lng": 129.6664, "ref_id": 13060225, "rating": -1, "num_reviews": 0, "website": null, "contact_phone": "+81 956-75-2777", "contact_email": null, "status": 1, "source_type": 1, "numberReviews": 0}, {"name": "Petit Saito Pastry", "type": "restaurant", "image": null, "address": "191 Hontabarumen Saza-Cho, Saza-cho, Kitamatsura-gun 857-0311 Nagasaki Prefecture", "lat": 33.236923, "lng": 129.65048, "ref_id": 13060192, "rating": -1, "num_reviews": 0, "website": null, "contact_phone": "+81 956-62-2774", "contact_email": null, "status": 1, "source_type": 1, "numberReviews": 0}, {"name": "Oasis Msc Gairai Shokudo Nagasaki Rosai Hospital", "type": "restaurant", "image": null, "address": "2-12-5 Setogoe, Sasebo Nagasaki Prefecture", "lat": 33.20977, "lng": 129.73288, "ref_id": 7472045, "rating": -1, "num_reviews": 0, "website": null, "contact_phone": "+81 956-49-2191", "contact_email": null, "status": 1, "source_type": 1, "numberReviews": 0}, {"name": "Hachibe", "type": "restaurant", "image": null, "address": "176-4 Emukaecho Nagasaka, Sasebo 859-6101 Nagasaki Prefecture", "lat": 33.30652, "lng": 129.6296, "ref_id": 13059736, "rating": -1, "num_reviews": 0, "website": null, "contact_phone": "+81 956-65-3775", "contact_email": null, "status": 1, "source_type": 1, "numberReviews": 0}, {"name": "Suzuna Dininig Room", "type": "restaurant", "image": null, "address": "690-7 Yoshii-Cho Tahara, Sasebo 859-6314 Nagasaki Prefecture", "lat": 33.256317, "lng": 129.69856, "ref_id": 13060328, "rating": -1, "num_reviews": 0, "website": null, "contact_phone": "+81 956-64-2052", "contact_email": null, "status": 1, "source_type": 1, "numberReviews": 0}, {"name": "Yuyake SHOKUDO+CAFE", "type": "restaurant", "image": null, "address": "843 Tabirachokotedamen, Hirado 859-4824 Nagasaki Prefecture", "lat": 33.357677, "lng": 129.57666, "ref_id": 20810122, "rating": -1, "num_reviews": 0, "website": "https://www.qoll-japan.com/service/%E5%A4%95%E3%82%84%E3%81%91%E9%A3%9F%E5%A0%82/", "contact_phone": "+81 950-22-7733", "contact_email": null, "status": 1, "source_type": 1, "numberReviews": 0}, {"name": "Shunsaiya Amrita", "type": "restaurant", "image": "https://dynamic-media-cdn.tripadvisor.com/media/photo-o/05/d5/bb/8d/shunsaiya-amrita.jpg?w=1000&s=1", "address": "1928-9 Yoshiokacho Ohno Residence Bldg. 101, Sasebo 857-0143 Nagasaki Prefecture", "lat": 33.21027, "lng": 129.70998, "ref_id": 6052950, "rating": -1, "num_reviews": 0, "website": null, "contact_phone": "+81 956-40-7650", "contact_email": null, "status": 1, "source_type": 1, "numberReviews": 0}, {"name": "Yamaguchi Confectionery", "type": "restaurant", "image": null, "address": "2-29 Kouramen, Saza-cho, Kitamatsura-gun 857-0361 Nagasaki Prefecture", "lat": 33.221004, "lng": 129.64362, "ref_id": 13060437, "rating": -1, "num_reviews": 0, "website": null, "contact_phone": "+81 956-62-2061", "contact_email": null, "status": 1, "source_type": 1, "numberReviews": 0}, {"name": "Indole", "type": "restaurant", "image": null, "address": "450 Kihikidacho, Hirado 859-5113 Nagasaki Prefecture", "lat": 33.367558, "lng": 129.5524, "ref_id": 9656053, "rating": -1, "num_reviews": 0, "website": null, "contact_phone": "+81 950-22-3383", "contact_email": null, "status": 1, "source_type": 1, "numberReviews": 0}, {"name": "Torimasa", "type": "restaurant", "image": null, "address": "17-32 Tabarucho, Sasebo Nagasaki Prefecture", "lat": 33.208427, "lng": 129.71852, "ref_id": 7472426, "rating": -1, "num_reviews": 0, "website": null, "contact_phone": "+81 956-59-7170", "contact_email": null, "status": 1, "source_type": 1, "numberReviews": 0}, {"name": "Furusato", "type": "restaurant", "image": null, "address": "195-2 Higashiyamashirocho Sato, Imari Saga Prefecture", "lat": 33.28708, "lng": 129.83502, "ref_id": 7500416, "rating": -1, "num_reviews": 0, "website": null, "contact_phone": "+81 955-28-2858", "contact_email": null, "status": 1, "source_type": 1, "numberReviews": 0}, {"name": "Ebisuteitabira", "type": "restaurant", "image": null, "address": "1444-1 Tabirachoogitamen, Hirado Nagasaki Prefecture", "lat": 33.343697, "lng": 129.58958, "ref_id": 7530889, "rating": -1, "num_reviews": 0, "website": null, "contact_phone": "+81 950-57-3222", "contact_email": null, "status": 1, "source_type": 1, "numberReviews": 0}, {"name": "Rice Club Imafuku", "type": "restaurant", "image": null, "address": "451 Uramen Imafukucho, Matsuura 859-4528 Nagasaki Prefecture", "lat": 33.353256, "lng": 129.7636, "ref_id": 13060223, "rating": -1, "num_reviews": 0, "website": null, "contact_phone": "+81 956-74-0111", "contact_email": null, "status": 1, "source_type": 1, "numberReviews": 0}, {"name": "Ma Merck Coffee", "type": "restaurant", "image": null, "address": "308-4 Kagamigawacho, Hirado 859-5152 Nagasaki Prefecture", "lat": 33.368904, "lng": 129.54948, "ref_id": 14738927, "rating": -1, "num_reviews": 0, "website": null, "contact_phone": "+81 950-23-8225", "contact_email": null, "status": 1, "source_type": 1, "numberReviews": 0}, {"name": "Yakiniku No Wakoen", "type": "restaurant", "image": null, "address": "50-1, Saza-cho, Kitamatsura-gun 857-0300 Nagasaki Prefecture", "lat": 33.22734, "lng": 129.64244, "ref_id": 7484192, "rating": -1, "num_reviews": 0, "website": null, "contact_phone": "+81 956-62-3282", "contact_email": null, "status": 1, "source_type": 1, "numberReviews": 0}, {"name": "Tokunaga Dining Hall", "type": "restaurant", "image": null, "address": "465 Tateishi, Yoshiimachi, Sasebo 859-6326 Nagasaki Prefecture", "lat": 33.268715, "lng": 129.68661, "ref_id": 9614379, "rating": -1, "num_reviews": 0, "website": null, "contact_phone": "+81 956-64-2058", "contact_email": null, "status": 1, "source_type": 1, "numberReviews": 0}, {"name": "Yamako Izakaya", "type": "restaurant", "image": null, "address": "346-1 Tabira-Cho Yamanouchimen, Hirado 859-4825 Nagasaki Prefecture", "lat": 33.363285, "lng": 129.57828, "ref_id": 13060441, "rating": -1, "num_reviews": 0, "website": null, "contact_phone": "+81 950-57-3447", "contact_email": null, "status": 1, "source_type": 1, "numberReviews": 0}, {"name": "Miyako Restaurant", "type": "restaurant", "image": null, "address": "8-1 Tabarucho, Sasebo Nagasaki Prefecture", "lat": 33.208717, "lng": 129.72186, "ref_id": 7472190, "rating": -1, "num_reviews": 0, "website": null, "contact_phone": "+81 956-49-2824", "contact_email": null, "status": 1, "source_type": 1, "numberReviews": 0}, {"name": "Shotlim", "type": "restaurant", "image": null, "address": "216-6 Tateishi, Yoshiimachi, Sasebo 859-6326 Nagasaki Prefecture", "lat": 33.26757, "lng": 129.68488, "ref_id": 14858596, "rating": -1, "num_reviews": 0, "website": null, "contact_phone": "+81 956-64-3747", "contact_email": null, "status": 1, "source_type": 1, "numberReviews": 0}, {"name": "Jun Yakitori", "type": "restaurant", "image": null, "address": "412 Yamashirocho Tachiiwa, Imari Saga Prefecture", "lat": 33.335403, "lng": 129.79208, "ref_id": 7631713, "rating": -1, "num_reviews": 0, "website": null, "contact_phone": "+81 955-28-3983", "contact_email": null, "status": 1, "source_type": 1, "numberReviews": 0}, {"name": "Sukiya No. 204 Sasebo Tabaru", "type": "restaurant", "image": null, "address": "17-23 Tabarucho, Sasebo 857-0136 Nagasaki Prefecture", "lat": 33.208065, "lng": 129.71918, "ref_id": 17840769, "rating": -1, "num_reviews": 0, "website": null, "contact_phone": "+81 120-498-007", "contact_email": null, "status": 1, "source_type": 1, "numberReviews": 0}, {"name": "Wakaba Ramen", "type": "restaurant", "image": null, "address": "1-2783 Wakaba-Cho, Nobeoka 882-0875 Miyazaki Prefecture", "lat": 32.551815, "lng": 131.66779, "ref_id": 13034724, "rating": -1, "num_reviews": 0, "website": null, "contact_phone": "+81 982-32-6370", "contact_email": null, "status": 1, "source_type": 1, "numberReviews": 0}, {"name": "Dagashiya Chi-Chan", "type": "restaurant", "image": null, "address": "1-5-48 Nishisakaecho, Kadogawa-cho, Higashiusuki-gun 889-0622 Miyazaki Prefecture", "lat": 32.47862, "lng": 131.6477, "ref_id": 13034026, "rating": -1, "num_reviews": 0, "website": null, "contact_phone": "+81 982-63-7567", "contact_email": null, "status": 1, "source_type": 1, "numberReviews": 0}, {"name": "Night Cafe3", "type": "restaurant", "image": null, "address": "2-3602-1 Noji-Machi, Nobeoka 882-0802 Miyazaki Prefecture", "lat": 32.576782, "lng": 131.6447, "ref_id": 13270229, "rating": -1, "num_reviews": 0, "website": null, "contact_phone": "+81 982-20-2339", "contact_email": null, "status": 1, "source_type": 1, "numberReviews": 0}, {"name": "Kochan", "type": "restaurant", "image": null, "address": "1256-1 Kawazuru Kitakatamachi, Nobeoka Miyazaki Prefecture", "lat": 32.561558, "lng": 131.5249, "ref_id": 7515759, "rating": -1, "num_reviews": 0, "website": null, "contact_phone": "+81 982-47-2770", "contact_email": null, "status": 1, "source_type": 1, "numberReviews": 0}, {"name": "Teradaya", "type": "restaurant", "image": null, "address": "408-28 Hama-Machi, Nobeoka Miyazaki Prefecture", "lat": 32.554886, "lng": 131.67961, "ref_id": 7515793, "rating": -1, "num_reviews": 0, "website": null, "contact_phone": "+81 982-33-5850", "contact_email": null, "status": 1, "source_type": 1, "numberReviews": 0}, {"name": "Nabechan", "type": "restaurant", "image": null, "address": "5025-4 Notamachi, Nobeoka 882-0801 Miyazaki Prefecture", "lat": 32.57303, "lng": 131.63797, "ref_id": 14739641, "rating": -1, "num_reviews": 0, "website": null, "contact_phone": "+81 982-34-6884", "contact_email": null, "status": 1, "source_type": 1, "numberReviews": 0}, {"name": "Cafe Kowan", "type": "restaurant", "image": null, "address": "2-158 Minamigaoka, Kadogawa-cho, Higashiusuki-gun 889-0617 Miyazaki Prefecture", "lat": 32.457737, "lng": 131.64258, "ref_id": 16856020, "rating": -1, "num_reviews": 0, "website": "https://www.facebook.com/809112602776401/", "contact_phone": "+81 982-63-2002", "contact_email": null, "status": 1, "source_type": 1, "numberReviews": 0}, {"name": "Nempoya Shokudo", "type": "restaurant", "image": null, "address": "3-145 Saiwai-Machi, Nobeoka Miyazaki Prefecture", "lat": 32.58976, "lng": 131.67085, "ref_id": 7515825, "rating": -1, "num_reviews": 0, "website": null, "contact_phone": "+81 982-32-4464", "contact_email": null, "status": 1, "source_type": 1, "numberReviews": 0}, {"name": "Restaurant Hiro", "type": "restaurant", "image": null, "address": "2-22-6 Midorigaoka, Nobeoka 882-0863 Miyazaki Prefecture", "lat": 32.55456, "lng": 131.6829, "ref_id": 10652111, "rating": -1, "num_reviews": 0, "website": null, "contact_phone": "+81 982-33-7775", "contact_email": null, "status": 1, "source_type": 1, "numberReviews": 0}, {"name": "Shiba Sushi", "type": "restaurant", "image": null, "address": "2-45 Saiwaimachi, Nobeoka Miyazaki Prefecture", "lat": 32.588524, "lng": 131.6717, "ref_id": 7515877, "rating": -1, "num_reviews": 0, "website": null, "contact_phone": "+81 982-32-0508", "contact_email": null, "status": 1, "source_type": 1, "numberReviews": 0}, {"name": "Teppambashiroyama", "type": "restaurant", "image": null, "address": "1-4-5 Funaguramachi, Nobeoka 882-0826 Miyazaki Prefecture", "lat": 32.581867, "lng": 131.67023, "ref_id": 13034679, "rating": -1, "num_reviews": 0, "website": null, "contact_phone": "+81 982-26-0033", "contact_email": null, "status": 1, "source_type": 1, "numberReviews": 0}, {"name": "Aimenya Futsu No Joto", "type": "restaurant", "image": null, "address": "1-3-5 Chuodori, Nobeoka 882-0824 Miyazaki Prefecture", "lat": 32.582287, "lng": 131.66905, "ref_id": 14739646, "rating": -1, "num_reviews": 0, "website": null, "contact_phone": "+81 982-27-1314", "contact_email": null, "status": 1, "source_type": 1, "numberReviews": 0}, {"name": "Sanfuru", "type": "restaurant", "image": null, "address": "614-1 Furukawacho, Nobeoka 882-0063 Miyazaki Prefecture", "lat": 32.58509, "lng": 131.6541, "ref_id": 9656837, "rating": -1, "num_reviews": 0, "website": null, "contact_phone": "+81 982-34-0787", "contact_email": null, "status": 1, "source_type": 1, "numberReviews": 0}, {"name": "Hello Lunch Marukawa", "type": "restaurant", "image": null, "address": "2-66 Kakusa, Kadogawa-cho, Higashiusuki-gun 889-0603 Miyazaki Prefecture", "lat": 32.490128, "lng": 131.66293, "ref_id": 13034127, "rating": -1, "num_reviews": 0, "website": null, "contact_phone": "+81 120-225-820", "contact_email": null, "status": 1, "source_type": 1, "numberReviews": 0}, {"name": "Yakiniku King Nobeoka", "type": "restaurant", "image": null, "address": "113-14 Oroshihonmachi, Nobeoka 882-0855 Miyazaki Prefecture", "lat": null, "lng": null, "ref_id": 21082302, "rating": -1, "num_reviews": 0, "website": "https://www.yakiniku-king.jp/sys/Shop/index/562#barba-wrapper", "contact_phone": "+81 982-20-8129", "contact_email": null, "status": 1, "source_type": 1, "numberReviews": 0}, {"name": "Live Bar Copakabana", "type": "restaurant", "image": null, "address": "1-5-1 Funaguracho Marunouchi Building BF1, Nobeoka 882-0826 Miyazaki Prefecture", "lat": 32.58187, "lng": 131.66946, "ref_id": 9668409, "rating": -1, "num_reviews": 0, "website": null, "contact_phone": "+81 982-21-7777", "contact_email": null, "status": 1, "source_type": 1, "numberReviews": 0}, {"name": "Kurogane", "type": "restaurant", "image": null, "address": "1-5-1 Funaguramachi Marunouchi Bldg. B1, Nobeoka 882-0826 Miyazaki Prefecture", "lat": 32.58187, "lng": 131.66946, "ref_id": 10656221, "rating": -1, "num_reviews": 0, "website": null, "contact_phone": "+81 982-29-2941", "contact_email": null, "status": 1, "source_type": 1, "numberReviews": 0}, {"name": "Ishidaya", "type": "restaurant", "image": null, "address": "1-2-1 Hommachi, Nobeoka 882-0821 Miyazaki Prefecture", "lat": 32.580303, "lng": 131.66846, "ref_id": 9621358, "rating": -1, "num_reviews": 0, "website": null, "contact_phone": "+81 982-32-0503", "contact_email": null, "status": 1, "source_type": 1, "numberReviews": 0}, {"name": "Mensho Nagomi Nobeoka", "type": "restaurant", "image": null, "address": "5-697-1 Hirabarumachi, Nobeoka 882-0866 Miyazaki Prefecture", "lat": 32.5524, "lng": 131.67809, "ref_id": 13034415, "rating": -1, "num_reviews": 0, "website": null, "contact_phone": "+81 982-35-6678", "contact_email": null, "status": 1, "source_type": 1, "numberReviews": 0}, {"name": "En Shokudo", "type": "restaurant", "image": null, "address": "6-3193 Idekita, Nobeoka 882-0856 Miyazaki Prefecture", "lat": 32.571796, "lng": 131.68407, "ref_id": 9656827, "rating": -1, "num_reviews": 0, "website": null, "contact_phone": "+81 982-34-3225", "contact_email": null, "status": 1, "source_type": 1, "numberReviews": 0}, {"name": "Mikuniya Bread", "type": "restaurant", "image": null, "address": "2001-1 Awanomyocho, Nobeoka 882-0025 Miyazaki Prefecture", "lat": 32.59731, "lng": 131.68599, "ref_id": 13034419, "rating": -1, "num_reviews": 0, "website": null, "contact_phone": "+81 982-32-6667", "contact_email": null, "status": 1, "source_type": 1, "numberReviews": 0}, {"name": "Shibu Chaya", "type": "restaurant", "image": null, "address": "2-6-4 Funaguracho, Nobeoka Miyazaki Prefecture", "lat": 32.581688, "lng": 131.6714, "ref_id": 7515662, "rating": -1, "num_reviews": 0, "website": null, "contact_phone": "+81 982-32-5674", "contact_email": null, "status": 1, "source_type": 1, "numberReviews": 0}, {"name": "Asahi", "type": "restaurant", "image": null, "address": "5-12 Shimmachi Koutoku Building 2F, Nobeoka 882-0827 Miyazaki Prefecture", "lat": 32.580914, "lng": 131.6701, "ref_id": 9621361, "rating": -1, "num_reviews": 0, "website": null, "contact_phone": "+81 982-34-6678", "contact_email": null, "status": 1, "source_type": 1, "numberReviews": 0}, {"name": "Wish", "type": "restaurant", "image": null, "address": "1-3-3-1 Honcho, Nobeoka 882-0821 Miyazaki Prefecture", "lat": 32.579933, "lng": 131.66753, "ref_id": 9668399, "rating": -1, "num_reviews": 0, "website": null, "contact_phone": "+81 982-35-6753", "contact_email": null, "status": 1, "source_type": 1, "numberReviews": 0}, {"name": "Ausans Bar", "type": "restaurant", "image": null, "address": "6-6 Shinmachi, Nobeoka 882-0827 Miyazaki Prefecture", "lat": 32.581017, "lng": 131.66954, "ref_id": 20164695, "rating": -1, "num_reviews": 0, "website": null, "contact_phone": "+81 982-27-5732", "contact_email": null, "status": 1, "source_type": 1, "numberReviews": 0}, {"name": "Izakaya Tomo", "type": "restaurant", "image": null, "address": "2-98-1 Saiwaicho, Nobeoka Miyazaki Prefecture", "lat": 32.588825, "lng": 131.67133, "ref_id": 7515800, "rating": -1, "num_reviews": 0, "website": null, "contact_phone": "+81 982-34-6461", "contact_email": null, "status": 1, "source_type": 1, "numberReviews": 0}, {"name": "Tae", "type": "restaurant", "image": null, "address": "9-8 Shimmachi, Nobeoka Miyazaki Prefecture", "lat": 32.581158, "lng": 131.67075, "ref_id": 7515788, "rating": -1, "num_reviews": 0, "website": null, "contact_phone": "+81 982-35-6872", "contact_email": null, "status": 1, "source_type": 1, "numberReviews": 0}, {"name": "Cafe & Goods Tali Kasih", "type": "restaurant", "image": "https://dynamic-media-cdn.tripadvisor.com/media/photo-o/05/d5/f4/46/cafe-goods-tali-kasih.jpg?w=1000&s=1", "address": "1676-8 Kurogi, Kitago-ku, Misato-cho, Higashiusuki-gun 889-0903 Miyazaki Prefecture", "lat": 32.52435, "lng": 131.51456, "ref_id": 6279962, "rating": -1, "num_reviews": 0, "website": null, "contact_phone": "+81 982-62-6382", "contact_email": null, "status": 1, "source_type": 1, "numberReviews": 0}, {"name": "Tawara", "type": "restaurant", "image": null, "address": "2-1-15 Minamicho, Nobeoka 882-0822 Miyazaki Prefecture", "lat": 32.58102, "lng": 131.66643, "ref_id": 10660317, "rating": -1, "num_reviews": 0, "website": null, "contact_phone": "+81 982-21-5931", "contact_email": null, "status": 1, "source_type": 1, "numberReviews": 0}, {"name": "Koyo", "type": "restaurant", "image": null, "address": "1-4-12 Minami-Machi, Nobeoka Miyazaki Prefecture", "lat": 32.581173, "lng": 131.66737, "ref_id": 7515798, "rating": -1, "num_reviews": 0, "website": null, "contact_phone": "+81 982-34-6010", "contact_email": null, "status": 1, "source_type": 1, "numberReviews": 0}, {"name": "Floresta Kumamoto Hikari No Mori", "type": "restaurant", "image": "https://dynamic-media-cdn.tripadvisor.com/media/photo-o/12/13/3f/5a/photo0jpg.jpg?w=1000&s=1", "address": "7-23-11 Hikarinomori, Kikuyo-machi, Kikuchi-gun Kumamoto Prefecture", "lat": 32.862865, "lng": 130.78685, "ref_id": 7484305, "rating": 4, "num_reviews": 0, "website": null, "contact_phone": "+81 96-288-9971", "contact_email": null, "status": 1, "source_type": 1, "numberReviews": 1}, {"name": "Madoka", "type": "restaurant", "image": null, "address": "5158-1 Oaza Kawayo, Minamiaso-mura, Aso-gun Kumamoto Prefecture", "lat": 32.884224, "lng": 130.99588, "ref_id": 7484461, "rating": 4, "num_reviews": 0, "website": null, "contact_phone": "+81 967-67-0245", "contact_email": null, "status": 1, "source_type": 1, "numberReviews": 1}, {"name": "Piattino Italia", "type": "restaurant", "image": "https://dynamic-media-cdn.tripadvisor.com/media/photo-o/11/da/1c/33/caption.jpg?w=1000&s=1", "address": "2-4-9 Hanatate, Higashi-ku, Kumamoto 861-2118 Kumamoto Prefecture", "lat": 32.780327, "lng": 130.77435, "ref_id": 6057738, "rating": 3.5, "num_reviews": 0, "website": null, "contact_phone": "+81 96-367-3073", "contact_email": null, "status": 1, "source_type": 1, "numberReviews": 3}, {"name": "Sakanayasan No Daidokoro", "type": "restaurant", "image": "https://dynamic-media-cdn.tripadvisor.com/media/photo-o/10/e2/f8/3a/photo0jpg.jpg?w=1000&s=1", "address": "3-13-13 Shimonabe Higashi-Ku, Kumamoto Kumamoto Prefecture", "lat": 32.82354, "lng": 130.76047, "ref_id": 7471593, "rating": 4, "num_reviews": 0, "website": null, "contact_phone": "+81 96-389-6321", "contact_email": null, "status": 1, "source_type": 1, "numberReviews": 1}, {"name": "Shimada", "type": "restaurant", "image": null, "address": "3-1-1 Shinhoka Higashi-Ku, Kumamoto Kumamoto Prefecture", "lat": 32.7988, "lng": 130.763, "ref_id": 7470835, "rating": 4, "num_reviews": 0, "website": null, "contact_phone": "+81 96-360-1412", "contact_email": null, "status": 1, "source_type": 1, "numberReviews": 1}, {"name": "Jackto Pie No Mi", "type": "restaurant", "image": null, "address": "2-22-12 Goryo Higashi-Ku, Kumamoto Kumamoto Prefecture", "lat": 32.823784, "lng": 130.76451, "ref_id": 7470837, "rating": 3.5, "num_reviews": 0, "website": null, "contact_phone": "+81 96-380-4691", "contact_email": null, "status": 1, "source_type": 1, "numberReviews": 2}, {"name": "Mos Burger Kumamoto Kengun", "type": "restaurant", "image": null, "address": "1-4-13 Hanatate Higashi-Ku, Kumamoto Kumamoto Prefecture", "lat": 32.777885, "lng": 130.77347, "ref_id": 7471044, "rating": 4, "num_reviews": 0, "website": null, "contact_phone": "+81 96-367-0658", "contact_email": null, "status": 1, "source_type": 1, "numberReviews": 1}, {"name": "Okonomiyaki Dotonbori Kumamoto Inter", "type": "restaurant", "image": "https://dynamic-media-cdn.tripadvisor.com/media/photo-o/0a/33/71/18/caption.jpg?w=1000&s=1", "address": "1-1-130 Ishiwara Higashi-Ku, Kumamoto 861-8046 Kumamoto Prefecture", "lat": 32.83768, "lng": 130.7784, "ref_id": 6044981, "rating": 3.5, "num_reviews": 0, "website": null, "contact_phone": "+81 96-349-0538", "contact_email": null, "status": 1, "source_type": 1, "numberReviews": 8}, {"name": "Tentekomura", "type": "restaurant", "image": null, "address": "3-1-102 Shinhoka Higashi-Ku, Kumamoto Kumamoto Prefecture", "lat": 32.798664, "lng": 130.76306, "ref_id": 7470918, "rating": 4, "num_reviews": 0, "website": null, "contact_phone": "+81 96-365-2677", "contact_email": null, "status": 1, "source_type": 1, "numberReviews": 1}, {"name": "Kyoeido Sakuragiten", "type": "restaurant", "image": null, "address": "Hanatate, Kumamoto 862-0918 Kumamoto Prefecture", "lat": 32.78137, "lng": 130.77486, "ref_id": 1704803, "rating": 4, "num_reviews": 0, "website": "", "contact_phone": "+81 96-365-3630", "contact_email": "", "status": 1, "source_type": 1, "numberReviews": 1}, {"name": "Yakiniku Nabeshima Kengun", "type": "restaurant", "image": "https://dynamic-media-cdn.tripadvisor.com/media/photo-o/1c/7f/30/9f/photo5jpg.jpg?w=1000&s=1", "address": "5-9-15 Hanatate Higashi-Ku, Kumamoto Kumamoto Prefecture", "lat": 32.78863, "lng": 130.77242, "ref_id": 7471429, "rating": 3.5, "num_reviews": 0, "website": null, "contact_phone": "+81 96-360-8111", "contact_email": null, "status": 1, "source_type": 1, "numberReviews": 3}, {"name": "Osaka Ohsho Hikari No Mori Yume Town", "type": "restaurant", "image": null, "address": "7-33-1 Hikari No Mori, Kikuyomachi Yume Town Hikari No Mori 1F Restaurant Street, Kikuyo-machi, Kikuchi-gun 869-1108 Kumamoto Prefecture", "lat": 32.858868, "lng": 130.79144, "ref_id": 10648858, "rating": 4, "num_reviews": 0, "website": null, "contact_phone": "+81 96-213-5717", "contact_email": null, "status": 1, "source_type": 1, "numberReviews": 1}, {"name": "Horidashi House", "type": "restaurant", "image": null, "address": "1271-1 Otsu Toretate Ichiba, Ozu-machi, Kikuchi-gun 869-1233 Kumamoto Prefecture", "lat": 32.87428, "lng": 130.87086, "ref_id": 10010156, "rating": 4, "num_reviews": 0, "website": null, "contact_phone": "+81 96-293-3294", "contact_email": null, "status": 1, "source_type": 1, "numberReviews": 1}, {"name": "Takumi No Nakatsu Karaage Kenritsudai Mae", "type": "restaurant", "image": null, "address": "2-6-10 Tsukide, Higashi-Ku, Kumamoto 862-0920 Kumamoto Prefecture", "lat": 32.805126, "lng": 130.76378, "ref_id": 9691235, "rating": 3.5, "num_reviews": 0, "website": null, "contact_phone": "+81 96-385-5588", "contact_email": null, "status": 1, "source_type": 1, "numberReviews": 3}, {"name": "Shinjuku Sakuratei", "type": "restaurant", "image": "https://dynamic-media-cdn.tripadvisor.com/media/photo-o/05/d5/32/66/shinjuku-sakuratei.jpg?w=1000&s=1", "address": "7-33-1 Hikarinomori Kikuyo-Machi Yume Town Hikarinomori 1F, Kikuyo-machi, Kikuchi-gun 869-1108 Kumamoto Prefecture", "lat": 32.86034, "lng": 130.78453, "ref_id": 6070587, "rating": 4, "num_reviews": 0, "website": null, "contact_phone": "+81 96-233-0703", "contact_email": null, "status": 1, "source_type": 1, "numberReviews": 1}, {"name": "Rindo", "type": "restaurant", "image": "https://dynamic-media-cdn.tripadvisor.com/media/photo-o/0d/1f/35/1f/caption.jpg?w=1000&s=1", "address": "808-5 Kurokawa, Aso Kumamoto Prefecture", "lat": 32.880707, "lng": 131.0739, "ref_id": 7432917, "rating": 4, "num_reviews": 0, "website": null, "contact_phone": "+81 967-34-0411", "contact_email": null, "status": 1, "source_type": 1, "numberReviews": 1}, {"name": "Musashi Chaya Soba Sen", "type": "restaurant", "image": "https://dynamic-media-cdn.tripadvisor.com/media/photo-o/0d/19/66/4b/caption.jpg?w=1000&s=1", "address": "5-13-7 Musashigaoka Kita-Ku, Kumamoto Kumamoto Prefecture", "lat": 32.85481, "lng": 130.7716, "ref_id": 7471398, "rating": 4, "num_reviews": 0, "website": null, "contact_phone": "+81 96-338-9935", "contact_email": null, "status": 1, "source_type": 1, "numberReviews": 1}, {"name": "Katsugyo Taichi", "type": "restaurant", "image": null, "address": "164-2 Oaza Tsukure, Kikuyo-machi, Kikuchi-gun 869-1101 Kumamoto Prefecture", "lat": 32.862465, "lng": 130.82124, "ref_id": 10012996, "rating": 4, "num_reviews": 0, "website": null, "contact_phone": "+81 96-285-8384", "contact_email": null, "status": 1, "source_type": 1, "numberReviews": 1}, {"name": "Shiki No Mori", "type": "restaurant", "image": null, "address": "3160 Hisaishi, Minamiaso-mura, Aso-gun Kumamoto Prefecture", "lat": 32.815113, "lng": 131.05067, "ref_id": 7484471, "rating": 4, "num_reviews": 0, "website": null, "contact_phone": "+81 967-67-2212", "contact_email": null, "status": 1, "source_type": 1, "numberReviews": 1}, {"name": "Kyushu Sushi Ichiba, Youme Town Hikarinomori", "type": "restaurant", "image": "https://dynamic-media-cdn.tripadvisor.com/media/photo-o/05/e0/5b/29/caption.jpg?w=1000&s=1", "address": "7-39-1 Hikarinomori, Kikuyo-machi, Kikuchi-gun 869-1108 Kumamoto Prefecture", "lat": 32.859432, "lng": 130.78546, "ref_id": 5599523, "rating": 3.5, "num_reviews": 0, "website": "http://www.sushiichiba.jp/shop/", "contact_phone": "+81 96-233-1939", "contact_email": null, "status": 1, "source_type": 1, "numberReviews": 4}, {"name": "Hana Mizuki", "type": "restaurant", "image": null, "address": "975-2 Muro, Ozu-machi, Kikuchi-gun Kumamoto Prefecture", "lat": 32.877083, "lng": 130.85509, "ref_id": 7484300, "rating": 4, "num_reviews": 0, "website": null, "contact_phone": "+81 96-294-5177", "contact_email": null, "status": 1, "source_type": 1, "numberReviews": 1}, {"name": "Hanagin", "type": "restaurant", "image": null, "address": "678-14 Hikinomizu, Ozu-machi, Kikuchi-gun 869-1234 Kumamoto Prefecture", "lat": 32.88022, "lng": 130.88486, "ref_id": 1703969, "rating": 3.5, "num_reviews": 0, "website": "", "contact_phone": "+81 96-293-1171", "contact_email": "", "status": 1, "source_type": 1, "numberReviews": 2}, {"name": "Takeya Udon", "type": "restaurant", "image": null, "address": "9-4-54 Obiyama, Chuo-Ku, Kumamoto 862-0924 Kumamoto Prefecture", "lat": 32.80538, "lng": 130.76176, "ref_id": 9672671, "rating": 4, "num_reviews": 0, "website": null, "contact_phone": "+81 96-382-1038", "contact_email": null, "status": 1, "source_type": 1, "numberReviews": 1}, {"name": "Wakana", "type": "restaurant", "image": "https://dynamic-media-cdn.tripadvisor.com/media/photo-o/0b/41/20/86/caption.jpg?w=1000&s=1", "address": "820 Akamizu, Aso Kumamoto Prefecture", "lat": 32.916805, "lng": 130.99365, "ref_id": 7432951, "rating": 4, "num_reviews": 0, "website": null, "contact_phone": "+81 967-35-0415", "contact_email": null, "status": 1, "source_type": 1, "numberReviews": 1}, {"name": "Pastalista Kumamoto Kusunoki", "type": "restaurant", "image": "https://dynamic-media-cdn.tripadvisor.com/media/photo-o/05/d6/54/f3/pastalista-kumamoto-kusunoki.jpg?w=1000&s=1", "address": "7-8-15 Kusunoki Kita-Ku, Kumamoto 861-8003 Kumamoto Prefecture", "lat": 32.849937, "lng": 130.76245, "ref_id": 6070866, "rating": 4, "num_reviews": 0, "website": null, "contact_phone": "+81 96-215-2008", "contact_email": null, "status": 1, "source_type": 1, "numberReviews": 1}, {"name": "Healthy Mame Cafe", "type": "restaurant", "image": null, "address": "3-3-45 Goryo, Higashi-Ku Healty, Kumamoto 861-8035 Kumamoto Prefecture", "lat": 32.82396, "lng": 130.77155, "ref_id": 9661549, "rating": 4, "num_reviews": 0, "website": null, "contact_phone": "+81 96-285-1197", "contact_email": null, "status": 1, "source_type": 1, "numberReviews": 1}, {"name": "Kyushu Sushi Ichiba, Dai-2 Kukodori", "type": "restaurant", "image": null, "address": "5-1-3 Hanatate, Higashi-ku, Kumamoto 862-0918 Kumamoto Prefecture", "lat": 32.788513, "lng": 130.77037, "ref_id": 5599508, "rating": 3.5, "num_reviews": 0, "website": "http://www.sushiichiba.jp/shop/", "contact_phone": "+81 96-368-1717", "contact_email": null, "status": 1, "source_type": 1, "numberReviews": 2}, {"name": "Seoul Korean Restaurant", "type": "restaurant", "image": null, "address": "5579-3 Kawayo Aso Farm Land Restaurant Building, 1F, Minamiaso-mura, Aso-gun 869-1404 Kumamoto Prefecture", "lat": 32.897816, "lng": 131.00655, "ref_id": 10014526, "rating": 4, "num_reviews": 0, "website": null, "contact_phone": "+81 967-67-0001", "contact_email": null, "status": 1, "source_type": 1, "numberReviews": 1}, {"name": "Tawarayama Wakimizu Soba", "type": "restaurant", "image": "https://dynamic-media-cdn.tripadvisor.com/media/photo-o/0a/b7/15/14/photo0jpg.jpg?w=1000&s=1", "address": "1805-8 Komori, Nishihara-mura, Aso-gun Kumamoto Prefecture", "lat": 32.841354, "lng": 130.93495, "ref_id": 7484433, "rating": 4, "num_reviews": 0, "website": null, "contact_phone": "+81 96-279-4255", "contact_email": null, "status": 1, "source_type": 1, "numberReviews": 1}, {"name": "Sligo", "type": "restaurant", "image": null, "address": "215-2 Muro, Ozu-machi, Kikuchi-gun Kumamoto Prefecture", "lat": 32.876366, "lng": 130.86525, "ref_id": 7484263, "rating": 3.5, "num_reviews": 0, "website": null, "contact_phone": "+81 96-294-6331", "contact_email": null, "status": 1, "source_type": 1, "numberReviews": 2}, {"name": "Spaghetti and Pizza Jolly Pasta", "type": "restaurant", "image": "https://dynamic-media-cdn.tripadvisor.com/media/photo-o/09/47/d9/a8/caption.jpg?w=1000&s=1", "address": "8-4-81 Goryo Higashi-Ku, Kumamoto Kumamoto Prefecture", "lat": 32.83055, "lng": 130.77133, "ref_id": 7470870, "rating": 3.5, "num_reviews": 0, "website": null, "contact_phone": "+81 96-213-9112", "contact_email": null, "status": 1, "source_type": 1, "numberReviews": 8}, {"name": "Shunsaisenbi Kafuu", "type": "restaurant", "image": "https://dynamic-media-cdn.tripadvisor.com/media/photo-o/05/d5/fd/07/shunsaisenbi-kafuu.jpg?w=1000&s=1", "address": "1-8-23 Jozan Handa Nishi-Ku, Kumamoto 860-0064 Kumamoto Prefecture", "lat": 32.774643, "lng": 130.65675, "ref_id": 6052653, "rating": 4, "num_reviews": 0, "website": null, "contact_phone": "+81 96-329-8288", "contact_email": null, "status": 1, "source_type": 1, "numberReviews": 3}, {"name": "Yakiniku Restaurant en Hikarinomori", "type": "restaurant", "image": "https://dynamic-media-cdn.tripadvisor.com/media/photo-o/06/21/11/64/caption.jpg?w=1000&s=1", "address": "2-11-1 Shinyama Kikuyo-Machi, Kikuyo-machi, Kikuchi-gun 869-1109 Kumamoto Prefecture", "lat": 32.86654, "lng": 130.78189, "ref_id": 6053816, "rating": 4, "num_reviews": 0, "website": "http://www.able-co.com/en/shop.html", "contact_phone": "+81 96-285-4529", "contact_email": null, "status": 1, "source_type": 1, "numberReviews": 4}, {"name": "Noodle Shop Tadokoro Shoten Nirenoki", "type": "restaurant", "image": "https://dynamic-media-cdn.tripadvisor.com/media/photo-o/1b/e8/1a/08/photo8jpg.jpg?w=1000&s=1", "address": "4-5-6 Nirenoki, Kita-Ku, Kumamoto 861-8083 Kumamoto Prefecture", "lat": 32.849594, "lng": 130.75557, "ref_id": 9672764, "rating": 4, "num_reviews": 0, "website": null, "contact_phone": "+81 96-338-8844", "contact_email": null, "status": 1, "source_type": 1, "numberReviews": 3}, {"name": "Men-Ya Bishamon", "type": "restaurant", "image": "https://dynamic-media-cdn.tripadvisor.com/media/photo-o/1c/42/d9/59/dsc-8786-largejpg.jpg?w=1000&s=1", "address": "401-8 Sajitcho, Uto 869-0406 Kumamoto Prefecture", "lat": 32.69494, "lng": 130.66867, "ref_id": 7512233, "rating": 4, "num_reviews": 0, "website": null, "contact_phone": "+81 964-53-9458", "contact_email": null, "status": 1, "source_type": 1, "numberReviews": 2}, {"name": "Sanji Hikari No Mori", "type": "restaurant", "image": "https://dynamic-media-cdn.tripadvisor.com/media/photo-o/09/f4/be/48/caption.jpg?w=1000&s=1", "address": "7-4-9 Musashigaoka Kita-Ku, Kumamoto Kumamoto Prefecture", "lat": 32.85594, "lng": 130.7769, "ref_id": 7470830, "rating": 4, "num_reviews": 0, "website": null, "contact_phone": "+81 96-338-3877", "contact_email": null, "status": 1, "source_type": 1, "numberReviews": 3}, {"name": "Ryuho", "type": "restaurant", "image": "https://dynamic-media-cdn.tripadvisor.com/media/photo-o/0d/88/c6/9a/caption.jpg?w=1000&s=1", "address": "1-12-12 Noguchi Minami-Ku, Kumamoto Kumamoto Prefecture", "lat": 32.767807, "lng": 130.67334, "ref_id": 7471618, "rating": 4, "num_reviews": 0, "website": null, "contact_phone": "+81 96-357-2869", "contact_email": null, "status": 1, "source_type": 1, "numberReviews": 4}, {"name": "En", "type": "restaurant", "image": "https://dynamic-media-cdn.tripadvisor.com/media/photo-o/11/61/9f/66/en.jpg?w=1000&s=1", "address": "2-13-71 Obiyama, Chuo-Ku, Kumamoto 862-0924 Kumamoto Prefecture", "lat": 32.805027, "lng": 130.74553, "ref_id": 10658180, "rating": 4.5, "num_reviews": 0, "website": null, "contact_phone": "+81 96-382-4270", "contact_email": null, "status": 1, "source_type": 1, "numberReviews": 2}, {"name": "Ginnan-Zushi", "type": "restaurant", "image": "https://dynamic-media-cdn.tripadvisor.com/media/photo-o/1b/83/fb/21/photo8jpg.jpg?w=1000&s=1", "address": "1-6-20 Hakusan, Chuo-Ku, Kumamoto 862-0959 Kumamoto Prefecture", "lat": 32.792667, "lng": 130.72127, "ref_id": 9672732, "rating": 5, "num_reviews": 0, "website": null, "contact_phone": "+81 96-362-9082", "contact_email": null, "status": 1, "source_type": 1, "numberReviews": 1}, {"name": "Kurodahan Rikigo", "type": "restaurant", "image": "https://dynamic-media-cdn.tripadvisor.com/media/photo-o/1b/8f/d3/d7/photo9jpg.jpg?w=1000&s=1", "address": "345 Nodomae Usubacho Minami-Ku, Kumamoto Kumamoto Prefecture", "lat": 32.764282, "lng": 130.67615, "ref_id": 7471608, "rating": 3.5, "num_reviews": 0, "website": null, "contact_phone": "+81 96-358-6651", "contact_email": null, "status": 1, "source_type": 1, "numberReviews": 3}, {"name": "Rion", "type": "restaurant", "image": "https://dynamic-media-cdn.tripadvisor.com/media/photo-o/19/23/7a/a3/photo0jpg.jpg?w=1000&s=1", "address": "3-11 Shinshigai, Chuo-ku 5F, Kumamoto 860-0803 Kumamoto Prefecture", "lat": 32.799805, "lng": 130.70732, "ref_id": 15246480, "rating": 5, "num_reviews": 0, "website": "", "contact_phone": "+81 96-312-5121", "contact_email": null, "status": 1, "source_type": 1, "numberReviews": 2}, {"name": "Kabin", "type": "restaurant", "image": "https://dynamic-media-cdn.tripadvisor.com/media/photo-o/1b/77/21/25/photo1jpg.jpg?w=1000&s=1", "address": "13-26 Hanabatacho Chuoku Daiichi Ginnan Building, Kumamoto 860-0806 Kumamoto Prefecture", "lat": 32.801044, "lng": 130.70647, "ref_id": 18920591, "rating": 5, "num_reviews": 0, "website": "", "contact_phone": "+81 96-288-5090", "contact_email": null, "status": 1, "source_type": 1, "numberReviews": 1}, {"name": "Baron", "type": "restaurant", "image": "https://dynamic-media-cdn.tripadvisor.com/media/photo-o/05/d6/34/e1/baron.jpg?w=1000&s=1", "address": "1-9-4 Shimotori Chuo-Ku Utsunomiya Bldg. 2F, Kumamoto 860-0807 Kumamoto Prefecture", "lat": 32.80071, "lng": 130.70734, "ref_id": 6053004, "rating": 4, "num_reviews": 0, "website": "http://www.dandl.co.jp/baron/index.html", "contact_phone": "+81 96-355-2957", "contact_email": null, "status": 1, "source_type": 1, "numberReviews": 7}, {"name": "Asuka", "type": "restaurant", "image": "https://dynamic-media-cdn.tripadvisor.com/media/photo-o/1b/82/b8/38/photo0jpg.jpg?w=1000&s=1", "address": "7-12-28 Chikami Minami-Ku, Kumamoto Kumamoto Prefecture", "lat": 32.75583, "lng": 130.69278, "ref_id": 7471371, "rating": 4, "num_reviews": 0, "website": null, "contact_phone": "+81 96-359-2375", "contact_email": null, "status": 1, "source_type": 1, "numberReviews": 2}, {"name": "Champon Hishio", "type": "restaurant", "image": "https://dynamic-media-cdn.tripadvisor.com/media/photo-o/1d/27/11/a9/caption.jpg?w=1000&s=1", "address": "2-1-5 Tsuboi Chuo-Ku, Kumamoto Kumamoto Prefecture", "lat": 32.80912, "lng": 130.7121, "ref_id": 7470907, "rating": 4.5, "num_reviews": 0, "website": null, "contact_phone": "+81 96-346-5235", "contact_email": null, "status": 1, "source_type": 1, "numberReviews": 4}, {"name": "Purely Restaurant", "type": "restaurant", "image": "https://dynamic-media-cdn.tripadvisor.com/media/photo-o/14/81/f7/65/caption.jpg?w=1000&s=1", "address": "15 Nakatojimmachi, Chuo-Ku, Kumamoto 860-0028 Kumamoto Prefecture", "lat": 32.797276, "lng": 130.6981, "ref_id": 7471498, "rating": 4, "num_reviews": 0, "website": "http://purely-restaurant.com/en", "contact_phone": "+81 96-323-1552", "contact_email": "info@nh-purely.co.jp", "status": 1, "source_type": 1, "numberReviews": 3}, {"name": "Tachi Sushi", "type": "restaurant", "image": "https://dynamic-media-cdn.tripadvisor.com/media/photo-o/08/f7/4b/ba/caption.jpg?w=1000&s=1", "address": "2-8-5 Shmotori, Chuo-ku Kashiwada No.3 Bldg. 101, Kumamoto 860-0807 Kumamoto Prefecture", "lat": 32.79793, "lng": 130.70853, "ref_id": 8627426, "rating": 3.5, "num_reviews": 0, "website": "https://www.facebook.com/%E7%AB%8B%E3%81%A1%E5%AF%BF%E3%81%97-101130440241369/", "contact_phone": "+81 96-354-9999", "contact_email": null, "status": 1, "source_type": 1, "numberReviews": 11}, {"name": "Genki Dining Hirai Higashimachi", "type": "restaurant", "image": "https://dynamic-media-cdn.tripadvisor.com/media/photo-o/1b/ae/7b/91/photo6jpg.jpg?w=1000&s=1", "address": "53-3 Kengun Hommachi Higashi-Ku, Kumamoto Kumamoto Prefecture", "lat": 32.7859, "lng": 130.76006, "ref_id": 7471151, "rating": 3.5, "num_reviews": 0, "website": null, "contact_phone": "+81 96-369-3502", "contact_email": null, "status": 1, "source_type": 1, "numberReviews": 3}, {"name": "Tenho Ramen", "type": "restaurant", "image": "https://dynamic-media-cdn.tripadvisor.com/media/photo-o/1b/56/fc/ea/photo6jpg.jpg?w=1000&s=1", "address": "5-15-5 Kuhonji, Chuo-ku, Kumamoto 862-0976 Kumamoto Prefecture", "lat": 32.78966, "lng": 130.71468, "ref_id": 13557630, "rating": 5, "num_reviews": 0, "website": null, "contact_phone": "+81 96-362-1237", "contact_email": null, "status": 1, "source_type": 1, "numberReviews": 1}, {"name": "Maithai", "type": "restaurant", "image": "https://dynamic-media-cdn.tripadvisor.com/media/photo-o/0a/8a/81/3c/photo3jpg.jpg?w=1000&s=1", "address": "1-1-19 Idenakama, Minami-ku, Kumamoto 862-0963 Kumamoto Prefecture", "lat": 32.77306, "lng": 130.71135, "ref_id": 6048592, "rating": 3.5, "num_reviews": 0, "website": null, "contact_phone": "+81 96-370-7879", "contact_email": null, "status": 1, "source_type": 1, "numberReviews": 8}, {"name": "Japanese Restaurant Shin", "type": "restaurant", "image": "https://dynamic-media-cdn.tripadvisor.com/media/photo-o/05/d6/4a/6c/utsubo-kappo-shin.jpg?w=1000&s=1", "address": "13-26 Hanabatacho, Chuou-ku Daiichi Ginnan Bldg. 1F, Kumamoto 860-0806 Kumamoto Prefecture", "lat": 32.76551, "lng": 130.71283, "ref_id": 6058977, "rating": 4.5, "num_reviews": 0, "website": null, "contact_phone": "+81 96-356-2460", "contact_email": null, "status": 1, "source_type": 1, "numberReviews": 2}, {"name": "Yagiya", "type": "restaurant", "image": null, "address": "3-12 Minami Tsuboimachi, Chuo-Ku, Kumamoto 860-0848 Kumamoto Prefecture", "lat": 32.807358, "lng": 130.71391, "ref_id": 9629228, "rating": 4.5, "num_reviews": 0, "website": null, "contact_phone": "+81 96-325-3337", "contact_email": null, "status": 1, "source_type": 1, "numberReviews": 2}, {"name": "Omuraisutei Kumamoto Aeon Mall Kumamoto", "type": "restaurant", "image": "https://dynamic-media-cdn.tripadvisor.com/media/photo-o/1c/a9/7a/e6/dsc-9226-largejpg.jpg?w=1000&s=1", "address": "2232 Uejima Aeon Mall Kumamoto 1F, Kashima-machi, Kamimashiki-gun 861-3106 Kumamoto Prefecture", "lat": 32.73811, "lng": 130.7452, "ref_id": 14008080, "rating": 4, "num_reviews": 0, "website": null, "contact_phone": "+81 96-273-8860", "contact_email": null, "status": 1, "source_type": 1, "numberReviews": 2}, {"name": "Saishoku Enman Junwa", "type": "restaurant", "image": "https://dynamic-media-cdn.tripadvisor.com/media/photo-o/0c/89/82/96/caption.jpg?w=1000&s=1", "address": "1-5-37 Toshima Nishi, Higashi-Ku, Kumamoto 861-8043 Kumamoto Prefecture", "lat": 32.810806, "lng": 130.7828, "ref_id": 9614060, "rating": 4, "num_reviews": 0, "website": "http://junwa.jp", "contact_phone": "+81 96-331-3353", "contact_email": null, "status": 1, "source_type": 1, "numberReviews": 3}, {"name": "Goheita", "type": "restaurant", "image": "https://dynamic-media-cdn.tripadvisor.com/media/photo-o/16/16/ec/37/photo0jpg.jpg?w=1000&s=1", "address": "4-12-4 Oe Chuo-Ku, Kumamoto 862-0971 Kumamoto Prefecture", "lat": 32.80262, "lng": 130.72179, "ref_id": 9629214, "rating": 4.5, "num_reviews": 0, "website": null, "contact_phone": "+81 96-371-9330", "contact_email": null, "status": 1, "source_type": 1, "numberReviews": 2}, {"name": "Kobai Hamasen Bypass Hachioji", "type": "restaurant", "image": null, "address": "33-1 Hachiojimachi, Chuo-ku, Kumamoto 860-0831 Kumamoto Prefecture", "lat": 32.780327, "lng": 130.71535, "ref_id": 14116898, "rating": 4, "num_reviews": 0, "website": "http://www.kobai.jp/", "contact_phone": "+81 96-379-0805", "contact_email": null, "status": 1, "source_type": 1, "numberReviews": 2}, {"name": "Doi Kebab", "type": "restaurant", "image": "https://dynamic-media-cdn.tripadvisor.com/media/photo-o/1c/c0/2e/75/photo1jpg.jpg?w=1000&s=1", "address": "2-15 Tetori Honcho Chuo-Ku, Kumamoto Kumamoto Prefecture", "lat": 32.80297, "lng": 130.70877, "ref_id": 7470674, "rating": 4, "num_reviews": 0, "website": null, "contact_phone": "+81 96-352-2966", "contact_email": null, "status": 1, "source_type": 1, "numberReviews": 2}, {"name": "Raika", "type": "restaurant", "image": "https://dynamic-media-cdn.tripadvisor.com/media/photo-o/1b/44/59/40/photo7jpg.jpg?w=1000&s=1", "address": "2-8-21 Tainoshima Minami-Ku, Kumamoto Kumamoto Prefecture", "lat": 32.766987, "lng": 130.72467, "ref_id": 7471568, "rating": 5, "num_reviews": 0, "website": null, "contact_phone": "+81 96-379-5636", "contact_email": null, "status": 1, "source_type": 1, "numberReviews": 1}, {"name": "Rendaiji Hanten", "type": "restaurant", "image": "https://dynamic-media-cdn.tripadvisor.com/media/photo-o/05/d5/0f/94/rendaiji-hanten.jpg?w=1000&s=1", "address": "5-1-20 Rendaiji, Nishi-ku, Kumamoto 860-005 Kumamoto Prefecture", "lat": 32.77506, "lng": 130.68127, "ref_id": 4750326, "rating": 3.5, "num_reviews": 0, "website": null, "contact_phone": "+81 96-328-3637", "contact_email": null, "status": 1, "source_type": 1, "numberReviews": 9}, {"name": "Sicilian Bar Hana", "type": "restaurant", "image": "https://dynamic-media-cdn.tripadvisor.com/media/photo-o/0b/0e/a9/43/happy-sicilian-bar-hana.jpg?w=1000&s=1", "address": "1-6-4 Shimotori, Chuo-ku Musashi Bldg 2F, Kumamoto 860-0807 Kumamoto Prefecture", "lat": 32.801327, "lng": 130.70908, "ref_id": 10053589, "rating": 5, "num_reviews": 0, "website": "http://www.facebook.com/SicilianBarHana", "contact_phone": "+81 96-352-9889", "contact_email": null, "status": 1, "source_type": 1, "numberReviews": 1}, {"name": "Ippo", "type": "restaurant", "image": null, "address": "2-5-9 Taishomachi, Omuta Qu\u00e2\u0323n Fukuoka", "lat": 33.034203, "lng": 130.44244, "ref_id": 7668212, "rating": -1, "num_reviews": 0, "website": null, "contact_phone": "+81 944-56-1010", "contact_email": null, "status": 1, "source_type": 1, "numberReviews": 0}, {"name": "Shiratakiya Meijimachi", "type": "restaurant", "image": null, "address": "3-6-1 Meijicho, Omuta Qu\u00e2\u0323n Fukuoka", "lat": 33.04145, "lng": 130.44713, "ref_id": 7547590, "rating": -1, "num_reviews": 0, "website": null, "contact_phone": "+81 944-53-4459", "contact_email": null, "status": 1, "source_type": 1, "numberReviews": 0}, {"name": "Tail Ancient Tomb Manju of Hagi", "type": "restaurant", "image": null, "address": "1-305-2 Hagio-Cho, Omuta 836-0096 Qu\u00e2\u0323n Fukuoka", "lat": 33.00525, "lng": 130.46571, "ref_id": 13070137, "rating": -1, "num_reviews": 0, "website": null, "contact_phone": "+81 944-51-4581", "contact_email": null, "status": 1, "source_type": 1, "numberReviews": 0}, {"name": "Izakayafu Teppanyaki Yorinsai", "type": "restaurant", "image": null, "address": "1-1-2 Takarazakamachi, Omuta 836-0861 Qu\u00e2\u0323n Fukuoka", "lat": 33.02696, "lng": 130.4454, "ref_id": 6045208, "rating": -1, "num_reviews": 0, "website": null, "contact_phone": "+81 944-56-7272", "contact_email": null, "status": 1, "source_type": 1, "numberReviews": 0}, {"name": "Shokuji-Dokoro Katana", "type": "restaurant", "image": null, "address": "1856 Izumicho, Yamaga 861-0512 Kumamoto Prefecture", "lat": 33.014866, "lng": 130.68631, "ref_id": 9679366, "rating": -1, "num_reviews": 0, "website": null, "contact_phone": "+81 968-44-4988", "contact_email": null, "status": 1, "source_type": 1, "numberReviews": 0}, {"name": "Chinraiken", "type": "restaurant", "image": null, "address": "436 Nose Takatamachi, Miyama Qu\u00e2\u0323n Fukuoka", "lat": 33.100426, "lng": 130.45934, "ref_id": 7549854, "rating": -1, "num_reviews": 0, "website": null, "contact_phone": "+81 944-22-5802", "contact_email": null, "status": 1, "source_type": 1, "numberReviews": 0}, {"name": "Ichien", "type": "restaurant", "image": null, "address": "106 Shimmachi, Omuta Qu\u00e2\u0323n Fukuoka", "lat": 33.044403, "lng": 130.48105, "ref_id": 7635382, "rating": -1, "num_reviews": 0, "website": null, "contact_phone": "+81 944-85-0115", "contact_email": null, "status": 1, "source_type": 1, "numberReviews": 0}, {"name": "Aburi Ya", "type": "restaurant", "image": null, "address": "2586-5 Arao, Arao 864-0041 Kumamoto Prefecture", "lat": 32.975376, "lng": 130.44333, "ref_id": 9668219, "rating": -1, "num_reviews": 0, "website": null, "contact_phone": "+81 968-62-3272", "contact_email": null, "status": 1, "source_type": 1, "numberReviews": 0}, {"name": "Kagashi", "type": "restaurant", "image": null, "address": "1935-1 Naka, Tamana 865-0064 Kumamoto Prefecture", "lat": 32.93309, "lng": 130.55116, "ref_id": 13241099, "rating": -1, "num_reviews": 0, "website": null, "contact_phone": "+81 968-74-5006", "contact_email": null, "status": 1, "source_type": 1, "numberReviews": 0}, {"name": "Tombo", "type": "restaurant", "image": null, "address": "1-8 Furumachi, Omuta Qu\u00e2\u0323n Fukuoka", "lat": 33.03397, "lng": 130.44576, "ref_id": 7632906, "rating": -1, "num_reviews": 0, "website": null, "contact_phone": "+81 944-52-2020", "contact_email": null, "status": 1, "source_type": 1, "numberReviews": 0}, {"name": "Hotto Motto Omuta Plants", "type": "restaurant", "image": null, "address": "1021-3 Oaza Kusagi, Omuta 837-0917 Qu\u00e2\u0323n Fukuoka", "lat": 33.054386, "lng": 130.46298, "ref_id": 13245976, "rating": -1, "num_reviews": 0, "website": null, "contact_phone": "+81 944-59-3351", "contact_email": null, "status": 1, "source_type": 1, "numberReviews": 0}, {"name": "Dining Shake", "type": "restaurant", "image": null, "address": "1-3-8 Taishocho, Omuta Qu\u00e2\u0323n Fukuoka", "lat": 33.034996, "lng": 130.44418, "ref_id": 7547378, "rating": -1, "num_reviews": 0, "website": null, "contact_phone": "+81 944-57-6075", "contact_email": null, "status": 1, "source_type": 1, "numberReviews": 0}, {"name": "Gin No Suzu", "type": "restaurant", "image": null, "address": "50-1 Hanazono-Machi, Omuta Qu\u00e2\u0323n Fukuoka", "lat": 33.022133, "lng": 130.45154, "ref_id": 7547567, "rating": -1, "num_reviews": 0, "website": null, "contact_phone": "+81 944-52-3019", "contact_email": null, "status": 1, "source_type": 1, "numberReviews": 0}, {"name": "Shijimitei", "type": "restaurant", "image": null, "address": "893 Iwasaki, Tamana Kumamoto Prefecture", "lat": 32.933243, "lng": 130.55917, "ref_id": 7663867, "rating": -1, "num_reviews": 0, "website": null, "contact_phone": "+81 968-72-5872", "contact_email": null, "status": 1, "source_type": 1, "numberReviews": 0}, {"name": "Road Station Rare and This Finger", "type": "restaurant", "image": null, "address": "315 Shimohebaru, Tachibanamachi, Yame 834-0073 Qu\u00e2\u0323n Fukuoka", "lat": 33.169678, "lng": 130.61598, "ref_id": 13250398, "rating": -1, "num_reviews": 0, "website": null, "contact_phone": "+81 943-37-0307", "contact_email": null, "status": 1, "source_type": 1, "numberReviews": 0}, {"name": "Izakaya Kazu", "type": "restaurant", "image": null, "address": "1857-10 Yamaga OM City 1F, Yamaga 861-0501 Kumamoto Prefecture", "lat": 33.01486, "lng": 130.68669, "ref_id": 9691172, "rating": -1, "num_reviews": 0, "website": null, "contact_phone": "+81 968-43-0002", "contact_email": null, "status": 1, "source_type": 1, "numberReviews": 0}, {"name": "Meigetsuken Oomuta", "type": "restaurant", "image": null, "address": "3-1-5 Taishomachi, Omuta 836-0047 Qu\u00e2\u0323n Fukuoka", "lat": 33.032585, "lng": 130.44257, "ref_id": 6061305, "rating": -1, "num_reviews": 0, "website": null, "contact_phone": "+81 944-55-8929", "contact_email": null, "status": 1, "source_type": 1, "numberReviews": 0}, {"name": "Miyadori", "type": "restaurant", "image": null, "address": "636-1 Naka, Yamaga 861-0531 Kumamoto Prefecture", "lat": 33.014385, "lng": 130.68752, "ref_id": 10659942, "rating": -1, "num_reviews": 0, "website": null, "contact_phone": "+81 968-43-9520", "contact_email": null, "status": 1, "source_type": 1, "numberReviews": 0}, {"name": "Meat Cafeteria Tsubokawa", "type": "restaurant", "image": null, "address": "50-1 Oaza Shiragane, Omuta 837-0912 Qu\u00e2\u0323n Fukuoka", "lat": 33.065914, "lng": 130.48094, "ref_id": 13069591, "rating": -1, "num_reviews": 0, "website": null, "contact_phone": "+81 944-58-4343", "contact_email": null, "status": 1, "source_type": 1, "numberReviews": 0}, {"name": "Tensaku", "type": "restaurant", "image": null, "address": "56-4 Akimaru, Tamana Kumamoto Prefecture", "lat": 32.93242, "lng": 130.56468, "ref_id": 7537778, "rating": -1, "num_reviews": 0, "website": null, "contact_phone": "+81 968-73-4725", "contact_email": null, "status": 1, "source_type": 1, "numberReviews": 0}, {"name": "Sushi Kodaiko Tamana", "type": "restaurant", "image": null, "address": "35-1 Kamenoko, Tamana 865-0015 Kumamoto Prefecture", "lat": 32.926598, "lng": 130.555, "ref_id": 13249259, "rating": -1, "num_reviews": 0, "website": null, "contact_phone": "+81 120-724-622", "contact_email": null, "status": 1, "source_type": 1, "numberReviews": 0}, {"name": "Higokko", "type": "restaurant", "image": null, "address": "246-1 Miyano, Nagasu-machi, Tamana-gun 869-0101 Kumamoto Prefecture", "lat": 32.93154, "lng": 130.4774, "ref_id": 7484251, "rating": -1, "num_reviews": 0, "website": null, "contact_phone": "+81 968-78-1049", "contact_email": null, "status": 1, "source_type": 1, "numberReviews": 0}, {"name": "Cafe Restaurant Sanakashi", "type": "restaurant", "image": null, "address": "1-27 Nakashirakawacho, Omuta Qu\u00e2\u0323n Fukuoka", "lat": 33.043194, "lng": 130.4574, "ref_id": 7547353, "rating": -1, "num_reviews": 0, "website": null, "contact_phone": "+81 944-56-5757", "contact_email": null, "status": 1, "source_type": 1, "numberReviews": 0}, {"name": "Kasasaginoyado", "type": "restaurant", "image": null, "address": "1285 Tsunemochi, Chikugo Qu\u00e2\u0323n Fukuoka", "lat": 33.185402, "lng": 130.48566, "ref_id": 7548117, "rating": -1, "num_reviews": 0, "website": null, "contact_phone": "+81 942-52-7615", "contact_email": null, "status": 1, "source_type": 1, "numberReviews": 0}, {"name": "Minerva Salone", "type": "restaurant", "image": null, "address": "3-1 Nakajimamachi, Omuta 836-0023 Qu\u00e2\u0323n Fukuoka", "lat": 33.036858, "lng": 130.44409, "ref_id": 9913523, "rating": -1, "num_reviews": 0, "website": null, "contact_phone": "+81 944-54-3933", "contact_email": null, "status": 1, "source_type": 1, "numberReviews": 0}, {"name": "Ki", "type": "restaurant", "image": null, "address": "1735 Okura, Tamana 865-0023 Kumamoto Prefecture", "lat": 32.92241, "lng": 130.56595, "ref_id": 13248142, "rating": -1, "num_reviews": 0, "website": null, "contact_phone": "+81 968-73-7775", "contact_email": null, "status": 1, "source_type": 1, "numberReviews": 0}, {"name": "Maruyama", "type": "restaurant", "image": null, "address": "1-7-6 Taisho-Machi, Omuta Qu\u00e2\u0323n Fukuoka", "lat": 33.03593, "lng": 130.44377, "ref_id": 7634211, "rating": -1, "num_reviews": 0, "website": null, "contact_phone": "+81 944-57-1716", "contact_email": null, "status": 1, "source_type": 1, "numberReviews": 0}, {"name": "Rai Mirai", "type": "restaurant", "image": null, "address": "1-8-1 Toricho, Omuta Qu\u00e2\u0323n Fukuoka", "lat": 33.039623, "lng": 130.46043, "ref_id": 7547430, "rating": -1, "num_reviews": 0, "website": null, "contact_phone": "+81 944-56-9444", "contact_email": null, "status": 1, "source_type": 1, "numberReviews": 0}, {"name": "Yakitori Daruma", "type": "restaurant", "image": null, "address": "1195-6 Manda, Arao Kumamoto Prefecture", "lat": 32.99779, "lng": 130.4352, "ref_id": 7537609, "rating": -1, "num_reviews": 0, "website": null, "contact_phone": "+81 968-62-2381", "contact_email": null, "status": 1, "source_type": 1, "numberReviews": 0}, {"name": "Goemon-Tei", "type": "restaurant", "image": null, "address": "1640-12 Ayahiro Setaka-Machi, Miyama Qu\u00e2\u0323n Fukuoka", "lat": 33.160297, "lng": 130.48463, "ref_id": 7549835, "rating": -1, "num_reviews": 0, "website": null, "contact_phone": "+81 944-63-3931", "contact_email": null, "status": 1, "source_type": 1, "numberReviews": 0}, {"name": "Gyoza no Mawatari", "type": "restaurant", "image": "https://dynamic-media-cdn.tripadvisor.com/media/photo-o/0a/91/87/a3/caption.jpg?w=1000&s=1", "address": "5180 Kitatakanabe, Takanabe-cho, Koyu-gun Miyazaki Prefecture", "lat": 32.128727, "lng": 131.5062, "ref_id": 3881957, "rating": 4, "num_reviews": 0, "website": "http://mawatari.net/tenpo", "contact_phone": "+81 983-22-3251", "contact_email": null, "status": 1, "source_type": 1, "numberReviews": 8}, {"name": "Ryoma", "type": "restaurant", "image": "https://dynamic-media-cdn.tripadvisor.com/media/photo-o/16/5f/1c/c2/caption.jpg?w=1000&s=1", "address": "6023-2 Kamitonda, Shintomi-cho, Koyu-gun Miyazaki Prefecture", "lat": 32.078648, "lng": 131.46729, "ref_id": 7484916, "rating": 4.5, "num_reviews": 0, "website": null, "contact_phone": "+81 983-33-0587", "contact_email": null, "status": 1, "source_type": 1, "numberReviews": 3}, {"name": "Kama-Age Udon Iwami Sumiyoshi", "type": "restaurant", "image": "https://dynamic-media-cdn.tripadvisor.com/media/photo-o/1c/24/79/2f/photo4jpg.jpg?w=1000&s=1", "address": "691-3 Shimanouchi, Miyazaki Miyazaki Prefecture", "lat": 31.996187, "lng": 131.46315, "ref_id": 7471984, "rating": 4, "num_reviews": 0, "website": null, "contact_phone": "+81 985-39-0338", "contact_email": null, "status": 1, "source_type": 1, "numberReviews": 8}, {"name": "Kyushu no Kome to Ate Komekyu", "type": "restaurant", "image": "https://dynamic-media-cdn.tripadvisor.com/media/photo-o/0e/cd/ec/44/getlstd-property-photo.jpg?w=1000&s=1", "address": "Yamasakicho Hamayama Sheraton Grande Ocean Resort, Miyazaki 880-0836 Miyazaki Prefecture", "lat": 31.952152, "lng": 131.46877, "ref_id": 12278902, "rating": 4, "num_reviews": 0, "website": "http://www.seagaia.co.jp/japanese/rbs/sgor/komekyu.html", "contact_phone": "+81 985-21-1341", "contact_email": "KOMEKYU-ALL@seagaia.com", "status": 1, "source_type": 1, "numberReviews": 6}, {"name": "Hietsuki Syokudo", "type": "restaurant", "image": null, "address": "5121 Kaguchiura, Takanabe-cho, Koyu-gun Miyazaki Prefecture", "lat": 32.12521, "lng": 131.52617, "ref_id": 7484844, "rating": 5, "num_reviews": 0, "website": null, "contact_phone": "+81 983-23-0426", "contact_email": null, "status": 1, "source_type": 1, "numberReviews": 2}, {"name": "Rinka", "type": "restaurant", "image": "https://dynamic-media-cdn.tripadvisor.com/media/photo-o/16/f6/0c/1c/caption.jpg?w=1000&s=1", "address": "493-1 Murasumicho, Miyazaki 880-0837 Miyazaki Prefecture", "lat": 31.956312, "lng": 131.44452, "ref_id": 16866143, "rating": 5, "num_reviews": 0, "website": "", "contact_phone": "+81 985-78-6770", "contact_email": null, "status": 1, "source_type": 1, "numberReviews": 3}, {"name": "Kyochiku-En Miyazaki Kita Bypass", "type": "restaurant", "image": "https://dynamic-media-cdn.tripadvisor.com/media/photo-o/16/6f/07/6a/photo0jpg.jpg?w=1000&s=1", "address": "304 Hanagashimacho Tabunoki, Miyazaki Miyazaki Prefecture", "lat": 31.952168, "lng": 131.43045, "ref_id": 7471884, "rating": 4, "num_reviews": 0, "website": null, "contact_phone": "+81 985-23-2929", "contact_email": null, "status": 1, "source_type": 1, "numberReviews": 6}, {"name": "Jikka Kurogi", "type": "restaurant", "image": "https://dynamic-media-cdn.tripadvisor.com/media/photo-o/17/1e/40/a3/caption.jpg?w=1000&s=1", "address": "Hamayama Yamasakicho Sheraton Grande Ocean Resort 1F, Miyazaki 880-8545 Miyazaki Prefecture", "lat": 31.959223, "lng": 131.47032, "ref_id": 17288176, "rating": 4.5, "num_reviews": 0, "website": "http://seagaia.co.jp/rbs/rb/sgor/101", "contact_phone": "+81 985-24-0910", "contact_email": null, "status": 1, "source_type": 1, "numberReviews": 3}, {"name": "Oshokuji-Dokoro Miyazaki Tsusen", "type": "restaurant", "image": "https://dynamic-media-cdn.tripadvisor.com/media/photo-o/12/dc/55/45/caption.jpg?w=1000&s=1", "address": "394-4 Rokutanda Murasumicho, Miyazaki 880-0837 Miyazaki Prefecture", "lat": 31.954317, "lng": 131.44354, "ref_id": 9649583, "rating": 4.5, "num_reviews": 0, "website": null, "contact_phone": "+81 985-32-0355", "contact_email": null, "status": 1, "source_type": 1, "numberReviews": 4}, {"name": "Yumejirushitamago-Mura Miyazaki", "type": "restaurant", "image": "https://dynamic-media-cdn.tripadvisor.com/media/photo-o/12/4b/4f/2e/caption.jpg?w=1000&s=1", "address": "323-3 Murasumicho Rokutanda, Miyazaki Miyazaki Prefecture", "lat": 31.955454, "lng": 131.44339, "ref_id": 7471876, "rating": 4.5, "num_reviews": 0, "website": null, "contact_phone": "+81 985-23-0583", "contact_email": null, "status": 1, "source_type": 1, "numberReviews": 4}, {"name": "Manshojaya", "type": "restaurant", "image": "https://dynamic-media-cdn.tripadvisor.com/media/photo-o/0c/fb/42/8c/photo0jpg.jpg?w=1000&s=1", "address": "3376-14, Shimosanzai, Saito Miyazaki Prefecture", "lat": 32.061516, "lng": 131.35927, "ref_id": 8477595, "rating": 4.5, "num_reviews": 0, "website": null, "contact_phone": "+81 983-44-3065", "contact_email": null, "status": 1, "source_type": 1, "numberReviews": 7}, {"name": "Nabeshima Yakiniku Nabeshima Miyzaki Oshima", "type": "restaurant", "image": "https://dynamic-media-cdn.tripadvisor.com/media/photo-o/0d/96/97/96/caption.jpg?w=1000&s=1", "address": "310-3 Maeda, Oshimacho, Miyazaki 880-0824 Miyazaki Prefecture", "lat": 31.94264, "lng": 131.44122, "ref_id": 9661656, "rating": 5, "num_reviews": 0, "website": null, "contact_phone": "+81 985-28-8929", "contact_email": null, "status": 1, "source_type": 1, "numberReviews": 8}, {"name": "Musashino Donburi Dojo", "type": "restaurant", "image": "https://dynamic-media-cdn.tripadvisor.com/media/photo-o/0f/8b/db/6e/caption.jpg?w=1000&s=1", "address": "387 Maeda, Oshimacho, Miyazaki 880-0824 Miyazaki Prefecture", "lat": 31.94595, "lng": 131.44176, "ref_id": 9614301, "rating": 4.5, "num_reviews": 0, "website": null, "contact_phone": "+81 985-28-5372", "contact_email": null, "status": 1, "source_type": 1, "numberReviews": 10}, {"name": "Yakiniku Ushinoya", "type": "restaurant", "image": "https://dynamic-media-cdn.tripadvisor.com/media/photo-o/0b/95/59/5f/photo0jpg.jpg?w=1000&s=1", "address": "878 Takanabe, Takanabe-cho, Koyu-gun 884-0001 Miyazaki Prefecture", "lat": 32.126263, "lng": 131.51183, "ref_id": 6071518, "rating": 5, "num_reviews": 0, "website": "", "contact_phone": "+81 120-112-981", "contact_email": null, "status": 1, "source_type": 1, "numberReviews": 4}, {"name": "Shintomi Chaya Madokoro", "type": "restaurant", "image": "https://dynamic-media-cdn.tripadvisor.com/media/photo-o/05/d7/3c/b0/shintomi-chaya-madokoro.jpg?w=1000&s=1", "address": "12677 Nyuta Shintomi-Cho, Shintomi-cho, Koyu-gun 889-1406 Miyazaki Prefecture", "lat": 32.077457, "lng": 131.42311, "ref_id": 6048197, "rating": 4.5, "num_reviews": 0, "website": null, "contact_phone": "+81 983-21-5550", "contact_email": null, "status": 1, "source_type": 1, "numberReviews": 4}, {"name": "Kitcho Saito", "type": "restaurant", "image": "https://dynamic-media-cdn.tripadvisor.com/media/photo-o/1b/07/57/e9/caption.jpg?w=1000&s=1", "address": "1-80-1 Seiryocho, Saito 881-0015 Miyazaki Prefecture", "lat": 32.109615, "lng": 131.40105, "ref_id": 7516332, "rating": 3.5, "num_reviews": 0, "website": "http://www.kitchouudon.com/shop/04/", "contact_phone": "+81 983-43-0099", "contact_email": null, "status": 1, "source_type": 1, "numberReviews": 9}, {"name": "Muna Sadowara", "type": "restaurant", "image": "https://dynamic-media-cdn.tripadvisor.com/media/photo-o/1a/43/35/4c/photo1jpg.jpg?w=1000&s=1", "address": "3340-4 Shimonaka Sadowaracho, Miyazaki 880-0212 Miyazaki Prefecture", "lat": 32.002453, "lng": 131.46915, "ref_id": 12275372, "rating": 4, "num_reviews": 0, "website": null, "contact_phone": "+81 985-89-2613", "contact_email": null, "status": 1, "source_type": 1, "numberReviews": 6}, {"name": "Mendokoro Kojimaya", "type": "restaurant", "image": "https://dynamic-media-cdn.tripadvisor.com/media/photo-o/19/2b/1c/20/photo0jpg.jpg?w=1000&s=1", "address": "6335-1 Shimanochi, Miyazaki 880-0121 Miyazaki Prefecture", "lat": 31.979214, "lng": 131.4452, "ref_id": 6069530, "rating": 3.5, "num_reviews": 0, "website": null, "contact_phone": "+81 985-36-3589", "contact_email": null, "status": 1, "source_type": 1, "numberReviews": 7}, {"name": "Menya Masumoto Sadohara", "type": "restaurant", "image": "https://dynamic-media-cdn.tripadvisor.com/media/photo-o/05/d6/f7/bc/menya-masumoto-sadohara.jpg?w=1000&s=1", "address": "3340-4 Sadowaracho Shimonaka, Miyazaki 880-0212 Miyazaki Prefecture", "lat": 32.002422, "lng": 131.46918, "ref_id": 6062744, "rating": 4.5, "num_reviews": 0, "website": null, "contact_phone": "+81 985-71-6344", "contact_email": null, "status": 1, "source_type": 1, "numberReviews": 5}, {"name": "Taeyang", "type": "restaurant", "image": "https://dynamic-media-cdn.tripadvisor.com/media/photo-o/17/ed/45/5e/photo4jpg.jpg?w=1000&s=1", "address": "5202 Kitatakanabe Sakae Bldg 1F, Takanabe-cho, Koyu-gun 884-0002 Miyazaki Prefecture", "lat": 32.12743, "lng": 131.5064, "ref_id": 17609054, "rating": 4.5, "num_reviews": 0, "website": "http://leadblawn.wixsite.com/koreanfoodteyan/menu", "contact_phone": "+81 983-35-4950", "contact_email": null, "status": 1, "source_type": 1, "numberReviews": 2}, {"name": "Omaru Shinchaya Miyazaki Kita", "type": "restaurant", "image": "https://dynamic-media-cdn.tripadvisor.com/media/photo-o/13/35/53/3a/photo0jpg.jpg?w=1000&s=1", "address": "3045-1 Sadowaracho Shimonaka, Miyazaki 880-0212 Miyazaki Prefecture", "lat": 31.99986, "lng": 131.467, "ref_id": 8482025, "rating": 4, "num_reviews": 0, "website": "http://www.omarushinchaya.jp/", "contact_phone": "+81 985-30-1155", "contact_email": null, "status": 1, "source_type": 1, "numberReviews": 8}, {"name": "Blue Owl & Vent Miyazaki", "type": "restaurant", "image": "https://dynamic-media-cdn.tripadvisor.com/media/photo-o/28/d0/04/27/caption.jpg?w=1000&s=1", "address": "4276-519 Maehama, Awakigaharacho, Miyazaki 880-0835 Miyazaki Prefecture", "lat": 31.939777, "lng": 131.4643, "ref_id": 17376608, "rating": 4.5, "num_reviews": 0, "website": "https://www.facebook.com/blueowl.fika/", "contact_phone": "+81 985-77-8520", "contact_email": null, "status": 1, "source_type": 1, "numberReviews": 3}, {"name": "Bikkuri Donkeyoshimamachi", "type": "restaurant", "image": "https://dynamic-media-cdn.tripadvisor.com/media/photo-o/1b/8f/98/e5/caption.jpg?w=1000&s=1", "address": "124-1 Kunikusa Oshimacho, Miyazaki Miyazaki Prefecture", "lat": 31.9418, "lng": 131.44043, "ref_id": 7471781, "rating": 4, "num_reviews": 0, "website": null, "contact_phone": "+81 985-35-5456", "contact_email": null, "status": 1, "source_type": 1, "numberReviews": 7}, {"name": "Sushi Dokoro Yashio", "type": "restaurant", "image": null, "address": "Hamayama Yamasakicho Sheraton Grande Ocean Resort 1F, Miyazaki 880-0836 Miyazaki Prefecture", "lat": 31.958942, "lng": 131.47025, "ref_id": 9691736, "rating": 4, "num_reviews": 0, "website": null, "contact_phone": "+81 985-21-1142", "contact_email": null, "status": 1, "source_type": 1, "numberReviews": 4}, {"name": "Kodaijin", "type": "restaurant", "image": "https://dynamic-media-cdn.tripadvisor.com/media/photo-o/18/2c/59/3f/caption.jpg?w=1000&s=1", "address": "382-5 Rokutanda, Murasumicho, Miyazaki 880-0837 Miyazaki Prefecture", "lat": 31.954994, "lng": 131.44261, "ref_id": 14917959, "rating": 4, "num_reviews": 0, "website": null, "contact_phone": "+81 985-77-8388", "contact_email": null, "status": 1, "source_type": 1, "numberReviews": 4}, {"name": "Craigton House Oshima", "type": "restaurant", "image": "https://dynamic-media-cdn.tripadvisor.com/media/photo-o/05/d5/8e/4e/craigton-house-oshima.jpg?w=1000&s=1", "address": "331 Oshimacho, Miyazaki 880-0824 Miyazaki Prefecture", "lat": 31.943935, "lng": 131.44157, "ref_id": 6062501, "rating": 3.5, "num_reviews": 0, "website": null, "contact_phone": "+81 985-24-0553", "contact_email": null, "status": 1, "source_type": 1, "numberReviews": 10}, {"name": "Phoenix Country Club Restaurant", "type": "restaurant", "image": null, "address": "3083 Shioji Hamayama Phoenix Country Club Club House 2F, Miyazaki 880-0122 Miyazaki Prefecture", "lat": 31.974487, "lng": 131.47276, "ref_id": 14938328, "rating": 5, "num_reviews": 0, "website": "https://golf.seagaia.co.jp/pcc/facility/restaurant.html", "contact_phone": "+81 985-21-1218", "contact_email": null, "status": 1, "source_type": 1, "numberReviews": 2}, {"name": "Ciao Pasta", "type": "restaurant", "image": "https://dynamic-media-cdn.tripadvisor.com/media/photo-o/11/46/d2/35/photo1jpg.jpg?w=1000&s=1", "address": "6991-1 Oaza Shimanouchi, Miyazaki Miyazaki Prefecture", "lat": 31.984911, "lng": 131.44902, "ref_id": 7471753, "rating": 4.5, "num_reviews": 0, "website": null, "contact_phone": "+81 985-65-3013", "contact_email": null, "status": 1, "source_type": 1, "numberReviews": 3}, {"name": "Oshokujinomise Mikan", "type": "restaurant", "image": "https://dynamic-media-cdn.tripadvisor.com/media/photo-o/12/88/71/6c/caption.jpg?w=1000&s=1", "address": "2759-71 Shioji, Miyazaki 880-0122 Miyazaki Prefecture", "lat": 31.970856, "lng": 131.46725, "ref_id": 13258293, "rating": 4.5, "num_reviews": 0, "website": null, "contact_phone": "+81 985-39-0268", "contact_email": null, "status": 1, "source_type": 1, "numberReviews": 3}, {"name": "Hampentei", "type": "restaurant", "image": "https://dynamic-media-cdn.tripadvisor.com/media/photo-o/16/87/94/60/photo2jpg.jpg?w=1000&s=1", "address": "1326 Akaemachi, Hanagashimacho, Miyazaki 880-0036 Miyazaki Prefecture", "lat": 31.947546, "lng": 131.43246, "ref_id": 9637785, "rating": 4.5, "num_reviews": 0, "website": null, "contact_phone": "+81 985-22-9597", "contact_email": null, "status": 1, "source_type": 1, "numberReviews": 3}, {"name": "Katsu", "type": "restaurant", "image": "https://dynamic-media-cdn.tripadvisor.com/media/photo-o/19/38/c8/2b/caption.jpg?w=1000&s=1", "address": "3-1-32 Otoganadai, Onojo Qu\u00e2\u0323n Fukuoka", "lat": 33.5397, "lng": 130.49295, "ref_id": 7548868, "rating": 4.5, "num_reviews": 0, "website": null, "contact_phone": "+81 92-503-0503", "contact_email": null, "status": 1, "source_type": 1, "numberReviews": 4}, {"name": "Boxwood", "type": "restaurant", "image": "https://dynamic-media-cdn.tripadvisor.com/media/photo-o/1c/b1/a6/2c/caption.jpg?w=1000&s=1", "address": "478-1 Shitafuchi, Asakura 838-0016 Qu\u00e2\u0323n Fukuoka", "lat": 33.445576, "lng": 130.67014, "ref_id": 13261157, "rating": 4.5, "num_reviews": 0, "website": null, "contact_phone": "+81 946-24-1551", "contact_email": null, "status": 1, "source_type": 1, "numberReviews": 3}, {"name": "Motsunabe Hirashima", "type": "restaurant", "image": "https://dynamic-media-cdn.tripadvisor.com/media/photo-o/0c/eb/1b/07/caption.jpg?w=1000&s=1", "address": "4-3-11 Gojo, Dazaifu Qu\u00e2\u0323n Fukuoka", "lat": 33.511322, "lng": 130.52763, "ref_id": 7428263, "rating": 4.5, "num_reviews": 0, "website": null, "contact_phone": "+81 92-921-1636", "contact_email": null, "status": 1, "source_type": 1, "numberReviews": 4}, {"name": "Nihonichi Taiyaki Dazaifu Honten", "type": "restaurant", "image": "https://dynamic-media-cdn.tripadvisor.com/media/photo-o/0f/58/e0/9c/dsc-0171-largejpg.jpg?w=1000&s=1", "address": "399 Haru, Chikushino 818-0005 Qu\u00e2\u0323n Fukuoka", "lat": 33.516994, "lng": 130.54749, "ref_id": 9468398, "rating": 4.5, "num_reviews": 0, "website": null, "contact_phone": "+81 92-921-7001", "contact_email": null, "status": 1, "source_type": 1, "numberReviews": 4}, {"name": "McDonald's Aeon Onojo", "type": "restaurant", "image": "https://dynamic-media-cdn.tripadvisor.com/media/photo-o/05/d6/2c/d7/mcdonald-s-aeon-onojo.jpg?w=1000&s=1", "address": "4-1-1 Nishikimachi, Onojo 816-0935 Qu\u00e2\u0323n Fukuoka", "lat": 33.537807, "lng": 130.47627, "ref_id": 6065050, "rating": 3.5, "num_reviews": 0, "website": null, "contact_phone": "+81 92-513-5301", "contact_email": null, "status": 1, "source_type": 1, "numberReviews": 9}, {"name": "Membo Hana Fubuki", "type": "restaurant", "image": "https://dynamic-media-cdn.tripadvisor.com/media/photo-o/0e/2d/c6/2a/dsc-0313-largejpg.jpg?w=1000&s=1", "address": "5-228 Yayoigaoka, Tosu 841-0005 Saga Prefecture", "lat": 33.40281, "lng": 130.5156, "ref_id": 7500366, "rating": 4, "num_reviews": 0, "website": null, "contact_phone": "+81 942-82-6612", "contact_email": null, "status": 1, "source_type": 1, "numberReviews": 6}, {"name": "Akizukitofu", "type": "restaurant", "image": "https://dynamic-media-cdn.tripadvisor.com/media/photo-o/11/fc/5d/a8/photo0jpg.jpg?w=1000&s=1", "address": "115-3 Senzu, Asakura Qu\u00e2\u0323n Fukuoka", "lat": 33.460144, "lng": 130.67964, "ref_id": 7549362, "rating": 4.5, "num_reviews": 0, "website": null, "contact_phone": "+81 946-25-0839", "contact_email": null, "status": 1, "source_type": 1, "numberReviews": 4}, {"name": "Haru Sri Lanka", "type": "restaurant", "image": null, "address": "5-17 The Mall Kasuga 2F, Kasuga 816-0814 Qu\u00e2\u0323n Fukuoka", "lat": 33.516724, "lng": 130.47064, "ref_id": 6067661, "rating": 4.5, "num_reviews": 0, "website": null, "contact_phone": "+81 92-595-6775", "contact_email": null, "status": 1, "source_type": 1, "numberReviews": 8}, {"name": "Dining Toride Torisu", "type": "restaurant", "image": "https://dynamic-media-cdn.tripadvisor.com/media/photo-o/05/d5/a4/7c/dining-toride-torisu.jpg?w=1000&s=1", "address": "721-1 Taishomachi, Tosu 841-0032 Saga Prefecture", "lat": 33.37651, "lng": 130.5152, "ref_id": 6070443, "rating": 4.5, "num_reviews": 0, "website": null, "contact_phone": "+81 942-81-4333", "contact_email": null, "status": 1, "source_type": 1, "numberReviews": 3}, {"name": "Lotteria Kiyama Parking Area", "type": "restaurant", "image": "https://dynamic-media-cdn.tripadvisor.com/media/photo-o/14/3e/7c/d0/caption.jpg?w=1000&s=1", "address": "1318 Haruda, Chikushino 818-0024 Qu\u00e2\u0323n Fukuoka", "lat": 33.442436, "lng": 130.53207, "ref_id": 6048789, "rating": 3.5, "num_reviews": 0, "website": null, "contact_phone": "+81 942-81-7551", "contact_email": null, "status": 1, "source_type": 1, "numberReviews": 27}, {"name": "Four Seasons Tsukushino", "type": "restaurant", "image": null, "address": "1401 Nagaoka, Chikushino 818-0066 Qu\u00e2\u0323n Fukuoka", "lat": 33.475822, "lng": 130.53622, "ref_id": 7548548, "rating": 4.5, "num_reviews": 0, "website": null, "contact_phone": "+81 92-923-7655", "contact_email": null, "status": 1, "source_type": 1, "numberReviews": 3}, {"name": "Hotomeki-An", "type": "restaurant", "image": "https://dynamic-media-cdn.tripadvisor.com/media/photo-o/0d/86/dc/1c/caption.jpg?w=1000&s=1", "address": "221-33 Kizuka, Zendojimachi, Kurume 839-0822 Qu\u00e2\u0323n Fukuoka", "lat": 33.31935, "lng": 130.59422, "ref_id": 9643641, "rating": 3.5, "num_reviews": 0, "website": "http://www.michinoeki-kurume.com/", "contact_phone": "+81 942-47-4222", "contact_email": null, "status": 1, "source_type": 1, "numberReviews": 7}, {"name": "Kyushu Chikuho Ramen Yamagoya Yasu", "type": "restaurant", "image": "https://dynamic-media-cdn.tripadvisor.com/media/photo-o/05/d7/3e/c8/kyushu-chikuho-ramen.jpg?w=1000&s=1", "address": "390-1 Chojamachi Chikuzen-Machi, Chikuzen-machi, Asakura-gun 838-0204 Qu\u00e2\u0323n Fukuoka", "lat": 33.45222, "lng": 130.6087, "ref_id": 6064547, "rating": 4, "num_reviews": 0, "website": null, "contact_phone": "+81 946-42-3719", "contact_email": null, "status": 1, "source_type": 1, "numberReviews": 5}, {"name": "West Yakiniku", "type": "restaurant", "image": "https://dynamic-media-cdn.tripadvisor.com/media/photo-o/0a/3e/b6/75/caption.jpg?w=1000&s=1", "address": "1496-1 Maki-Machi, Tosu Saga Prefecture", "lat": 33.355026, "lng": 130.514, "ref_id": 7500238, "rating": 4, "num_reviews": 0, "website": null, "contact_phone": "+81 942-84-0466", "contact_email": null, "status": 1, "source_type": 1, "numberReviews": 6}, {"name": "Karamenya Rin Sohonke, Ohashi", "type": "restaurant", "image": "https://dynamic-media-cdn.tripadvisor.com/media/photo-o/0d/6f/c3/a9/caption.jpg?w=1000&s=1", "address": "1-16-9 Ohashi, Minami-Ku, Fukuoka 815-0033 Qu\u00e2\u0323n Fukuoka", "lat": 33.55849, "lng": 130.42549, "ref_id": 11736616, "rating": 3.5, "num_reviews": 0, "website": "http://hrt-rin.com/", "contact_phone": "+81 92-408-4333", "contact_email": null, "status": 1, "source_type": 1, "numberReviews": 3}, {"name": "Seafood Sakaba Toto", "type": "restaurant", "image": "https://dynamic-media-cdn.tripadvisor.com/media/photo-o/14/39/d1/a1/photo1jpg.jpg?w=1000&s=1", "address": "1-4-6 Ohashi, Minami-Ku Fox Bldg. 1F, Fukuoka 815-0033 Qu\u00e2\u0323n Fukuoka", "lat": 33.55893, "lng": 130.42844, "ref_id": 9613839, "rating": 4, "num_reviews": 0, "website": null, "contact_phone": "+81 50-5787-0799", "contact_email": null, "status": 1, "source_type": 1, "numberReviews": 1}, {"name": "Kikuya Hakata", "type": "restaurant", "image": "https://dynamic-media-cdn.tripadvisor.com/media/photo-o/19/7a/9c/38/caption.jpg?w=1000&s=1", "address": "2-8-12 2F, Hakataekimae, Hakata, Fukuoka 812-0011 Qu\u00e2\u0323n Fukuoka", "lat": 33.59019, "lng": 130.41414, "ref_id": 18999944, "rating": 3.5, "num_reviews": 0, "website": "", "contact_phone": "+81 92-710-7119", "contact_email": null, "status": 1, "source_type": 1, "numberReviews": 2}, {"name": "Bikkuritei", "type": "restaurant", "image": null, "address": "10-12 Katanawa, Nakagawa Qu\u00e2\u0323n Fukuoka", "lat": 33.522114, "lng": 130.42328, "ref_id": 7633477, "rating": 4, "num_reviews": 0, "website": null, "contact_phone": "+81 92-954-0141", "contact_email": null, "status": 1, "source_type": 1, "numberReviews": 1}, {"name": "Ganso Yorimichi Yokocho", "type": "restaurant", "image": null, "address": "10-6-D Tamagawacho, Minami-Ku, Fukuoka 815-0037 Qu\u00e2\u0323n Fukuoka", "lat": 33.565968, "lng": 130.41615, "ref_id": 9948178, "rating": 4, "num_reviews": 0, "website": null, "contact_phone": "+81 92-552-5595", "contact_email": null, "status": 1, "source_type": 1, "numberReviews": 1}, {"name": "Teuchi Soba Sonokine", "type": "restaurant", "image": null, "address": "9-43 Katanawa, Nakagawa 811-1201 Qu\u00e2\u0323n Fukuoka", "lat": 33.52046, "lng": 130.42328, "ref_id": 10012552, "rating": 4, "num_reviews": 0, "website": null, "contact_phone": "+81 92-953-2140", "contact_email": null, "status": 1, "source_type": 1, "numberReviews": 1}, {"name": "Yakiniku Hyotan", "type": "restaurant", "image": null, "address": "4-1 Nakahara, Nakagawa Qu\u00e2\u0323n Fukuoka", "lat": 33.515594, "lng": 130.43404, "ref_id": 7483021, "rating": 4, "num_reviews": 0, "website": null, "contact_phone": "+81 92-953-3912", "contact_email": null, "status": 1, "source_type": 1, "numberReviews": 1}, {"name": "Wami Shimada", "type": "restaurant", "image": null, "address": "2-151 Nakahara, Nakagawa 811-1213 Qu\u00e2\u0323n Fukuoka", "lat": 33.517666, "lng": 130.43462, "ref_id": 14737994, "rating": 4, "num_reviews": 0, "website": null, "contact_phone": "+81 92-953-2557", "contact_email": null, "status": 1, "source_type": 1, "numberReviews": 1}, {"name": "Hotto Motto Nakagawa Machiten", "type": "restaurant", "image": null, "address": "1-10 Matsunoki, Nakagawa 811-1251 Qu\u00e2\u0323n Fukuoka", "lat": 33.515396, "lng": 130.4335, "ref_id": 13246042, "rating": 4, "num_reviews": 0, "website": null, "contact_phone": "+81 92-952-6761", "contact_email": null, "status": 1, "source_type": 1, "numberReviews": 1}, {"name": "Yakitori Yamato", "type": "restaurant", "image": null, "address": "2-68 Imamitsu, Nakagawa 811-1211 Qu\u00e2\u0323n Fukuoka", "lat": 33.519352, "lng": 130.43271, "ref_id": 10019085, "rating": 4, "num_reviews": 0, "website": null, "contact_phone": "+81 92-952-1356", "contact_email": null, "status": 1, "source_type": 1, "numberReviews": 1}, {"name": "Curry Cafe Wara", "type": "restaurant", "image": "https://dynamic-media-cdn.tripadvisor.com/media/photo-o/05/d6/2a/1e/curry-cafe-wara.jpg?w=1000&s=1", "address": "2-132 Nakabaru, Nakagawa 811-1213 Qu\u00e2\u0323n Fukuoka", "lat": 33.517925, "lng": 130.43542, "ref_id": 6353098, "rating": 4, "num_reviews": 0, "website": null, "contact_phone": "+81 92-951-3921", "contact_email": null, "status": 1, "source_type": 1, "numberReviews": 1},