[{"name": "Atelier Deja Vu", "type": "attraction", "image": null, "address": "1-12 Ehiranakamachi, Miyazaki 880-0814 Miyazaki Prefecture", "lat": 31.920612, "lng": 131.42805, "ref_id": 19242723, "rating": 0, "num_reviews": 0, "website": null, "contact_phone": "+81 985-27-7665", "contact_email": null, "status": 1, "source_type": 1}, {"name": "Shodaiyaki Nakaderagama", "type": "attraction", "image": "https://dynamic-media-cdn.tripadvisor.com/media/photo-o/1a/83/9f/40/caption.jpg?w=1000&s=1", "address": "1192 Birch, Arao 864-0165 Kumamoto Prefecture", "lat": 32.970264, "lng": 130.5022, "ref_id": 19242740, "rating": 0, "num_reviews": 0, "website": null, "contact_phone": "+81 968-68-7326", "contact_email": null, "status": 1, "source_type": 1}, {"name": "Karaoke Reiwa", "type": "attraction", "image": null, "address": "2491 12 Himedomachi Himeura, Kamiamakusa 866-0101 Kumamoto Prefecture", "lat": 32.440975, "lng": 130.40517, "ref_id": 19242743, "rating": 0, "num_reviews": 0, "website": null, "contact_phone": "+81 969-58-3536", "contact_email": null, "status": 1, "source_type": 1}, {"name": "Ochozu no Mori", "type": "attraction", "image": "https://dynamic-media-cdn.tripadvisor.com/media/photo-o/10/87/0d/c9/caption.jpg?w=1000&s=1", "address": "7-1626 Hanazono, Nishi-ku, Kumamoto 860-0072 Kumamoto Prefecture", "lat": 32.83102, "lng": 130.68657, "ref_id": 3937938, "rating": 4, "num_reviews": 0, "website": "http://nijimasu.jp/", "contact_phone": "+81 96-352-9609", "contact_email": null, "status": 1, "source_type": 1, "numberReviews": "13"}, {"name": "Shorin-ji Temple", "type": "attraction", "image": "https://dynamic-media-cdn.tripadvisor.com/media/photo-o/13/15/f3/60/caption.jpg?w=1000&s=1", "address": "3-6-14, Tenjin, Chuo, Fukuoka 810-0001 Qu\u00e2\u0323n Fukuoka", "lat": 33.592846, "lng": 130.39551, "ref_id": 11946537, "rating": 3, "num_reviews": 0, "website": null, "contact_phone": "+81 92-741-8563", "contact_email": null, "status": 1, "source_type": 1, "numberReviews": "7"}, {"name": "Port of Hakata Bay Side Museum", "type": "attraction", "image": "https://dynamic-media-cdn.tripadvisor.com/media/photo-o/17/2c/a7/a8/photo7jpg.jpg?w=1000&s=1", "address": "14-1, Chikkohonmachi, Hakata, Fukuoka Qu\u00e2\u0323n Fukuoka", "lat": 33.603966, "lng": 130.3978, "ref_id": 8289467, "rating": 3.5, "num_reviews": 0, "website": null, "contact_phone": null, "contact_email": null, "status": 1, "source_type": 1, "numberReviews": "23"}, {"name": "Oseri Falls", "type": "attraction", "image": "https://dynamic-media-cdn.tripadvisor.com/media/photo-o/13/3b/5b/fb/caption.jpg?w=1000&s=1", "address": "Saigo Obaru, Misato-cho, Higashiusuki-gun 883-1212 Miyazaki Prefecture", "lat": 32.450584, "lng": 131.39326, "ref_id": 12929491, "rating": 4.5, "num_reviews": 0, "website": "http://www.town.miyazaki-misato.lg.jp/2556.htm", "contact_phone": null, "contact_email": null, "status": 1, "source_type": 1, "numberReviews": "4"}, {"name": "Funai Castle Ruin", "type": "attraction", "image": "https://dynamic-media-cdn.tripadvisor.com/media/photo-o/10/d2/2a/01/photo0jpg.jpg?w=1000&s=1", "address": "4 Niagemachi, Oita 870-0046 Oita Prefecture", "lat": 33.24013, "lng": 131.61139, "ref_id": 1373216, "rating": 3.5, "num_reviews": 0, "website": "http://www.city.oita.oita.jp/o204/bunkasports/shitebunkazai/1352943146749.html", "contact_phone": "", "contact_email": "", "status": 1, "source_type": 1, "numberReviews": "124"}, {"name": "Ariakenomori Flowerpark", "type": "attraction", "image": "https://dynamic-media-cdn.tripadvisor.com/media/photo-o/0a/33/93/a4/caption.jpg?w=1000&s=1", "address": "2524-607 Ariakecho Yueotsu, Shimabara 859-1402 Nagasaki Prefecture", "lat": 32.817978, "lng": 130.30167, "ref_id": 2081838, "rating": 4, "num_reviews": 0, "website": "http://www.ariake-f.com/", "contact_phone": "+81 957-68-5252", "contact_email": "", "status": 1, "source_type": 1, "numberReviews": "8"}, {"name": "Shiineno Ishiyane", "type": "attraction", "image": "https://dynamic-media-cdn.tripadvisor.com/media/photo-o/0f/74/b8/4b/caption.jpg?w=1000&s=1", "address": "Izuharamachi Shiine, Tsushima 817-0247 Nagasaki Prefecture", "lat": 34.221745, "lng": 129.18991, "ref_id": 1424871, "rating": 4, "num_reviews": 0, "website": "", "contact_phone": "", "contact_email": "", "status": 1, "source_type": 1, "numberReviews": "23"}, {"name": "Jurokurakan at Kannoji Temple", "type": "attraction", "image": "https://dynamic-media-cdn.tripadvisor.com/media/photo-o/10/96/0d/59/caption.jpg?w=1000&s=1", "address": "1782, TeramachI HachImanyama, Taketa Oita Prefecture", "lat": 32.968113, "lng": 131.39139, "ref_id": 8150015, "rating": 3.5, "num_reviews": 0, "website": null, "contact_phone": null, "contact_email": null, "status": 1, "source_type": 1, "numberReviews": "7"}, {"name": "Omura City Tourist Information Center", "type": "attraction", "image": "https://dynamic-media-cdn.tripadvisor.com/media/photo-o/12/9d/3c/36/caption.jpg?w=1000&s=1", "address": "1-45-3 Kushima, Omura 856-0834 Nagasaki Prefecture", "lat": 32.899143, "lng": 129.95905, "ref_id": 10049412, "rating": 3.5, "num_reviews": 0, "website": "http://www.e-oomura.jp/", "contact_phone": "+81 957-52-3605", "contact_email": "kanko@e-oomura.jp", "status": 1, "source_type": 1, "numberReviews": "8"}, {"name": "Odo Shrine", "type": "attraction", "image": "https://dynamic-media-cdn.tripadvisor.com/media/photo-o/15/80/cb/03/20181125-162217-largejpg.jpg?w=1000&s=1", "address": "3-93 Tsurunoshima, Miyazaki 880-0014 Miyazaki Prefecture", "lat": 31.913052, "lng": 131.40866, "ref_id": 15016363, "rating": 4, "num_reviews": 0, "website": "", "contact_phone": "+81 985-23-6684", "contact_email": null, "status": 1, "source_type": 1, "numberReviews": "4"}, {"name": "Magarida no Sato", "type": "attraction", "image": "https://dynamic-media-cdn.tripadvisor.com/media/photo-o/12/49/a8/b1/caption.jpg?w=1000&s=1", "address": "337-1 Nijoishizaki, Itoshima 819-1623 Qu\u00e2\u0323n Fukuoka", "lat": 33.520138, "lng": 130.1611, "ref_id": 8450052, "rating": 3, "num_reviews": 0, "website": "http://www.city.itoshima.lg.jp/soshiki/29/tyokubaisyo1.html", "contact_phone": "+81 92-325-2349", "contact_email": null, "status": 1, "source_type": 1, "numberReviews": "5"}, {"name": "Ichigo House Koba", "type": "attraction", "image": "https://dynamic-media-cdn.tripadvisor.com/media/photo-o/1a/fd/df/73/caption.jpg?w=1000&s=1", "address": "648 Ozato, Ichikikushikino 899-2103 Kagoshima Prefecture", "lat": 31.675585, "lng": 130.30621, "ref_id": 15831786, "rating": 5, "num_reviews": 0, "website": "http://www.158koba.jp/", "contact_phone": "+81 996-36-5115", "contact_email": null, "status": 1, "source_type": 1, "numberReviews": "1"}, {"name": "Michi no Eki Kanyusha Hikosan", "type": "attraction", "image": "https://dynamic-media-cdn.tripadvisor.com/media/photo-o/0f/c2/7f/90/caption.jpg?w=1000&s=1", "address": "1113-1 Noda, Soeda-machi, Tagawa-gun 824-0604 Qu\u00e2\u0323n Fukuoka", "lat": 33.54946, "lng": 130.8601, "ref_id": 11649909, "rating": 4, "num_reviews": 0, "website": "http://www.kanyuusya.com/about/", "contact_phone": "+81 947-47-7039", "contact_email": null, "status": 1, "source_type": 1, "numberReviews": "11"}, {"name": "Amakusa Tsuribori Leasure Land", "type": "attraction", "image": "https://dynamic-media-cdn.tripadvisor.com/media/photo-o/13/98/c1/d5/bbq.jpg?w=1000&s=1", "address": "5697-1 Naka Oyanomachi, Kamiamakusa 869-3603 Kumamoto Prefecture", "lat": 32.565826, "lng": 130.45296, "ref_id": 13812484, "rating": 3, "num_reviews": 0, "website": "http://turiland.jp/", "contact_phone": "+81 964-56-0188", "contact_email": null, "status": 1, "source_type": 1, "numberReviews": "1"}, {"name": "Fukuoka Prefecture Ryokuchi Center", "type": "attraction", "image": "https://dynamic-media-cdn.tripadvisor.com/media/photo-o/15/52/0d/87/caption.jpg?w=1000&s=1", "address": "1125 Tanushimarumachi Masuoda, Kurume 839-1213 Qu\u00e2\u0323n Fukuoka", "lat": 33.338226, "lng": 130.68422, "ref_id": 8874623, "rating": 4.5, "num_reviews": 0, "website": "http://www.ryoku-cen.net/customer2/", "contact_phone": "+81 943-72-1193", "contact_email": null, "status": 1, "source_type": 1, "numberReviews": "6"}, {"name": "Honkoji Temple", "type": "attraction", "image": "https://dynamic-media-cdn.tripadvisor.com/media/photo-o/08/12/39/3c/caption.jpg?w=1000&s=1", "address": "3380 Honkojimachi, Shimabara 855-0073 Nagasaki Prefecture", "lat": 32.791473, "lng": 130.35236, "ref_id": 1384799, "rating": 4.5, "num_reviews": 0, "website": null, "contact_phone": "+81 957-62-3382", "contact_email": "", "status": 1, "source_type": 1, "numberReviews": "6"}, {"name": "Hirado City Tourist Information", "type": "attraction", "image": "https://dynamic-media-cdn.tripadvisor.com/media/photo-o/07/19/9e/d6/hirado-city-tourist-informatio.jpg?w=1000&s=1", "address": "776-6 Sakigatacho, Hirado 859-5104 Nagasaki Prefecture", "lat": 33.371597, "lng": 129.55449, "ref_id": 7353805, "rating": 3.5, "num_reviews": 0, "website": null, "contact_phone": "+81 950-22-2015", "contact_email": null, "status": 1, "source_type": 1, "numberReviews": "31"}, {"name": "Kasasaebisu", "type": "attraction", "image": "https://dynamic-media-cdn.tripadvisor.com/media/photo-o/09/ee/32/1a/caption.jpg?w=1000&s=1", "address": "14847-1 Kataura Kasasacho, Minamisatsuma 897-1301 Kagoshima Prefecture", "lat": 31.416508, "lng": 130.13426, "ref_id": 1772702, "rating": 3.5, "num_reviews": 0, "website": "http://www.kasasaebisu.com", "contact_phone": "+81 993-59-5020", "contact_email": "", "status": 1, "source_type": 1, "numberReviews": "11"}, {"name": "Chikuho Electric Railroad", "type": "attraction", "image": "https://dynamic-media-cdn.tripadvisor.com/media/photo-o/14/de/76/5a/caption.jpg?w=1000&s=1", "address": "Yahatanishi-Ku, Kitakyushu 807-1146 Qu\u00e2\u0323n Fukuoka", "lat": 33.789368, "lng": 130.72424, "ref_id": 10901271, "rating": 3.5, "num_reviews": 0, "website": "http://www.chikutetsu.co.jp/", "contact_phone": "+81 93-619-3077", "contact_email": null, "status": 1, "source_type": 1, "numberReviews": "9"}, {"name": "Nikko Botanical Garden", "type": "attraction", "image": "https://dynamic-media-cdn.tripadvisor.com/media/photo-o/0c/79/cb/34/caption.jpg?w=1000&s=1", "address": "1842 Hanaishicho, Nikko 321-1435 Tochigi Prefecture", "lat": 36.75128, "lng": 139.58548, "ref_id": 2188606, "rating": 4.5, "num_reviews": 0, "website": "http://www.bg.s.u-tokyo.ac.jp/nikko/", "contact_phone": "+81 288-54-0206", "contact_email": "", "status": 1, "source_type": 1, "numberReviews": "20"}, {"name": "Usuki Castle Ruin", "type": "attraction", "image": "https://dynamic-media-cdn.tripadvisor.com/media/photo-o/09/72/42/37/caption.jpg?w=1000&s=1", "address": "91 Nyujima Usuki, Usuki 875-0041 Oita Prefecture", "lat": 33.121033, "lng": 131.80116, "ref_id": 1820301, "rating": 4, "num_reviews": 0, "website": "http://www.visit-oita.jp/", "contact_phone": "+81 972-64-7130", "contact_email": null, "status": 1, "source_type": 1, "numberReviews": "70"}, {"name": "Akizuki Butsugan-ji Temple", "type": "attraction", "image": "https://dynamic-media-cdn.tripadvisor.com/media/photo-o/18/6e/03/c8/dsc-6015-largejpg.jpg?w=1000&s=1", "address": "3-6 Akizuki, Asakura 838-0001 Qu\u00e2\u0323n Fukuoka", "lat": 33.465225, "lng": 130.6947, "ref_id": 17754669, "rating": 3, "num_reviews": 0, "website": "http://www.butsuganji.com/index.php", "contact_phone": "+81 946-25-8080", "contact_email": null, "status": 1, "source_type": 1, "numberReviews": "3"}, {"name": "Nasukogen Visitor Center", "type": "attraction", "image": "https://dynamic-media-cdn.tripadvisor.com/media/photo-o/17/d5/48/7e/dsc-2612-largejpg.jpg?w=1000&s=1", "address": "207-2 Yumoto, Nasu-machi, Nasu-gun 325-0301 Tochigi Prefecture", "lat": 37.096863, "lng": 140.00429, "ref_id": 12491916, "rating": 4, "num_reviews": 0, "website": "http://www.nasuheiseinomori.go.jp/vc/", "contact_phone": "+81 287-76-7512", "contact_email": null, "status": 1, "source_type": 1, "numberReviews": "6"}, {"name": "Kaiun Road Tomikuji", "type": "attraction", "image": "https://dynamic-media-cdn.tripadvisor.com/media/photo-o/0d/bc/d9/1b/photo3jpg.jpg?w=1000&s=1", "address": "Kunisakimachi Tomikuura, Kunisaki 873-0643 Oita Prefecture", "lat": 33.60483, "lng": 131.68701, "ref_id": 11444153, "rating": 4, "num_reviews": 0, "website": null, "contact_phone": null, "contact_email": null, "status": 1, "source_type": 1, "numberReviews": "5"}, {"name": "Aizome River", "type": "attraction", "image": "https://dynamic-media-cdn.tripadvisor.com/media/photo-o/0f/91/e1/3a/caption.jpg?w=1000&s=1", "address": "2 Saifu, Dazaifu 818-0117 Qu\u00e2\u0323n Fukuoka", "lat": 33.51864, "lng": 130.53423, "ref_id": 10317690, "rating": 3.5, "num_reviews": 0, "website": null, "contact_phone": null, "contact_email": null, "status": 1, "source_type": 1, "numberReviews": "14"}, {"name": "Shimabara Hibaruyamahana Park", "type": "attraction", "image": "https://dynamic-media-cdn.tripadvisor.com/media/photo-o/17/47/8a/7c/20190417-101840-largejpg.jpg?w=1000&s=1", "address": "Kamiorihashimachi Shimabara Hibaruyamahana Park, Shimabara 855-0076 Nagasaki Prefecture", "lat": 32.790012, "lng": 130.33781, "ref_id": 17325586, "rating": 4.5, "num_reviews": 0, "website": "https://www.nagasaki-tabinet.com/guide/60681/", "contact_phone": "+81 957-62-3986", "contact_email": null, "status": 1, "source_type": 1, "numberReviews": "6"}, {"name": "Ondake Shirine", "type": "attraction", "image": "https://dynamic-media-cdn.tripadvisor.com/media/photo-o/0d/34/0b/f5/caption.jpg?w=1000&s=1", "address": "Iki Nagasaki Prefecture", "lat": 33.837444, "lng": 129.75151, "ref_id": 2083108, "rating": 4.5, "num_reviews": 0, "website": "https://japan-photo.jnto.go.jp/eng/photo_detail.php?PI=182445", "contact_phone": null, "contact_email": null, "status": 1, "source_type": 1, "numberReviews": "29"}, {"name": "Kawaminami Parking Area Downline", "type": "attraction", "image": "https://dynamic-media-cdn.tripadvisor.com/media/photo-o/25/28/a5/71/caption.jpg?w=1000&s=1", "address": "Kawaminami-cho, Koyu-gun 889-1300 Miyazaki Prefecture", "lat": 32.20057, "lng": 131.48596, "ref_id": 13875571, "rating": 3.5, "num_reviews": 0, "website": "https://w-holdings.co.jp/sapa/3402.html", "contact_phone": "+81 983-27-6292", "contact_email": null, "status": 1, "source_type": 1, "numberReviews": "7"}, {"name": "Kumamoto Castle Museum Wakuwakuza", "type": "attraction", "image": "https://dynamic-media-cdn.tripadvisor.com/media/photo-o/13/05/71/28/caption.jpg?w=1000&s=1", "address": "1-1-1 Ninomaru, Chuo-ku, Kumamoto 860-0008 Kumamoto Prefecture", "lat": 32.8037, "lng": 130.7035, "ref_id": 13022745, "rating": 4, "num_reviews": 0, "website": "http://www.sakuranobaba-johsaien.jp/waku-index", "contact_phone": "+81 96-288-5600", "contact_email": null, "status": 1, "source_type": 1, "numberReviews": "22"}, {"name": "Senju-in Temple", "type": "attraction", "image": "https://dynamic-media-cdn.tripadvisor.com/media/photo-o/17/a5/85/22/caption.jpg?w=1000&s=1", "address": "663-4 Nijomitsuyoshi, Itoshima 819-1624 Qu\u00e2\u0323n Fukuoka", "lat": 33.579613, "lng": 130.20122, "ref_id": 12369113, "rating": 4, "num_reviews": 0, "website": null, "contact_phone": null, "contact_email": null, "status": 1, "source_type": 1, "numberReviews": "2"}, {"name": "Irikishou General Playground Gymnasium", "type": "attraction", "image": null, "address": "6029-1 Irikicho Soeda, Satsumasendai 895-1401 Kagoshima Prefecture", "lat": 31.820536, "lng": 130.43033, "ref_id": 16955454, "rating": 3, "num_reviews": 0, "website": null, "contact_phone": "+81 996-44-3358", "contact_email": null, "status": 1, "source_type": 1, "numberReviews": "1"}, {"name": "Nagasaki National Peace Memorial Hall for the Atomic Bomb Victims", "type": "attraction", "image": "https://dynamic-media-cdn.tripadvisor.com/media/photo-o/17/bf/6d/c4/caption.jpg?w=1000&s=1", "address": "8-5 Okamachi, Nagasaki 852-8115 Nagasaki Prefecture", "lat": 32.77686, "lng": 129.86287, "ref_id": 15306442, "rating": 4, "num_reviews": 0, "website": "https://www.peace-nagasaki.go.jp/", "contact_phone": "+81 95-829-1147", "contact_email": null, "status": 1, "source_type": 1, "numberReviews": "4"}, {"name": "Nagasaki Junrei Center", "type": "attraction", "image": "https://dynamic-media-cdn.tripadvisor.com/media/photo-o/09/70/a2/c2/caption.jpg?w=1000&s=1", "address": "1-88 Onouemachi 2f, Nagasaki 850-0058 Nagasaki Prefecture", "lat": 32.752995, "lng": 129.87086, "ref_id": 8612420, "rating": 3.5, "num_reviews": 0, "website": "http://www.nagasaki-junrei-center.jp/", "contact_phone": "+81 95-893-8763", "contact_email": null, "status": 1, "source_type": 1, "numberReviews": "2"}, {"name": "Korin-ji Temple", "type": "attraction", "image": "https://dynamic-media-cdn.tripadvisor.com/media/photo-o/16/35/7c/43/1548126163312-largejpg.jpg?w=1000&s=1", "address": "186 Nioza, Usuki 875-0043 Oita Prefecture", "lat": 33.118687, "lng": 131.79987, "ref_id": 15573583, "rating": 4, "num_reviews": 0, "website": null, "contact_phone": "+81 972-62-3827", "contact_email": null, "status": 1, "source_type": 1, "numberReviews": "2"}, {"name": "Joan-ji Temple", "type": "attraction", "image": "https://dynamic-media-cdn.tripadvisor.com/media/photo-o/16/90/00/2a/caption.jpg?w=1000&s=1", "address": "5-14 Teramachi, Nagasaki 850-0872 Nagasaki Prefecture", "lat": 32.74864, "lng": 129.8838, "ref_id": 15836902, "rating": 3, "num_reviews": 0, "website": null, "contact_phone": "+81 95-823-2875", "contact_email": null, "status": 1, "source_type": 1, "numberReviews": "3"}, {"name": "Kusukawa Tenmangu Shrine", "type": "attraction", "image": "https://dynamic-media-cdn.tripadvisor.com/media/photo-o/0f/85/ad/11/caption.jpg?w=1000&s=1", "address": "61, Kusugawa, Yakushima-cho, Kumage-gun Kagoshima Prefecture", "lat": 30.414188, "lng": 130.59616, "ref_id": 8150489, "rating": 4, "num_reviews": 0, "website": null, "contact_phone": null, "contact_email": null, "status": 1, "source_type": 1, "numberReviews": "3"}, {"name": "Kannonji Temple", "type": "attraction", "image": "https://dynamic-media-cdn.tripadvisor.com/media/photo-o/0e/29/8e/ae/caption.jpg?w=1000&s=1", "address": "2330 Wakimisakimachi, Nagasaki 851-0506 Nagasaki Prefecture", "lat": 32.583923, "lng": 129.77473, "ref_id": 7594853, "rating": 3.5, "num_reviews": 0, "website": null, "contact_phone": null, "contact_email": null, "status": 1, "source_type": 1, "numberReviews": "3"}, {"name": "Saneku Sanjiro Shrine", "type": "attraction", "image": "https://dynamic-media-cdn.tripadvisor.com/media/photo-o/0e/56/bc/4d/caption.jpg?w=1000&s=1", "address": "Saneku, Setouchi-cho, Oshima-gun 894-2403 Kagoshima Prefecture", "lat": 28.185785, "lng": 129.18692, "ref_id": 8776511, "rating": 3.5, "num_reviews": 0, "website": null, "contact_phone": null, "contact_email": null, "status": 1, "source_type": 1, "numberReviews": "6"}, {"name": "Nagasaki Citizens Comprehensive Pool", "type": "attraction", "image": "https://dynamic-media-cdn.tripadvisor.com/media/photo-o/17/70/7a/a3/p-20190507-090836-largejpg.jpg?w=1000&s=1", "address": "2-2 Matsuyamamachi, Nagasaki 852-8118 Nagasaki Prefecture", "lat": 32.774765, "lng": 129.86021, "ref_id": 13018905, "rating": 3.5, "num_reviews": 0, "website": "http://www.nagasaki-sogo-pool.org/index2.htm", "contact_phone": "+81 95-845-1212", "contact_email": null, "status": 1, "source_type": 1, "numberReviews": "3"}, {"name": "Hokei Torii", "type": "attraction", "image": "https://dynamic-media-cdn.tripadvisor.com/media/photo-o/0d/ab/7e/e8/caption.jpg?w=1000&s=1", "address": "2-10-2 Irabayashi, Nagasaki 850-0802 Nagasaki Prefecture", "lat": 32.74914, "lng": 129.88794, "ref_id": 10312835, "rating": 3.5, "num_reviews": 0, "website": null, "contact_phone": null, "contact_email": null, "status": 1, "source_type": 1, "numberReviews": "7"}, {"name": "Gonohara Jizodo", "type": "attraction", "image": "https://dynamic-media-cdn.tripadvisor.com/media/photo-o/13/e0/ca/a5/caption.jpg?w=1000&s=1", "address": "75-2 Sasaguri, Sasaguri-machi, Kasuya-gun 811-2405 Qu\u00e2\u0323n Fukuoka", "lat": 33.6247, "lng": 130.58241, "ref_id": 14944467, "rating": 3, "num_reviews": 0, "website": null, "contact_phone": "+81 92-947-5930", "contact_email": null, "status": 1, "source_type": 1, "numberReviews": "1"}, {"name": "Jungle of Cycad", "type": "attraction", "image": "https://dynamic-media-cdn.tripadvisor.com/media/photo-o/12/cc/53/0d/caption.jpg?w=1000&s=1", "address": "Inobe, Wadomari-cho, Oshima-gun 891-9115 Kagoshima Prefecture", "lat": 27.409979, "lng": 128.6404, "ref_id": 12361726, "rating": 3.5, "num_reviews": 0, "website": "http://www.okinoerabujima.info/about/sotetsujungle/", "contact_phone": null, "contact_email": null, "status": 1, "source_type": 1, "numberReviews": "8"}, {"name": "Yakushima Umigame-Kan", "type": "attraction", "image": "https://dynamic-media-cdn.tripadvisor.com/media/photo-o/18/3d/98/02/seaweed-museum-yakushima.jpg?w=1000&s=1", "address": "489-8 Nagata, Yakushima-cho, Kumage-gun 891-4201 Kagoshima Prefecture", "lat": 30.429327, "lng": 130.5694, "ref_id": 17703060, "rating": 4, "num_reviews": 0, "website": "http://www.umigame-kan.org/", "contact_phone": "+81 997-49-6550", "contact_email": "umigamekan@m7.dion.ne.jp", "status": 1, "source_type": 1, "numberReviews": "1"}, {"name": "Statue of Orita Kanetaka", "type": "attraction", "image": "https://dynamic-media-cdn.tripadvisor.com/media/photo-o/16/e1/21/fd/dsc-4678-largejpg.jpg?w=1000&s=1", "address": "Chirancho Kori, Minamikyushu 897-0302 Kagoshima Prefecture", "lat": 31.377693, "lng": 130.44144, "ref_id": 16799559, "rating": 3, "num_reviews": 0, "website": "http://www.chiran-navi.com/CnvSinglePost.php?id=36", "contact_phone": null, "contact_email": null, "status": 1, "source_type": 1, "numberReviews": "3"}, {"name": "Danoura Eifukudo", "type": "attraction", "image": "https://dynamic-media-cdn.tripadvisor.com/media/photo-o/14/79/bc/9a/caption.jpg?w=1000&s=1", "address": "1714 Sasaguri, Sasaguri-machi, Kasuya-gun 811-2405 Qu\u00e2\u0323n Fukuoka", "lat": 33.617992, "lng": 130.56186, "ref_id": 15074523, "rating": 3, "num_reviews": 0, "website": null, "contact_phone": "+81 92-947-1587", "contact_email": null, "status": 1, "source_type": 1, "numberReviews": "1"}, {"name": "Ryujinno-taki Falls", "type": "attraction", "image": "https://dynamic-media-cdn.tripadvisor.com/media/photo-o/23/e6/72/0f/caption.jpg?w=1000&s=1", "address": "Hara, Yakushima-cho, Kumage-gun 891-4403 Kagoshima Prefecture", "lat": 30.256401, "lng": 130.5858, "ref_id": 17653520, "rating": 3.5, "num_reviews": 0, "website": null, "contact_phone": null, "contact_email": null, "status": 1, "source_type": 1, "numberReviews": "9"}, {"name": "Namban Ebisu", "type": "attraction", "image": "https://dynamic-media-cdn.tripadvisor.com/media/photo-o/15/8d/76/4b/caption.jpg?w=1000&s=1", "address": "1-11 Dozamachi, Nagasaki 850-0841 Nagasaki Prefecture", "lat": 32.74314, "lng": 129.8749, "ref_id": 15551785, "rating": 3, "num_reviews": 0, "website": null, "contact_phone": null, "contact_email": null, "status": 1, "source_type": 1, "numberReviews": "5"}, {"name": "Dejima Bridge", "type": "attraction", "image": "https://dynamic-media-cdn.tripadvisor.com/media/photo-o/2a/6f/8b/a9/caption.jpg?w=1000&s=1", "address": "Dejimamachi, Nagasaki 850-0862 Nagasaki Prefecture", "lat": 32.74353, "lng": 129.87413, "ref_id": 18920822, "rating": 3, "num_reviews": 0, "website": null, "contact_phone": null, "contact_email": null, "status": 1, "source_type": 1, "numberReviews": "10"}, {"name": "Matsugae Park", "type": "attraction", "image": "https://dynamic-media-cdn.tripadvisor.com/media/photo-o/15/b7/75/29/caption.jpg?w=1000&s=1", "address": "1 Matsugaemachi, Nagasaki 850-0921 Nagasaki Prefecture", "lat": 32.735218, "lng": 129.87146, "ref_id": 15612226, "rating": 4, "num_reviews": 0, "website": null, "contact_phone": null, "contact_email": null, "status": 1, "source_type": 1, "numberReviews": "2"}, {"name": "Fukahori Jinya Ato", "type": "attraction", "image": "https://dynamic-media-cdn.tripadvisor.com/media/photo-o/0e/2b/a6/3e/caption.jpg?w=1000&s=1", "address": "5 -291 Fukahorimachi, Nagasaki 851-0301 Nagasaki Prefecture", "lat": 32.685047, "lng": 129.82155, "ref_id": 11046487, "rating": 3.5, "num_reviews": 0, "website": "http://www.saruku.info/course/Y029.html", "contact_phone": null, "contact_email": null, "status": 1, "source_type": 1, "numberReviews": "2"}, {"name": "Grave of Shunkansozu", "type": "attraction", "image": "https://dynamic-media-cdn.tripadvisor.com/media/photo-o/13/2d/12/a4/caption.jpg?w=1000&s=1", "address": "1 Iojimamachi, Nagasaki 851-1201 Nagasaki Prefecture", "lat": 32.704155, "lng": 129.77605, "ref_id": 8232235, "rating": 4, "num_reviews": 0, "website": null, "contact_phone": null, "contact_email": null, "status": 1, "source_type": 1, "numberReviews": "3"}, {"name": "Nishiyama Shrine", "type": "attraction", "image": "https://dynamic-media-cdn.tripadvisor.com/media/photo-o/16/1f/86/2d/p-20190115-105856-largejpg.jpg?w=1000&s=1", "address": "8-18 Nishiyama Hommachi, Nagasaki 850-0005 Nagasaki Prefecture", "lat": 32.75692, "lng": 129.88277, "ref_id": 15769584, "rating": 3.5, "num_reviews": 0, "website": null, "contact_phone": "+81 95-823-1378", "contact_email": null, "status": 1, "source_type": 1, "numberReviews": "2"}, {"name": "Zenchodani Church", "type": "attraction", "image": "https://dynamic-media-cdn.tripadvisor.com/media/photo-o/0b/5d/7f/e6/caption.jpg?w=1000&s=1", "address": "519 Ogomorimachi, Nagasaki 851-0302 Nagasaki Prefecture", "lat": 32.67187, "lng": 129.82481, "ref_id": 10318276, "rating": 4.5, "num_reviews": 0, "website": null, "contact_phone": null, "contact_email": null, "status": 1, "source_type": 1, "numberReviews": "2"}, {"name": "Sasaguri Onzan-ji Temple", "type": "attraction", "image": "https://dynamic-media-cdn.tripadvisor.com/media/photo-o/14/b6/de/1a/caption.jpg?w=1000&s=1", "address": "4089 Sasaguri, Sasaguri-machi, Kasuya-gun 811-2405 Qu\u00e2\u0323n Fukuoka", "lat": 33.620678, "lng": 130.5353, "ref_id": 15122376, "rating": 3, "num_reviews": 0, "website": null, "contact_phone": "+81 92-947-1524", "contact_email": null, "status": 1, "source_type": 1, "numberReviews": "1"}, {"name": "Konjac Brick", "type": "attraction", "image": "https://dynamic-media-cdn.tripadvisor.com/media/photo-o/0e/e3/63/8a/caption.jpg?w=1000&s=1", "address": "8-1 Minami Yamatemachi inside Glover Garden in Old Glover House, Nagasaki 850-0931 Nagasaki Prefecture", "lat": 32.73338, "lng": 129.8694, "ref_id": 12287000, "rating": 3.5, "num_reviews": 0, "website": "http://www.glover-garden.jp/", "contact_phone": "+81 95-822-8223", "contact_email": null, "status": 1, "source_type": 1, "numberReviews": "4"}, {"name": "Kazahana Shell Studio", "type": "attraction", "image": "https://dynamic-media-cdn.tripadvisor.com/media/photo-o/0f/63/62/be/caption.jpg?w=1000&s=1", "address": "1294 Higashiku, Yoron-cho, Oshima-gun 891-9306 Kagoshima Prefecture", "lat": 27.02152, "lng": 128.44554, "ref_id": 1384959, "rating": 3, "num_reviews": 0, "website": null, "contact_phone": "+81 997-97-3032", "contact_email": "", "status": 1, "source_type": 1, "numberReviews": "3"}, {"name": "The Site of Hyomotsu Government Office", "type": "attraction", "image": "https://dynamic-media-cdn.tripadvisor.com/media/photo-o/15/8d/68/31/caption.jpg?w=1000&s=1", "address": "1 Dozamachi The Eighteenth Bank Head Office front, Nagasaki 850-0841 Nagasaki Prefecture", "lat": 32.74331, "lng": 129.87517, "ref_id": 15551638, "rating": 3, "num_reviews": 0, "website": "http://www.customs.go.jp/nagasaki/annai/tanbou/tanbou_w_6.htm", "contact_phone": null, "contact_email": null, "status": 1, "source_type": 1, "numberReviews": "5"}, {"name": "Yakushima Comprehensive Nature Park", "type": "attraction", "image": "https://dynamic-media-cdn.tripadvisor.com/media/photo-o/16/36/ad/9f/caption.jpg?w=1000&s=1", "address": "2077-37 Miyanoura, Yakushima-cho, Kumage-gun 891-4205 Kagoshima Prefecture", "lat": 30.423862, "lng": 130.57101, "ref_id": 13022906, "rating": 2.5, "num_reviews": 0, "website": null, "contact_phone": "+81 997-42-2727", "contact_email": null, "status": 1, "source_type": 1, "numberReviews": "2"}, {"name": "Teikisen Setonami", "type": "attraction", "image": null, "address": "26-14 Koniya Ominato Setouchi Umi no Eki, Setouchi-cho, Oshima-gun 894-1503 Kagoshima Prefecture", "lat": 28.145372, "lng": 129.30887, "ref_id": 13934056, "rating": 3.5, "num_reviews": 0, "website": "http://www.town.setouchi.lg.jp/senpaku/kotsu.html", "contact_phone": "+81 997-72-4560", "contact_email": null, "status": 1, "source_type": 1, "numberReviews": "3"}, {"name": "Sanno Shrine", "type": "attraction", "image": "https://dynamic-media-cdn.tripadvisor.com/media/photo-o/2a/47/e8/75/caption.jpg?w=1000&s=1", "address": "2-6-56 Sakamoto, Nagasaki 852-8102 Nagasaki Prefecture", "lat": 32.767426, "lng": 129.8678, "ref_id": 18193397, "rating": 4, "num_reviews": 0, "website": null, "contact_phone": "+81 95-844-1415", "contact_email": null, "status": 1, "source_type": 1, "numberReviews": "5"}, {"name": "Wakamatsu Park", "type": "attraction", "image": null, "address": "Takashimacho Sarimen, Matsuura 859-4307 Nagasaki Prefecture", "lat": 33.40815, "lng": 129.74129, "ref_id": 2083029, "rating": 0, "num_reviews": 0, "website": "", "contact_phone": "", "contact_email": "", "status": 1, "source_type": 1}, {"name": "Ceramic Reseach Center of Nagasaki", "type": "attraction", "image": null, "address": "605-2 Hiekobago Hasamicho, Higashisonogi-gun 859-3726 Nagasaki Prefecture", "lat": 33.13388, "lng": 129.87239, "ref_id": 2081823, "rating": 0, "num_reviews": 0, "website": "http://www.pref.nagasaki.jp/yogyo/", "contact_phone": "+81 956-85-3140", "contact_email": "", "status": 1, "source_type": 1}, {"name": "Moriyama Folk Museum", "type": "attraction", "image": null, "address": "1063 Moriyamacho Kieshino, Isahaya 854-0202 Nagasaki Prefecture", "lat": 32.820732, "lng": 130.12013, "ref_id": 2081825, "rating": 0, "num_reviews": 0, "website": null, "contact_phone": "+81 957-36-1116", "contact_email": "", "status": 1, "source_type": 1}, {"name": "Awashima Shrine", "type": "attraction", "image": "https://dynamic-media-cdn.tripadvisor.com/media/daodao/photo-o/03/0f/bd/4b/caption.jpg?w=1000&s=1", "address": "Noshisato Kunimicho Kojiroko, Unzen 859-1301 Nagasaki Prefecture", "lat": 32.866642, "lng": 130.2747, "ref_id": 2081843, "rating": 0, "num_reviews": 0, "website": null, "contact_phone": "+81 957-78-2111", "contact_email": "", "status": 1, "source_type": 1}, {"name": "Pegasus Riding Park", "type": "attraction", "image": null, "address": "1385-1 Kunimicho Tahirabo, Unzen 859-1325 Nagasaki Prefecture", "lat": 32.818504, "lng": 130.29118, "ref_id": 2081846, "rating": 0, "num_reviews": 0, "website": "http://www.pegasus-rp.com/", "contact_phone": "+81 957-78-5407", "contact_email": "", "status": 1, "source_type": 1}, {"name": "Amagase Tomb", "type": "attraction", "image": null, "address": "Futsucho Amagase, Minamishimabara 859-2113 Nagasaki Prefecture", "lat": 32.712826, "lng": 130.32166, "ref_id": 2081892, "rating": 0, "num_reviews": 0, "website": null, "contact_phone": "+81 50-3381-5083", "contact_email": "", "status": 1, "source_type": 1}, {"name": "Kiyotake Onsen", "type": "attraction", "image": "https://dynamic-media-cdn.tripadvisor.com/media/photo-o/15/a0/b0/e3/10-100.jpg?w=1000&s=1", "address": "1-139 Hayatochohimegi, Kirishima 899-5111 Kagoshima Prefecture", "lat": 31.762665, "lng": 130.7558, "ref_id": 2323337, "rating": 0, "num_reviews": 0, "website": null, "contact_phone": "+81 995-43-3919", "contact_email": "", "status": 1, "source_type": 1}, {"name": "Six-sided Jizo Statue in Toishi", "type": "attraction", "image": null, "address": "1788 Toishimachi, Nagasaki 851-0113 Nagasaki Prefecture", "lat": 32.7663, "lng": 129.9808, "ref_id": 2080604, "rating": 0, "num_reviews": 0, "website": "", "contact_phone": "", "contact_email": "", "status": 1, "source_type": 1}, {"name": "Yagami Hachiman Shrine", "type": "attraction", "image": null, "address": "12-60 Yagamimachi, Nagasaki 851-0133 Nagasaki Prefecture", "lat": 32.7743, "lng": 129.95032, "ref_id": 2080606, "rating": 0, "num_reviews": 0, "website": "", "contact_phone": "", "contact_email": "", "status": 1, "source_type": 1}, {"name": "Fureainomura", "type": "attraction", "image": null, "address": "Obamacho Minamikisashi, Unzen 854-0511 Nagasaki Prefecture", "lat": 32.71303, "lng": 130.22247, "ref_id": 2081858, "rating": 0, "num_reviews": 0, "website": null, "contact_phone": "+81 957-75-0376", "contact_email": "", "status": 1, "source_type": 1}, {"name": "Araisomae Shirine", "type": "attraction", "image": null, "address": "3074 Minamikushiyamacho Ko, Unzen 854-0701 Nagasaki Prefecture", "lat": 32.684967, "lng": 130.17113, "ref_id": 2081868, "rating": 0, "num_reviews": 0, "website": null, "contact_phone": "+81 957-88-3111", "contact_email": "", "status": 1, "source_type": 1}, {"name": "Arie Tawaraishi Sports Park", "type": "attraction", "image": null, "address": "3622 Ariecho Harao, Minamishimabara 859-2123 Nagasaki Prefecture", "lat": 32.711796, "lng": 130.30757, "ref_id": 2081884, "rating": 0, "num_reviews": 0, "website": null, "contact_phone": "+81 957-82-6400", "contact_email": "", "status": 1, "source_type": 1}, {"name": "Arie Sports Park", "type": "attraction", "image": null, "address": "957 Ariecho Kogawa, Minamishimabara 859-2205 Nagasaki Prefecture", "lat": 32.658672, "lng": 130.3155, "ref_id": 2081888, "rating": 0, "num_reviews": 0, "website": null, "contact_phone": "+81 957-82-1430", "contact_email": "", "status": 1, "source_type": 1}, {"name": "Uku Sunrise Marine Park", "type": "attraction", "image": null, "address": "3687 Ukumachi Taira, Sasebo 857-4901 Nagasaki Prefecture", "lat": 33.26806, "lng": 129.14479, "ref_id": 2081906, "rating": 0, "num_reviews": 0, "website": null, "contact_phone": "+81 959-57-3420", "contact_email": "", "status": 1, "source_type": 1}, {"name": "Kumamoto Yataimura", "type": "attraction", "image": null, "address": "2-22 Jotomachi, Chuo-ku, Kumamoto 860-0846 Kumamoto Prefecture", "lat": 32.803955, "lng": 130.7095, "ref_id": 27150302, "rating": 0, "num_reviews": 0, "website": "https://kumamoto-yataimura.com/", "contact_phone": "+81 80-4974-2179", "contact_email": null, "status": 1, "source_type": 1}, {"name": "Ennouji Temple", "type": "attraction", "image": "https://dynamic-media-cdn.tripadvisor.com/media/photo-o/2b/40/3f/32/caption.jpg?w=1000&s=1", "address": "3-1-7 \u014ctemon, Chuo, Fukuoka 810-0074 Qu\u00e2\u0323n Fukuoka", "lat": 33.58925, "lng": 130.39296, "ref_id": 26814971, "rating": 0, "num_reviews": 0, "website": "https://ennouji.org/", "contact_phone": "+81 92-761-1454", "contact_email": "info@ennouji.or.jp", "status": 1, "source_type": 1}, {"name": "Gallery Kanei", "type": "attraction", "image": "https://dynamic-media-cdn.tripadvisor.com/media/photo-o/29/b3/0d/19/caption.jpg?w=1000&s=1", "address": "1626-1 Miyama, Higashiichikicho, Hioki 899-2431 Kagoshima Prefecture", "lat": 31.643646, "lng": 130.3643, "ref_id": 26309693, "rating": 0, "num_reviews": 0, "website": "https://www.instagram.com/gallery_kanei/", "contact_phone": "+81 80-3524-5117", "contact_email": "gallerykanei@gmail.com", "status": 1, "source_type": 1}, {"name": "\u30bf\u30c0\u30b7", "type": "attraction", "image": "https://dynamic-media-cdn.tripadvisor.com/media/photo-o/29/5f/09/9c/caption.jpg?w=1000&s=1", "address": "\u6e05\u6c34, Fukuoka 815-0031 Qu\u00e2\u0323n Fukuoka", "lat": null, "lng": null, "ref_id": 26140568, "rating": 0, "num_reviews": 0, "website": null, "contact_phone": null, "contact_email": "hanasowebworks@gmail.com", "status": 1, "source_type": 1}, {"name": "Spatium", "type": "attraction", "image": null, "address": "1-1 Dejima-cho Dejimawharf 110, Nagasaki 850-0862 Nagasaki Prefecture", "lat": 32.74396, "lng": 129.87062, "ref_id": 4112577, "rating": 0, "num_reviews": 0, "website": "http://www.navita.co.jp/s/11052982/", "contact_phone": "+81 95-823-1326", "contact_email": null, "status": 1, "source_type": 1}, {"name": "Suki Tokusan", "type": "attraction", "image": null, "address": "619 Suki Shimoda, Kobayashi 886-0112 Miyazaki Prefecture", "lat": 32.060028, "lng": 131.07785, "ref_id": 4894428, "rating": 0, "num_reviews": 0, "website": null, "contact_phone": "+81 984-48-3085", "contact_email": null, "status": 1, "source_type": 1}, {"name": "Sakura no Baba Temma Shrine", "type": "attraction", "image": null, "address": "1-4-18 Sakuranobaba, Nagasaki 850-0015 Nagasaki Prefecture", "lat": 32.74584, "lng": 129.82254, "ref_id": 5480337, "rating": 0, "num_reviews": 0, "website": null, "contact_phone": null, "contact_email": null, "status": 1, "source_type": 1}, {"name": "Shinjyonoashiyu", "type": "attraction", "image": null, "address": "742-1 Nishiotani, Nishiki-machi, Kuma-gun Kumamoto Prefecture", "lat": 32.191143, "lng": 130.79588, "ref_id": 3823530, "rating": 0, "num_reviews": 0, "website": null, "contact_phone": null, "contact_email": null, "status": 1, "source_type": 1}, {"name": "Chikugo River Nature Park", "type": "attraction", "image": null, "address": "Qu\u00e2\u0323n Fukuoka", "lat": 33.1756, "lng": 130.77046, "ref_id": 4893365, "rating": 0, "num_reviews": 0, "website": "http://www.pref.fukuoka.lg.jp/contents/chikugogawa.html", "contact_phone": null, "contact_email": null, "status": 1, "source_type": 1}, {"name": "Mizuma Pine", "type": "attraction", "image": null, "address": "Mizumamachi, Kurume 830-0111 Qu\u00e2\u0323n Fukuoka", "lat": 33.252087, "lng": 130.48741, "ref_id": 4895503, "rating": 0, "num_reviews": 0, "website": null, "contact_phone": null, "contact_email": null, "status": 1, "source_type": 1}, {"name": "Amusement Game Bar Save", "type": "attraction", "image": null, "address": "3-6-16 8F, Tenjin, Chuo, Fukuoka 810-0001 Qu\u00e2\u0323n Fukuoka", "lat": null, "lng": null, "ref_id": 23557084, "rating": 0, "num_reviews": 0, "website": "https://frontier-cafe.wixsite.com/savep", "contact_phone": "+81 92-791-2900", "contact_email": null, "status": 1, "source_type": 1}, {"name": "Sennin no byobuiwaj", "type": "attraction", "image": null, "address": "Takachiho-cho, Nishiusuki-gun 882-1101 Miyazaki Prefecture", "lat": 32.74132, "lng": 131.26837, "ref_id": 23671633, "rating": 0, "num_reviews": 0, "website": null, "contact_phone": null, "contact_email": null, "status": 1, "source_type": 1}, {"name": "Sennin no byobuiwaj", "type": "attraction", "image": null, "address": "Takachiho-cho, Nishiusuki-gun 882-1101 Miyazaki Prefecture", "lat": 32.74132, "lng": 131.26837, "ref_id": 23670354, "rating": 0, "num_reviews": 0, "website": null, "contact_phone": null, "contact_email": null, "status": 1, "source_type": 1}, {"name": "Asaji Station Tourist Information Center", "type": "attraction", "image": null, "address": "539-3 Tsuboizumi, Asajimachi JR Asaji Station, Bungoono 879-6221 Oita Prefecture", "lat": 33.00464, "lng": 131.43172, "ref_id": 13911029, "rating": 3, "num_reviews": 0, "website": "http://www.facebook.com/asajiinfo/", "contact_phone": "+81 974-72-0510", "contact_email": null, "status": 1, "source_type": 1, "numberReviews": "1"}, {"name": "Suijo Park", "type": "attraction", "image": "https://dynamic-media-cdn.tripadvisor.com/media/photo-o/15/03/4d/41/20181012130257-largejpg.jpg?w=1000&s=1", "address": "13 Nishinakasu, Chuo, Fukuoka 810-0002 Qu\u00e2\u0323n Fukuoka", "lat": 33.592552, "lng": 130.40324, "ref_id": 14027138, "rating": 3.5, "num_reviews": 0, "website": "http://suijo-park.jp/", "contact_phone": null, "contact_email": null, "status": 1, "source_type": 1, "numberReviews": "14"}, {"name": "Abunze Visitor Center", "type": "attraction", "image": "https://dynamic-media-cdn.tripadvisor.com/media/photo-o/14/66/5b/c6/caption.jpg?w=1000&s=1", "address": "1333-3 Nonokirecho, Goto 853-0024 Nagasaki Prefecture", "lat": 32.642124, "lng": 128.84787, "ref_id": 13859954, "rating": 3.5, "num_reviews": 0, "website": "https://www.facebook.com/city.goto.abunze/", "contact_phone": "+81 959-73-6955", "contact_email": null, "status": 1, "source_type": 1, "numberReviews": "5"}, {"name": "Kitakumamoto Service Area Outbound", "type": "attraction", "image": "https://dynamic-media-cdn.tripadvisor.com/media/photo-o/29/c9/0b/99/caption.jpg?w=1000&s=1", "address": "1563 Arakimachi Kita-ku, Kumamoto 861-5501 Kumamoto Prefecture", "lat": 32.89422, "lng": 130.71954, "ref_id": 16800484, "rating": 3, "num_reviews": 0, "website": "http://www.w-holdings.co.jp/sapa/2860.html", "contact_phone": "+81 96-245-2590", "contact_email": null, "status": 1, "source_type": 1, "numberReviews": "2"}, {"name": "Aoki Shigeru Tomb Monument", "type": "attraction", "image": "https://dynamic-media-cdn.tripadvisor.com/media/photo-o/1a/d7/4f/8a/dsc-4516-largejpg.jpg?w=1000&s=1", "address": "139 Hiyoshimachi, Kurume 830-0017 Qu\u00e2\u0323n Fukuoka", "lat": 33.31519, "lng": 130.51723, "ref_id": 17702754, "rating": 3, "num_reviews": 0, "website": null, "contact_phone": null, "contact_email": null, "status": 1, "source_type": 1, "numberReviews": "1"}, {"name": "Yagame Park", "type": "attraction", "image": "https://dynamic-media-cdn.tripadvisor.com/media/photo-o/0c/89/28/f0/photo0jpg.jpg?w=1000&s=1", "address": "Namago Yagame, Shinkamigoto-cho, Minamimatsura-gun 857-4401 Nagasaki Prefecture", "lat": 33.043015, "lng": 129.06613, "ref_id": 2083066, "rating": 4.5, "num_reviews": 0, "website": null, "contact_phone": "+81 959-42-0964", "contact_email": "", "status": 1, "source_type": 1, "numberReviews": "22"}, {"name": "Kurume Comprehensive Sports CenterTennis Court", "type": "attraction", "image": "https://dynamic-media-cdn.tripadvisor.com/media/photo-o/12/07/81/ae/caption.jpg?w=1000&s=1", "address": "135 Higashikushiharamachi, Kurume 830-0003 Qu\u00e2\u0323n Fukuoka", "lat": 33.319176, "lng": 130.52812, "ref_id": 13023444, "rating": 3, "num_reviews": 0, "website": null, "contact_phone": "+81 942-34-3530", "contact_email": null, "status": 1, "source_type": 1, "numberReviews": "2"}, {"name": "Koeiji Temple", "type": "attraction", "image": "https://dynamic-media-cdn.tripadvisor.com/media/photo-o/12/23/4a/e3/caption.jpg?w=1000&s=1", "address": "33 Okeyamachi, Nagasaki 850-0027 Nagasaki Prefecture", "lat": 32.74917, "lng": 129.88232, "ref_id": 5223419, "rating": 3.5, "num_reviews": 0, "website": "http://www.k4.dion.ne.jp/~koueiji/", "contact_phone": "+81 95-822-1738", "contact_email": null, "status": 1, "source_type": 1, "numberReviews": "11"}, {"name": "The Statue of Fukuzawa Yukichi", "type": "attraction", "image": "https://dynamic-media-cdn.tripadvisor.com/media/photo-o/1b/3f/83/e8/fukuzawa-yukichi-figure.jpg?w=1000&s=1", "address": "Hinodemachi, Nakatsu 871-0034 Oita Prefecture", "lat": 33.59964, "lng": 131.19072, "ref_id": 14008455, "rating": 3, "num_reviews": 0, "website": null, "contact_phone": null, "contact_email": null, "status": 1, "source_type": 1, "numberReviews": "3"}, {"name": "Rokkakudo Hiroba", "type": "attraction", "image": "https://dynamic-media-cdn.tripadvisor.com/media/photo-o/1a/4c/54/f5/rokkakudo-hiroba.jpg?w=1000&s=1", "address": "\uff18\u22121 Mutsumonmachi, Kurume 830-0031 Qu\u00e2\u0323n Fukuoka", "lat": 33.313725, "lng": 130.51424, "ref_id": 2417822, "rating": 3, "num_reviews": 0, "website": "http://kurumecityplaza.jp/pages/facilities/hiroba", "contact_phone": null, "contact_email": "", "status": 1, "source_type": 1, "numberReviews": "4"}, {"name": "Juhon Temple", "type": "attraction", "image": "https://dynamic-media-cdn.tripadvisor.com/media/photo-o/1a/fa/10/c1/dsc-4767-largejpg.jpg?w=1000&s=1", "address": "397-1 Kusano Kusanomachi, Kurume 839-0835 Qu\u00e2\u0323n Fukuoka", "lat": 33.318806, "lng": 130.63374, "ref_id": 20116872, "rating": 3, "num_reviews": 0, "website": null, "contact_phone": "+81 942-47-0031", "contact_email": null, "status": 1, "source_type": 1, "numberReviews": "1"}, {"name": "Saint Francis Xavier Statue", "type": "attraction", "image": "https://dynamic-media-cdn.tripadvisor.com/media/photo-o/2b/98/2e/04/caption.jpg?w=1000&s=1", "address": "1-1-28 Suehiromachi, Oita 870-0027 Oita Prefecture", "lat": 33.234318, "lng": 131.60632, "ref_id": 17750608, "rating": 3.5, "num_reviews": 0, "website": null, "contact_phone": null, "contact_email": null, "status": 1, "source_type": 1, "numberReviews": "6"}, {"name": "Joken-ji Temple", "type": "attraction", "image": "https://dynamic-media-cdn.tripadvisor.com/media/photo-o/1a/fb/90/7b/dsc-4169-largejpg.jpg?w=1000&s=1", "address": "12 Teramachi, Kurume 830-0014 Qu\u00e2\u0323n Fukuoka", "lat": 33.31719, "lng": 130.51984, "ref_id": 20153735, "rating": 3, "num_reviews": 0, "website": null, "contact_phone": "+81 942-33-5837", "contact_email": null, "status": 1, "source_type": 1, "numberReviews": "2"}, {"name": "Hakutoji Temple", "type": "attraction", "image": "https://dynamic-media-cdn.tripadvisor.com/media/photo-o/0e/c6/d5/fb/caption.jpg?w=1000&s=1", "address": "1415 Tanushimarumachi Sugahara, Kurume 839-1225 Qu\u00e2\u0323n Fukuoka", "lat": 33.35438, "lng": 130.6403, "ref_id": 4895519, "rating": 3, "num_reviews": 0, "website": null, "contact_phone": null, "contact_email": null, "status": 1, "source_type": 1, "numberReviews": "1"}, {"name": "Hattanda Park", "type": "attraction", "image": "https://dynamic-media-cdn.tripadvisor.com/media/photo-o/17/41/a6/0d/p-20190416-111436-vhdr.jpg?w=1000&s=1", "address": "36-1 Yoshimutago, Nagayo-cho, Nishisonogi-gun 851-2126 Nagasaki Prefecture", "lat": 32.82174, "lng": 129.87862, "ref_id": 17348075, "rating": 3, "num_reviews": 0, "website": null, "contact_phone": null, "contact_email": null, "status": 1, "source_type": 1, "numberReviews": "2"}, {"name": "Kokubunji Temple", "type": "attraction", "image": null, "address": "480 Izuharamachi Tendoshige, Tsushima 817-0014 Nagasaki Prefecture", "lat": 34.20523, "lng": 129.29358, "ref_id": 2083118, "rating": 3.5, "num_reviews": 0, "website": null, "contact_phone": "+81 920-52-1243", "contact_email": "", "status": 1, "source_type": 1, "numberReviews": "4"}, {"name": "Komura Jutaro Birth Place Monument", "type": "attraction", "image": "https://dynamic-media-cdn.tripadvisor.com/media/photo-o/17/3e/25/3a/caption.jpg?w=1000&s=1", "address": "Kusubaru, Nichinan 889-2514 Miyazaki Prefecture", "lat": 31.62511, "lng": 131.35269, "ref_id": 13170112, "rating": 3.5, "num_reviews": 0, "website": null, "contact_phone": null, "contact_email": null, "status": 1, "source_type": 1, "numberReviews": "19"}, {"name": "Yuisao Museum", "type": "attraction", "image": "https://dynamic-media-cdn.tripadvisor.com/media/photo-o/10/4b/59/2b/caption.jpg?w=1000&s=1", "address": "1686, Furueda, Otsu, Kashima Saga Prefecture", "lat": 33.073906, "lng": 130.1098, "ref_id": 6817184, "rating": 3.5, "num_reviews": 0, "website": "http://www.yutokusan.jp/", "contact_phone": "+81 954-62-2151", "contact_email": null, "status": 1, "source_type": 1, "numberReviews": "13"}, {"name": "Ezaki Kairiku Transpor Shuttle No. 5", "type": "attraction", "image": "https://dynamic-media-cdn.tripadvisor.com/media/photo-o/17/04/cc/7d/p-20190402-102629-largejpg.jpg?w=1000&s=1", "address": "162-15 Osetocho Setokashinourago Seto Port Ferry Terminal, Saikai 857-2302 Nagasaki Prefecture", "lat": 32.94044, "lng": 129.6389, "ref_id": 13915019, "rating": 3, "num_reviews": 0, "website": "https://www.ezakikaiun.com/%E6%89%80%E6%9C%89%E8%88%B9%E8%88%B6%E3%81%AE%E3%81%94%E7%B4%B9%E4%BB%8B/", "contact_phone": "+81 959-22-0099", "contact_email": null, "status": 1, "source_type": 1, "numberReviews": "1"}, {"name": "Tokunoshima Leisure Pool", "type": "attraction", "image": null, "address": "734-7 Tokuwase, Tokunoshima-cho, Oshima-gun 891-7111 Kagoshima Prefecture", "lat": 27.75972, "lng": 129.0153, "ref_id": 13022156, "rating": 3.5, "num_reviews": 0, "website": null, "contact_phone": "+81 997-83-2910", "contact_email": null, "status": 1, "source_type": 1, "numberReviews": "3"}, {"name": "Myozen-ji Temple", "type": "attraction", "image": "https://dynamic-media-cdn.tripadvisor.com/media/photo-o/0e/a4/cd/5b/caption.jpg?w=1000&s=1", "address": "716 Imayama Kitanomachi, Kurume 830-1122 Qu\u00e2\u0323n Fukuoka", "lat": 33.343933, "lng": 130.57802, "ref_id": 8696502, "rating": 3, "num_reviews": 0, "website": null, "contact_phone": null, "contact_email": null, "status": 1, "source_type": 1, "numberReviews": "1"}, {"name": "Ayu Modoshi Nature Park", "type": "attraction", "image": "https://dynamic-media-cdn.tripadvisor.com/media/photo-o/19/84/58/44/caption.jpg?w=1000&s=1", "address": "1249-56 Izuharamachi Tsutsu, Tsushima 817-0154 Nagasaki Prefecture", "lat": 34.153454, "lng": 129.21992, "ref_id": 13871412, "rating": 3, "num_reviews": 0, "website": null, "contact_phone": "+81 920-57-1283", "contact_email": null, "status": 1, "source_type": 1, "numberReviews": "1"}, {"name": "Statue of Miura Tamaki", "type": "attraction", "image": "https://dynamic-media-cdn.tripadvisor.com/media/photo-o/0e/ac/25/8f/caption.jpg?w=1000&s=1", "address": "8-1 Minamiyamatemachi Glover Garden, Nagasaki 850-0931 Nagasaki Prefecture", "lat": 32.73338, "lng": 129.8694, "ref_id": 12232041, "rating": 3, "num_reviews": 0, "website": "http://www.glover-garden.jp", "contact_phone": "+81 95-822-8223", "contact_email": null, "status": 1, "source_type": 1, "numberReviews": "15"}, {"name": "Mt. Shojidake", "type": "attraction", "image": "https://dynamic-media-cdn.tripadvisor.com/media/photo-o/0d/c8/36/3b/caption.jpg?w=1000&s=1", "address": "Ogatamachi Ohira South of Mt. Sobo, Kawakami Valley, Bungoono 879-7100 Oita Prefecture", "lat": 32.81167, "lng": 131.34822, "ref_id": 11864199, "rating": 4, "num_reviews": 0, "website": null, "contact_phone": null, "contact_email": null, "status": 1, "source_type": 1, "numberReviews": "1"}, {"name": "Oseto Shopping Center", "type": "attraction", "image": "https://dynamic-media-cdn.tripadvisor.com/media/photo-o/17/2c/d9/ff/caption.jpg?w=1000&s=1", "address": "2278-5 Setokashinourago Osetocho, Saikai 857-2302 Nagasaki Prefecture", "lat": 32.93379, "lng": 129.6406, "ref_id": 17288052, "rating": 3, "num_reviews": 0, "website": null, "contact_phone": "+81 959-22-1042", "contact_email": null, "status": 1, "source_type": 1, "numberReviews": "1"}, {"name": "Sasebo River", "type": "attraction", "image": "https://dynamic-media-cdn.tripadvisor.com/media/photo-o/18/9a/fd/2d/caption.jpg?w=1000&s=1", "address": "Sasebo 857-0000 Nagasaki Prefecture", "lat": null, "lng": null, "ref_id": 17812968, "rating": 3, "num_reviews": 0, "website": null, "contact_phone": null, "contact_email": null, "status": 1, "source_type": 1, "numberReviews": "1"}, {"name": "Oasis Yaba, Domon", "type": "attraction", "image": "https://dynamic-media-cdn.tripadvisor.com/media/photo-o/09/aa/04/db/caption.jpg?w=1000&s=1", "address": "295-2 Honyabakeimachi Hida, Nakatsu 871-0201 Oita Prefecture", "lat": 33.504574, "lng": 131.1744, "ref_id": 8858145, "rating": 4, "num_reviews": 0, "website": null, "contact_phone": "+81 979-52-3211", "contact_email": null, "status": 1, "source_type": 1, "numberReviews": "1"}, {"name": "Goryodaki", "type": "attraction", "image": "https://dynamic-media-cdn.tripadvisor.com/media/photo-o/0d/40/b5/65/caption.jpg?w=1000&s=1", "address": "Yanagigo, Odika-cho, Kitamatsura-gun 857-4704 Nagasaki Prefecture", "lat": 33.2139, "lng": 129.04848, "ref_id": 10660514, "rating": 4, "num_reviews": 0, "website": null, "contact_phone": null, "contact_email": null, "status": 1, "source_type": 1, "numberReviews": "7"}, {"name": "Myoren-ji Temple", "type": "attraction", "image": "https://dynamic-media-cdn.tripadvisor.com/media/photo-o/1a/fb/94/0e/dsc-4203-largejpg.jpg?w=1000&s=1", "address": "75 Teramachi, Kurume 830-0014 Qu\u00e2\u0323n Fukuoka", "lat": 33.31802, "lng": 130.52084, "ref_id": 20153760, "rating": 3, "num_reviews": 0, "website": null, "contact_phone": null, "contact_email": null, "status": 1, "source_type": 1, "numberReviews": "1"}, {"name": "Hontai-ji Temple", "type": "attraction", "image": "https://dynamic-media-cdn.tripadvisor.com/media/photo-o/1a/fb/8e/7e/dsc-4156-largejpg.jpg?w=1000&s=1", "address": "4-1 Teramachi, Kurume 830-0014 Qu\u00e2\u0323n Fukuoka", "lat": 33.316334, "lng": 130.5205, "ref_id": 20153720, "rating": 3, "num_reviews": 0, "website": "https://www.facebook.com/hontaiji1621/", "contact_phone": "+81 942-33-6327", "contact_email": null, "status": 1, "source_type": 1, "numberReviews": "1"}, {"name": "Umenoyu", "type": "attraction", "image": "https://dynamic-media-cdn.tripadvisor.com/media/photo-o/0c/67/43/28/20160802-164333-largejpg.jpg?w=1000&s=1", "address": "4602-4 Oyamacho Nishioyama, Hita 877-0201 Oita Prefecture", "lat": 33.225586, "lng": 130.95807, "ref_id": 10088973, "rating": 4, "num_reviews": 0, "website": "http://www.umenoyu.info/", "contact_phone": "+81 973-52-3355", "contact_email": null, "status": 1, "source_type": 1, "numberReviews": "2"}, {"name": "Bara no Yu", "type": "attraction", "image": "https://dynamic-media-cdn.tripadvisor.com/media/photo-o/09/79/f6/ac/caption.jpg?w=1000&s=1", "address": "27-1 Amagasemachi Akaiwa, Hita 879-4202 Oita Prefecture", "lat": 33.256264, "lng": 131.03471, "ref_id": 8797568, "rating": 4, "num_reviews": 0, "website": "http://www.baranoyu.com/", "contact_phone": "097-57-8601", "contact_email": null, "status": 1, "source_type": 1, "numberReviews": "2"}, {"name": "Ikomo Mamoru-Kun", "type": "attraction", "image": "https://dynamic-media-cdn.tripadvisor.com/media/photo-o/1d/04/f0/4b/caption.jpg?w=1000&s=1", "address": "Ikomo, Setouchi-cho, Oshima-gun 894-2236 Kagoshima Prefecture", "lat": 28.110254, "lng": 129.24014, "ref_id": 23405914, "rating": 3.5, "num_reviews": 0, "website": "https://www.setouchi-welcome.com/spotinfo/%E4%BC%8A%E5%AD%90%E8%8C%82%E3%81%BE%E3%82%82%E3%82%8B%E5%90%9B", "contact_phone": null, "contact_email": null, "status": 1, "source_type": 1, "numberReviews": "2"}, {"name": "Movie Hall Cine-la", "type": "attraction", "image": "https://dynamic-media-cdn.tripadvisor.com/media/photo-o/05/6c/92/4a/caption.jpg?w=1000&s=1", "address": "3-7-1 Momochihama Sawaraku Fukuoka City Public Library, Fukuoka 814-0001 Qu\u00e2\u0323n Fukuoka", "lat": 33.590103, "lng": 130.35135, "ref_id": 3573087, "rating": 3.5, "num_reviews": 0, "website": "http://www.cinela.com/", "contact_phone": "+81 92-852-0608", "contact_email": null, "status": 1, "source_type": 1, "numberReviews": "5"}, {"name": "Daikokuyu", "type": "attraction", "image": "https://dynamic-media-cdn.tripadvisor.com/media/photo-o/0c/44/c7/df/caption.jpg?w=1000&s=1", "address": "1-15-1 Nakashima, Kokurakita-ku, Kitakyushu 802-0076 Qu\u00e2\u0323n Fukuoka", "lat": 33.877754, "lng": 130.87827, "ref_id": 10481836, "rating": 5, "num_reviews": 0, "website": "http://fukuoka1010.com/kitakyu/daikokuyu-kokurakita/", "contact_phone": "+81 93-521-4248", "contact_email": null, "status": 1, "source_type": 1, "numberReviews": "1"}, {"name": "Amaguriya Yanagibashi Honten", "type": "attraction", "image": "https://dynamic-media-cdn.tripadvisor.com/media/photo-o/09/e8/2a/08/caption.jpg?w=1000&s=1", "address": "1-2-22 Haruyoshi, Chuo, Fukuoka 810-0003 Qu\u00e2\u0323n Fukuoka", "lat": 33.583656, "lng": 130.40897, "ref_id": 9560850, "rating": 4, "num_reviews": 0, "website": "http://www.amaguriya.jp/page/11", "contact_phone": "+81 92-762-8611", "contact_email": null, "status": 1, "source_type": 1, "numberReviews": "2"}, {"name": "Bottle Shop Yufuin Winery", "type": "attraction", "image": null, "address": "1511-1 Yufuincho Kawakami, Yufu 879-5102 Oita Prefecture", "lat": 33.26773, "lng": 131.3656, "ref_id": 14180791, "rating": 3.5, "num_reviews": 0, "website": "", "contact_phone": "+81 977-84-5900", "contact_email": null, "status": 1, "source_type": 1, "numberReviews": "2"}, {"name": "Korodai Park", "type": "attraction", "image": "https://dynamic-media-cdn.tripadvisor.com/media/photo-o/23/46/52/1d/caption.jpg?w=1000&s=1", "address": "3-9 Chuo, Yahatahigashi-ku, Kitakyushu 805-0019 Qu\u00e2\u0323n Fukuoka", "lat": 33.86606, "lng": 130.8156, "ref_id": 23364804, "rating": 3.5, "num_reviews": 0, "website": "https://www.city.kitakyushu.lg.jp/kensetu/file_0219.html", "contact_phone": "+81 93-582-2460", "contact_email": null, "status": 1, "source_type": 1, "numberReviews": "2"}, {"name": "Shogen Inari Shrine", "type": "attraction", "image": "https://dynamic-media-cdn.tripadvisor.com/media/photo-o/1c/cf/dc/8f/photo9jpg.jpg?w=1000&s=1", "address": "1542 Kinryu Kinryumachi, Saga 849-0906 Saga Prefecture", "lat": 33.333946, "lng": 130.3066, "ref_id": 23275967, "rating": 4, "num_reviews": 0, "website": null, "contact_phone": null, "contact_email": null, "status": 1, "source_type": 1, "numberReviews": "1"}, {"name": "Sweet Baker's Crew", "type": "attraction", "image": "https://dynamic-media-cdn.tripadvisor.com/media/photo-o/0c/6a/c5/84/sweet-baker-s-crew.jpg?w=1000&s=1", "address": "5-10-10 Nanakuma, Jonan-Ku Amuse Manshion 1F, Fukuoka 814-0133 Qu\u00e2\u0323n Fukuoka", "lat": 33.553623, "lng": 130.35564, "ref_id": 8795082, "rating": 4, "num_reviews": 0, "website": "https://www.facebook.com/S.B.Cfukuoka/timeline?ref=page_internal", "contact_phone": "+81 92-873-8102", "contact_email": null, "status": 1, "source_type": 1, "numberReviews": "2"}, {"name": "Ogura Onsen Shikisainoyu", "type": "attraction", "image": null, "address": "2137-2 Machida, Kokonoe-machi, Kusu-gun 879-4723 Oita Prefecture", "lat": 33.189686, "lng": 131.17273, "ref_id": 3166936, "rating": 5, "num_reviews": 0, "website": "", "contact_phone": "+81 973-78-8126", "contact_email": "", "status": 1, "source_type": 1, "numberReviews": "1"}, {"name": "Kumamoto Prefecture, open-air Theater Asupekuta", "type": "attraction", "image": "https://dynamic-media-cdn.tripadvisor.com/media/photo-o/15/6b/dc/2c/2018.jpg?w=1000&s=1", "address": "4411-9 Hisaishi, Minamiaso-mura, Aso-gun 869-1412 Kumamoto Prefecture", "lat": 32.800873, "lng": 131.03735, "ref_id": 13970113, "rating": 4, "num_reviews": 0, "website": "http://aspecta.jp/", "contact_phone": "+81 967-67-1161", "contact_email": null, "status": 1, "source_type": 1, "numberReviews": "1"}, {"name": "Ontayaki Togeikan", "type": "attraction", "image": "https://dynamic-media-cdn.tripadvisor.com/media/photo-o/1c/ca/d9/0f/caption.jpg?w=1000&s=1", "address": "138-1 Motoemachi Tsurugawachi, Oaza, Hita 877-1103 Oita Prefecture", "lat": 33.4278, "lng": 130.91118, "ref_id": 14901859, "rating": 4, "num_reviews": 0, "website": "http://www.city.hita.oita.jp/shisetsu/bunkazai/6697.html", "contact_phone": "+81 973-29-2020", "contact_email": null, "status": 1, "source_type": 1, "numberReviews": "1"}, {"name": "Catholic Hita Church", "type": "attraction", "image": "https://dynamic-media-cdn.tripadvisor.com/media/photo-o/1c/ca/fe/6f/caption.jpg?w=1000&s=1", "address": "265 Junicho, Hita 877-0000 Oita Prefecture", "lat": 33.320312, "lng": 130.92442, "ref_id": 20116767, "rating": 4, "num_reviews": 0, "website": "http://www.hitachurch.sakura.ne.jp/index.html", "contact_phone": "+81 973-22-3350", "contact_email": null, "status": 1, "source_type": 1, "numberReviews": "1"}, {"name": "Hyugatakazaki Parking Area Inbound", "type": "attraction", "image": null, "address": "3225-1 Takazakicho Maeda, Miyakonojo 889-4506 Miyazaki Prefecture", "lat": 31.901318, "lng": 131.0318, "ref_id": 16802755, "rating": 4, "num_reviews": 0, "website": "https://w-holdings.co.jp/sapa/2694.html", "contact_phone": null, "contact_email": null, "status": 1, "source_type": 1, "numberReviews": "1"}, {"name": "Hyugatakazaki Parking Area Outbound", "type": "attraction", "image": null, "address": "3231-30 Takazakicho Maeda, Miyakonojo 889-4506 Miyazaki Prefecture", "lat": 31.901484, "lng": 131.03265, "ref_id": 16802762, "rating": 4, "num_reviews": 0, "website": "https://w-holdings.co.jp/sapa/2701.html", "contact_phone": null, "contact_email": null, "status": 1, "source_type": 1, "numberReviews": "1"}, {"name": "Green Pia Tenjin", "type": "attraction", "image": "https://dynamic-media-cdn.tripadvisor.com/media/photo-o/1c/ca/8e/52/fresh-local-vegetables.jpg?w=1000&s=1", "address": "1618-8 Hidagawa, Taketa 878-0026 Oita Prefecture", "lat": 32.964554, "lng": 131.38417, "ref_id": 23260089, "rating": 4, "num_reviews": 0, "website": "", "contact_phone": "+81 974-64-0222", "contact_email": null, "status": 1, "source_type": 1, "numberReviews": "1"}, {"name": "Gallery Kaden", "type": "attraction", "image": "https://dynamic-media-cdn.tripadvisor.com/media/photo-o/0a/7e/db/a3/caption.jpg?w=1000&s=1", "address": "3-8-22 Nakadaru, Arita-cho, Nishimatsura-gun 844-0002 Saga Prefecture", "lat": 33.18506, "lng": 129.90894, "ref_id": 9597785, "rating": 5, "num_reviews": 0, "website": "http://www.kaden-symphony.com/%E3%82%AE%E3%83%A3%E3%83%A9%E3%83%AA%E3%83%BC%E8%8A%B1%E4%BC%9D", "contact_phone": "+81 955-43-3183", "contact_email": "info@kadens.jp", "status": 1, "source_type": 1, "numberReviews": "1"}, {"name": "Osake no Raizu, Sakabadori", "type": "attraction", "image": "https://dynamic-media-cdn.tripadvisor.com/media/photo-o/0b/52/96/58/devanture.jpg?w=1000&s=1", "address": "1-7-18 Shimotori, Chuo-ku, Kumamoto 860-0807 Kumamoto Prefecture", "lat": 32.80108, "lng": 130.70801, "ref_id": 10306453, "rating": 5, "num_reviews": 0, "website": null, "contact_phone": "+81 120-927-713", "contact_email": null, "status": 1, "source_type": 1, "numberReviews": "1"}, {"name": "Komyo-ji Temple", "type": "attraction", "image": "https://dynamic-media-cdn.tripadvisor.com/media/photo-o/1b/36/2c/ea/caption.jpg?w=1000&s=1", "address": "258 Kagamigawacho, Hirado 859-5152 Nagasaki Prefecture", "lat": 33.369904, "lng": 129.55093, "ref_id": 20359072, "rating": 3.5, "num_reviews": 0, "website": null, "contact_phone": "+81 950-22-2255", "contact_email": null, "status": 1, "source_type": 1, "numberReviews": "3"}, {"name": "Sendai Station", "type": "attraction", "image": "https://dynamic-media-cdn.tripadvisor.com/media/photo-o/2a/00/9b/8e/caption.jpg?w=1000&s=1", "address": "Satsumasendai 895-0024 Kagoshima Prefecture", "lat": 31.813286, "lng": 130.30347, "ref_id": 23367020, "rating": 3.5, "num_reviews": 0, "website": "https://www.jrkyushu.co.jp/railway/station/1191646_1601.html", "contact_phone": "", "contact_email": null, "status": 1, "source_type": 1, "numberReviews": "4"}, {"name": "Sugimura Kanamono Honten", "type": "attraction", "image": "https://dynamic-media-cdn.tripadvisor.com/media/photo-o/1c/b0/99/12/dsc-0863-largejpg.jpg?w=1000&s=1", "address": "1-6-12 Aburatsu, Nichinan 887-0001 Miyazaki Prefecture", "lat": 31.583073, "lng": 131.40558, "ref_id": 23159986, "rating": 4, "num_reviews": 0, "website": "https://www.kankou-nichinan.jp/tourisms/312", "contact_phone": "+81 987-23-5211", "contact_email": null, "status": 1, "source_type": 1, "numberReviews": "1"}, {"name": "Watanabe Family Residence", "type": "attraction", "image": "https://dynamic-media-cdn.tripadvisor.com/media/photo-o/1c/b1/83/00/dsc-0901-largejpg.jpg?w=1000&s=1", "address": "2-3-1 Aburatsu, Nichinan 887-0001 Miyazaki Prefecture", "lat": 31.582964, "lng": 131.40323, "ref_id": 23159993, "rating": 4, "num_reviews": 0, "website": "http://www.miyazaki-archive.jp/d-museum/details/view/3729", "contact_phone": null, "contact_email": null, "status": 1, "source_type": 1, "numberReviews": "1"}, {"name": "Horikawa Bridge", "type": "attraction", "image": "https://dynamic-media-cdn.tripadvisor.com/media/photo-o/1c/ac/20/32/dsc-0838-largejpg.jpg?w=1000&s=1", "address": "1-1-5 Aburatsu, Nichinan 887-0001 Miyazaki Prefecture", "lat": 31.5846, "lng": 131.40205, "ref_id": 23159974, "rating": 4, "num_reviews": 0, "website": null, "contact_phone": null, "contact_email": null, "status": 1, "source_type": 1, "numberReviews": "1"}, {"name": "Ellison Onizuka Bridge", "type": "attraction", "image": "https://dynamic-media-cdn.tripadvisor.com/media/photo-o/1c/af/e7/0a/caption.jpg?w=1000&s=1", "address": "Ukihamachi Takami Kendo No. 749, Ukiha 839-1406 Qu\u00e2\u0323n Fukuoka", "lat": 33.3491, "lng": 130.80957, "ref_id": 23176796, "rating": 4, "num_reviews": 0, "website": "", "contact_phone": "", "contact_email": null, "status": 1, "source_type": 1, "numberReviews": "1"}, {"name": "Sakura Sakura", "type": "attraction", "image": "https://dynamic-media-cdn.tripadvisor.com/media/photo-o/09/a6/76/24/caption.jpg?w=1000&s=1", "address": "2989-9 Kawakami Yufuincho, Yufu 879-5102 Oita Prefecture", "lat": 33.265728, "lng": 131.36069, "ref_id": 8846160, "rating": 3.5, "num_reviews": 0, "website": null, "contact_phone": "+81 977-85-2333", "contact_email": null, "status": 1, "source_type": 1, "numberReviews": "4"}, {"name": "Nishinohama Beach", "type": "attraction", "image": "https://dynamic-media-cdn.tripadvisor.com/media/photo-o/1c/ac/25/71/nishinohama-beach.jpg?w=1000&s=1", "address": "Kitajonai, Karatsu 847-0851 Saga Prefecture", "lat": 33.45499, "lng": 129.96957, "ref_id": 20913633, "rating": 4, "num_reviews": 0, "website": "", "contact_phone": "+81 955-72-9127", "contact_email": null, "status": 1, "source_type": 1, "numberReviews": "1"}, {"name": "Kitsunegaoka Plateau", "type": "attraction", "image": null, "address": "Fukuchi Fukuyamacho, Kirishima Kagoshima Prefecture", "lat": 31.615145, "lng": 130.82031, "ref_id": 23178333, "rating": 4, "num_reviews": 0, "website": "", "contact_phone": "", "contact_email": null, "status": 1, "source_type": 1, "numberReviews": "1"}, {"name": "Okamatsu Onsen", "type": "attraction", "image": "https://dynamic-media-cdn.tripadvisor.com/media/photo-o/1c/aa/da/14/dsc-1322-largejpg.jpg?w=1000&s=1", "address": "272 Okamatsu, Ebino 889-4161 Miyazaki Prefecture", "lat": 32.04036, "lng": 130.82727, "ref_id": 23167011, "rating": 4, "num_reviews": 0, "website": null, "contact_phone": "+81 984-37-1630", "contact_email": null, "status": 1, "source_type": 1, "numberReviews": "1"}, {"name": "Momidokoro Iyashiya Uomachi", "type": "attraction", "image": "https://dynamic-media-cdn.tripadvisor.com/media/photo-o/0b/0f/89/ce/photo0jpg.jpg?w=1000&s=1", "address": "1-1-16 Uomachi, Kokurakita-Ku, Kitakyushu 802-0006 Qu\u00e2\u0323n Fukuoka", "lat": 33.884514, "lng": 130.87996, "ref_id": 10201094, "rating": 5, "num_reviews": 0, "website": "http://www.momidokoro.jp/", "contact_phone": "+81 93-521-1849", "contact_email": "yoyaku-u@momidokoro.jp", "status": 1, "source_type": 1, "numberReviews": "1"}, {"name": "Yamakawa Parking Area (Inbound)", "type": "attraction", "image": "https://dynamic-media-cdn.tripadvisor.com/media/photo-o/18/94/6d/cc/caption.jpg?w=1000&s=1", "address": "920-1 Yamakawamachi Tachiyama, Miyama 835-0101 Qu\u00e2\u0323n Fukuoka", "lat": 33.128357, "lng": 130.518, "ref_id": 15300970, "rating": 3.5, "num_reviews": 0, "website": "http://w-holdings.co.jp/sapa/2633.html", "contact_phone": "+81 944-32-9477", "contact_email": null, "status": 1, "source_type": 1, "numberReviews": "7"}, {"name": "Shiroyama Ryokuchi Park (Remains of Kurosaki Castle)", "type": "attraction", "image": "https://dynamic-media-cdn.tripadvisor.com/media/photo-o/18/16/b0/48/caption.jpg?w=1000&s=1", "address": "Yasiki 1chome, Yahatanishi-ku, Kitakyushu 806-0006 Qu\u00e2\u0323n Fukuoka", "lat": 33.870865, "lng": 130.77356, "ref_id": 6745519, "rating": 3.5, "num_reviews": 0, "website": null, "contact_phone": null, "contact_email": null, "status": 1, "source_type": 1, "numberReviews": "8"}, {"name": "Naka no Hashi (Taiyo no Hashi) Bridge", "type": "attraction", "image": "https://dynamic-media-cdn.tripadvisor.com/media/photo-o/0f/33/6b/1f/caption.jpg?w=1000&s=1", "address": "1-1 Jonai, Kokurakita-Ku, Kitakyushu 803-0813 Qu\u00e2\u0323n Fukuoka", "lat": 33.88359, "lng": 130.87457, "ref_id": 8791721, "rating": 3.5, "num_reviews": 0, "website": null, "contact_phone": null, "contact_email": null, "status": 1, "source_type": 1, "numberReviews": "22"}, {"name": "Onrakukan", "type": "attraction", "image": "https://dynamic-media-cdn.tripadvisor.com/media/photo-o/13/ba/fc/6a/caption.jpg?w=1000&s=1", "address": "1494 Kurokawa, Asakura 838-0072 Qu\u00e2\u0323n Fukuoka", "lat": 33.414474, "lng": 130.7786, "ref_id": 13019686, "rating": 5, "num_reviews": 0, "website": null, "contact_phone": "+81 946-29-0345", "contact_email": null, "status": 1, "source_type": 1, "numberReviews": "1"}, {"name": "Kokura Ferry", "type": "attraction", "image": "https://dynamic-media-cdn.tripadvisor.com/media/photo-o/0f/73/77/c8/caption.jpg?w=1000&s=1", "address": "3-9-1 Asano, Kokurakita-ku, Kitakyushu 802-0001 Qu\u00e2\u0323n Fukuoka", "lat": 33.88844, "lng": 130.88753, "ref_id": 12497846, "rating": 3.5, "num_reviews": 0, "website": "http://kyushu-ships.com/publics/index/333/", "contact_phone": "+81 93-861-0961", "contact_email": null, "status": 1, "source_type": 1, "numberReviews": "6"}, {"name": "Higashi Hirao Park", "type": "attraction", "image": "https://dynamic-media-cdn.tripadvisor.com/media/photo-o/09/56/97/9f/photo0jpg.jpg?w=1000&s=1", "address": "2-1-2 HIgashi-Hirao Koen, Hakata, Fukuoka 812-0852 Qu\u00e2\u0323n Fukuoka", "lat": 33.583298, "lng": 130.46126, "ref_id": 4232431, "rating": 4, "num_reviews": 0, "website": "http://www.midorimachi.jp/park/detail.php?code=202002", "contact_phone": null, "contact_email": null, "status": 1, "source_type": 1, "numberReviews": "26"}, {"name": "Kaigata Fishing Port", "type": "attraction", "image": "https://dynamic-media-cdn.tripadvisor.com/media/photo-o/0f/62/8d/9a/caption.jpg?w=1000&s=1", "address": "643-6 Kaigata, Tarumizu 891-2101 Kagoshima Prefecture", "lat": 31.529167, "lng": 130.69968, "ref_id": 12473059, "rating": 4, "num_reviews": 0, "website": null, "contact_phone": null, "contact_email": null, "status": 1, "source_type": 1, "numberReviews": "4"}, {"name": "Hirose Shrine", "type": "attraction", "image": "https://dynamic-media-cdn.tripadvisor.com/media/photo-o/22/8a/1f/cf/caption.jpg?w=1000&s=1", "address": "2020 Oaza Taketa, Taketa 878-0013 Oita Prefecture", "lat": 32.9663, "lng": 131.39696, "ref_id": 7825037, "rating": 3.5, "num_reviews": 0, "website": "http://taketa.guide/spots/detail/a2edabda-741a-4a13-b363-d459df84c322", "contact_phone": "+81 974-62-3074", "contact_email": null, "status": 1, "source_type": 1, "numberReviews": "25"}, {"name": "Yufuin Motorcycle Museum", "type": "attraction", "image": null, "address": "1265-1, Yufuincho Kawakami, Yufu Oita Prefecture", "lat": 33.274918, "lng": 131.36958, "ref_id": 6817094, "rating": 4, "num_reviews": 0, "website": null, "contact_phone": "+81 977-84-5710", "contact_email": null, "status": 1, "source_type": 1, "numberReviews": "4"}, {"name": "Michi-no-Eki Mie", "type": "attraction", "image": "https://dynamic-media-cdn.tripadvisor.com/media/photo-o/12/f3/51/c5/caption.jpg?w=1000&s=1", "address": "2791-1 Miemachi Miyano, Bungoono 879-7101 Oita Prefecture", "lat": 33.02867, "lng": 131.62154, "ref_id": 10034415, "rating": 3.5, "num_reviews": 0, "website": "http://michinoekimie.com/", "contact_phone": "+81 974-24-0010", "contact_email": null, "status": 1, "source_type": 1, "numberReviews": "13"}, {"name": "Moji Yusen Bldg", "type": "attraction", "image": "https://dynamic-media-cdn.tripadvisor.com/media/photo-o/12/82/d4/80/caption.jpg?w=1000&s=1", "address": "7-8 Minatomachi, Moji-ku, Kitakyushu 801-0852 Qu\u00e2\u0323n Fukuoka", "lat": 33.94582, "lng": 130.96194, "ref_id": 12859252, "rating": 3.5, "num_reviews": 0, "website": null, "contact_phone": null, "contact_email": null, "status": 1, "source_type": 1, "numberReviews": "20"}, {"name": "Ajisai Park", "type": "attraction", "image": "https://dynamic-media-cdn.tripadvisor.com/media/photo-o/13/9e/c4/30/masses-of-hydrangeas.jpg?w=1000&s=1", "address": "1630 Hananoki, Yamanokuchicho, Miyakonojo 889-1802 Miyazaki Prefecture", "lat": 31.773602, "lng": 131.15535, "ref_id": 14778906, "rating": 4, "num_reviews": 0, "website": "http://cms.city.miyakonojo.miyazaki.jp/display.php?cont=121005131830", "contact_phone": "+81 986-57-3111", "contact_email": null, "status": 1, "source_type": 1, "numberReviews": "4"}, {"name": "Yamayurinotsuri Bridge", "type": "attraction", "image": "https://dynamic-media-cdn.tripadvisor.com/media/photo-o/2a/5f/00/58/caption.jpg?w=1000&s=1", "address": "Shiobara ji Hatashimo, Nasushiobara 329-2921 Tochigi Prefecture", "lat": 36.96716, "lng": 139.82501, "ref_id": 19356389, "rating": 3.5, "num_reviews": 0, "website": "http://www.city.nasushiobara.lg.jp/31/002561.html", "contact_phone": null, "contact_email": null, "status": 1, "source_type": 1, "numberReviews": "2"}, {"name": "Ipponmatsu Park", "type": "attraction", "image": "https://dynamic-media-cdn.tripadvisor.com/media/photo-o/13/14/50/d9/caption.jpg?w=1000&s=1", "address": "94-123 Takahashi, Shikamotocho, Yamaga 861-0303 Kumamoto Prefecture", "lat": 33.013134, "lng": 130.74933, "ref_id": 7000914, "rating": 4, "num_reviews": 0, "website": null, "contact_phone": null, "contact_email": null, "status": 1, "source_type": 1, "numberReviews": "16"}, {"name": "Ankokuji Temple", "type": "attraction", "image": "https://dynamic-media-cdn.tripadvisor.com/media/photo-o/13/15/e3/02/caption.jpg?w=1000&s=1", "address": "3-14-4, Tenjin, Chuo, Fukuoka 810-0001 Qu\u00e2\u0323n Fukuoka", "lat": 33.593166, "lng": 130.39674, "ref_id": 10508217, "rating": 3.5, "num_reviews": 0, "website": null, "contact_phone": "+81 92-741-2770", "contact_email": null, "status": 1, "source_type": 1, "numberReviews": "15"}, {"name": "Hokono-sha", "type": "attraction", "image": "https://dynamic-media-cdn.tripadvisor.com/media/photo-o/11/9e/ab/7f/caption.jpg?w=1000&s=1", "address": "2887 Kurobuchi beside Sakamoto Zenzo Art Museum, Oguni-machi, Aso-gun 869-2502 Kumamoto Prefecture", "lat": 33.126457, "lng": 131.03772, "ref_id": 13315134, "rating": 4, "num_reviews": 0, "website": null, "contact_phone": null, "contact_email": null, "status": 1, "source_type": 1, "numberReviews": "3"}, {"name": "Watakushi Art Museum", "type": "attraction", "image": "https://dynamic-media-cdn.tripadvisor.com/media/photo-o/12/04/4b/f4/dsc-0924-largejpg.jpg?w=1000&s=1", "address": "1266-8 Yufuincho Kawakami Torigoe, Yufu 879-5102 Oita Prefecture", "lat": 33.275494, "lng": 131.36879, "ref_id": 13022765, "rating": 4, "num_reviews": 0, "website": null, "contact_phone": "+81 977-76-5087", "contact_email": null, "status": 1, "source_type": 1, "numberReviews": "3"}, {"name": "Mount Sefuri", "type": "attraction", "image": "https://dynamic-media-cdn.tripadvisor.com/media/photo-o/08/49/0a/12/caption.jpg?w=1000&s=1", "address": "Kanzaki Saga Prefecture", "lat": 33.43639, "lng": 130.36852, "ref_id": 8180049, "rating": 4, "num_reviews": 0, "website": null, "contact_phone": null, "contact_email": null, "status": 1, "source_type": 1, "numberReviews": "8"}, {"name": "Suga Shrine", "type": "attraction", "image": "https://dynamic-media-cdn.tripadvisor.com/media/photo-o/16/46/5b/c3/caption.jpg?w=1000&s=1", "address": "842 Amagi, Asakura 838-0068 Qu\u00e2\u0323n Fukuoka", "lat": 33.421963, "lng": 130.66139, "ref_id": 15736301, "rating": 4, "num_reviews": 0, "website": "http://www.crossroadfukuoka.jp/event/?mode=detail&id=4000000000679&isSpot=1", "contact_phone": "+81 946-22-2249", "contact_email": null, "status": 1, "source_type": 1, "numberReviews": "4"}, {"name": "Fureai Dokoro Tsushima", "type": "attraction", "image": "https://dynamic-media-cdn.tripadvisor.com/media/photo-o/15/11/80/10/20181013163104-largejpg.jpg?w=1000&s=1", "address": "672-1 Imayashiki Izuharamachi, Tsushima 817-0021 Nagasaki Prefecture", "lat": 34.20277, "lng": 129.28896, "ref_id": 9707487, "rating": 4, "num_reviews": 0, "website": "http://www.tsushima-net.org/fureai/index.php", "contact_phone": "+81 920-52-1566", "contact_email": null, "status": 1, "source_type": 1, "numberReviews": "27"}, {"name": "Chikugo Funagoya Tourist Information Center", "type": "attraction", "image": "https://dynamic-media-cdn.tripadvisor.com/media/photo-o/1c/da/c5/65/tourist-information.jpg?w=1000&s=1", "address": "1079-8 Tsushima beside JR Chikugo Funagoya Station, Chikugo 833-0015 Qu\u00e2\u0323n Fukuoka", "lat": 33.178097, "lng": 130.49174, "ref_id": 12442116, "rating": 3.5, "num_reviews": 0, "website": "http://chikugo.net/", "contact_phone": "+81 942-27-5717", "contact_email": null, "status": 1, "source_type": 1, "numberReviews": "4"}, {"name": "Sanko Bus", "type": "attraction", "image": "https://dynamic-media-cdn.tripadvisor.com/media/photo-o/14/64/ff/a0/dsc-9137-largejpg.jpg?w=1000&s=1", "address": "Kumamoto 860-0806 Kumamoto Prefecture", "lat": 32.799816, "lng": 130.70482, "ref_id": 7939795, "rating": 3.5, "num_reviews": 0, "website": "http://www.kyusanko.co.jp/sankobus/", "contact_phone": "+81 96-325-0100", "contact_email": null, "status": 1, "source_type": 1, "numberReviews": "111"}, {"name": "Seibu Trail", "type": "attraction", "image": "https://dynamic-media-cdn.tripadvisor.com/media/photo-o/11/fb/ed/6d/caption.jpg?w=1000&s=1", "address": "Nagata, Yakushima-cho, Kumage-gun 891-4201 Kagoshima Prefecture", "lat": 30.35705, "lng": 130.38638, "ref_id": 1546895, "rating": 4.5, "num_reviews": 0, "website": "http://www.realwave-corp.com/06walk/03/", "contact_phone": "+81 997-43-5900", "contact_email": "", "status": 1, "source_type": 1, "numberReviews": "212"}, {"name": "Tochimata Tanada Rice Terrace", "type": "attraction", "image": "https://dynamic-media-cdn.tripadvisor.com/media/photo-o/16/e8/ed/98/caption.jpg?w=1000&s=1", "address": "Mitai, Takachiho-cho, Nishiusuki-gun 882-1101 Miyazaki Prefecture", "lat": 32.713486, "lng": 131.33618, "ref_id": 8461223, "rating": 4, "num_reviews": 0, "website": null, "contact_phone": null, "contact_email": null, "status": 1, "source_type": 1, "numberReviews": "17"}, {"name": "Japan Sea Naval Action Munument", "type": "attraction", "image": "https://dynamic-media-cdn.tripadvisor.com/media/photo-o/09/b9/b5/71/caption.jpg?w=1000&s=1", "address": "Kamitsushimamachi Nishidomari, Tsushima 817-1703 Nagasaki Prefecture", "lat": 34.664474, "lng": 129.4907, "ref_id": 6620095, "rating": 4, "num_reviews": 0, "website": null, "contact_phone": null, "contact_email": null, "status": 1, "source_type": 1, "numberReviews": "20"}, {"name": "Hoshuan", "type": "attraction", "image": "https://dynamic-media-cdn.tripadvisor.com/media/photo-o/0f/78/8a/85/caption.jpg?w=1000&s=1", "address": "1-7-37, Hakataekimae, Hakata, Fukuoka 812-0011 Qu\u00e2\u0323n Fukuoka", "lat": 33.59462, "lng": 130.41656, "ref_id": 12453100, "rating": 4, "num_reviews": 0, "website": null, "contact_phone": "+81 92-411-1252", "contact_email": null, "status": 1, "source_type": 1, "numberReviews": "8"}, {"name": "Marukizaki Lookout", "type": "attraction", "image": "https://dynamic-media-cdn.tripadvisor.com/media/photo-o/13/94/0f/1c/caption.jpg?w=1000&s=1", "address": "Minamisatsuma 897-0000 Kagoshima Prefecture", "lat": 31.2841, "lng": 130.2173, "ref_id": 1384926, "rating": 4, "num_reviews": 0, "website": "", "contact_phone": "", "contact_email": "", "status": 1, "source_type": 1, "numberReviews": "7"}, {"name": "Yui no Hama Marine Park", "type": "attraction", "image": "https://dynamic-media-cdn.tripadvisor.com/media/photo-o/17/15/a3/f6/p-20190408-140421-vhdr.jpg?w=1000&s=1", "address": "17-2 Ikeshimo, Iimoricho, Isahaya 854-1125 Nagasaki Prefecture", "lat": 32.75662, "lng": 129.99298, "ref_id": 15527961, "rating": 4, "num_reviews": 0, "website": "https://www.nagasaki-tabinet.com/guide/919/", "contact_phone": "+81 957-48-2213", "contact_email": null, "status": 1, "source_type": 1, "numberReviews": "2"}, {"name": "Oyodo River Study Center", "type": "attraction", "image": "https://dynamic-media-cdn.tripadvisor.com/media/photo-o/09/94/46/6c/caption.jpg?w=1000&s=1", "address": "5348-1 Shimokitakatamachi, Miyazaki 880-0035 Miyazaki Prefecture", "lat": 31.94873, "lng": 131.40652, "ref_id": 8148655, "rating": 4, "num_reviews": 0, "website": "http://oyodo.miyabunkyo.com", "contact_phone": "+81 985-20-5685", "contact_email": null, "status": 1, "source_type": 1, "numberReviews": "13"}, {"name": "Nagashimacho Museum of History and Folklore", "type": "attraction", "image": "https://dynamic-media-cdn.tripadvisor.com/media/photo-o/13/2e/06/96/caption.jpg?w=1000&s=1", "address": "1560, SashIe, Nagashima-cho, Izumi-gun Kagoshima Prefecture", "lat": 32.162273, "lng": 130.11174, "ref_id": 8149339, "rating": 4, "num_reviews": 0, "website": "http://www.kagoshima-kankou.com/guide/11036/", "contact_phone": "+81 996-88-5160", "contact_email": null, "status": 1, "source_type": 1, "numberReviews": "3"}, {"name": "Azenomachi Ehon Museum", "type": "attraction", "image": null, "address": "393 Azemachi, Fukutsu 811-3202 Qu\u00e2\u0323n Fukuoka", "lat": 33.760925, "lng": 130.52773, "ref_id": 13011649, "rating": 0, "num_reviews": 0, "website": null, "contact_phone": "+81 940-62-6350", "contact_email": null, "status": 1, "source_type": 1}, {"name": "Bar Spoonful", "type": "attraction", "image": null, "address": "1-4-5 Shimotori, Chuo-Ku, Kumamoto 860-0807 Kumamoto Prefecture", "lat": 32.801956, "lng": 130.70813, "ref_id": 13012213, "rating": 0, "num_reviews": 0, "website": null, "contact_phone": "+81 96-351-7759", "contact_email": null, "status": 1, "source_type": 1}, {"name": "Bar. Nora", "type": "attraction", "image": null, "address": "3-5-4 Tachibanadorinishi, Miyazaki 880-0001 Miyazaki Prefecture", "lat": 31.914194, "lng": 131.42166, "ref_id": 13012225, "rating": 0, "num_reviews": 0, "website": null, "contact_phone": "+81 985-29-5060", "contact_email": null, "status": 1, "source_type": 1}, {"name": "Diamond Moon", "type": "attraction", "image": null, "address": "14-7 Uomachi, Tagawa 825-0014 Qu\u00e2\u0323n Fukuoka", "lat": 33.643993, "lng": 130.81952, "ref_id": 13013415, "rating": 0, "num_reviews": 0, "website": null, "contact_phone": "+81 947-46-3840", "contact_email": null, "status": 1, "source_type": 1}, {"name": "Dimly", "type": "attraction", "image": null, "address": "1-3-4 Hon-Machi, Yatsushiro 866-0861 Kumamoto Prefecture", "lat": 32.50381, "lng": 130.6051, "ref_id": 13013419, "rating": 0, "num_reviews": 0, "website": null, "contact_phone": "+81 965-45-9708", "contact_email": null, "status": 1, "source_type": 1}, {"name": "Bargirasol", "type": "attraction", "image": null, "address": "602-1 Shisacho Uramen, Matsuura 859-4501 Nagasaki Prefecture", "lat": 33.34517, "lng": 129.71184, "ref_id": 13012281, "rating": 0, "num_reviews": 0, "website": null, "contact_phone": "+81 956-56-8838", "contact_email": null, "status": 1, "source_type": 1}, {"name": "Dining Bar Hart", "type": "attraction", "image": null, "address": "150-3 Yusui-Cho Kiba, Yusui-cho, Aira-gun 899-6201 Kagoshima Prefecture", "lat": 31.952335, "lng": 130.72394, "ref_id": 13013431, "rating": 0, "num_reviews": 0, "website": null, "contact_phone": "+81 995-74-1938", "contact_email": null, "status": 1, "source_type": 1}, {"name": "Barbout", "type": "attraction", "image": null, "address": "12-8 Hanabatacho, Chuo-Ku, Kumamoto 860-0806 Kumamoto Prefecture", "lat": 32.80098, "lng": 130.70612, "ref_id": 13012285, "rating": 0, "num_reviews": 0, "website": null, "contact_phone": "+81 96-352-5110", "contact_email": null, "status": 1, "source_type": 1}, {"name": "Barhoneybee", "type": "attraction", "image": null, "address": "34-8 Okuchi Kamimachi, Isa 895-2513 Kagoshima Prefecture", "lat": 32.062775, "lng": 130.60732, "ref_id": 13012291, "rating": 0, "num_reviews": 0, "website": null, "contact_phone": "+81 995-22-2256", "contact_email": null, "status": 1, "source_type": 1}, {"name": "Takatorinoyu", "type": "attraction", "image": null, "address": "106-3 Tanushimarumachimoribe, Kurume 839-1211 Qu\u00e2\u0323n Fukuoka", "lat": 33.32989, "lng": 130.72377, "ref_id": 13798453, "rating": 0, "num_reviews": 0, "website": null, "contact_phone": "+81 943-72-4793", "contact_email": null, "status": 1, "source_type": 1}, {"name": "Bacchus", "type": "attraction", "image": null, "address": "3-17 Uchimachi, Saiki 876-0845 Oita Prefecture", "lat": 32.95699, "lng": 131.89548, "ref_id": 13011697, "rating": 0, "num_reviews": 0, "website": null, "contact_phone": "+81 972-22-5507", "contact_email": null, "status": 1, "source_type": 1}, {"name": "Dining Bar Soare", "type": "attraction", "image": null, "address": "2-3-6 Miyakomachi, Oita 870-0034 Oita Prefecture", "lat": 33.24031, "lng": 131.6057, "ref_id": 13013455, "rating": 0, "num_reviews": 0, "website": null, "contact_phone": "+81 97-578-8850", "contact_email": null, "status": 1, "source_type": 1}, {"name": "Sega Arena Nakama", "type": "attraction", "image": null, "address": "3-11-1 Kamirengeji, Nakama 809-0013 Qu\u00e2\u0323n Fukuoka", "lat": 33.8226, "lng": 130.72183, "ref_id": 13798627, "rating": 0, "num_reviews": 0, "website": "https://tempo.sega.jp/am/nakama/", "contact_phone": "+81 93-246-1941", "contact_email": null, "status": 1, "source_type": 1}, {"name": "DiningBar Hare", "type": "attraction", "image": null, "address": "1-3-19 Hon-Machi, Yatsushiro 866-0861 Kumamoto Prefecture", "lat": 32.503754, "lng": 130.60426, "ref_id": 13013461, "rating": 0, "num_reviews": 0, "website": null, "contact_phone": "+81 965-32-9595", "contact_email": null, "status": 1, "source_type": 1}, {"name": "Club Diamond", "type": "attraction", "image": null, "address": "8-9 Chuogai, Chuo-Ku, Kumamoto 860-0802 Kumamoto Prefecture", "lat": 32.7995, "lng": 130.71027, "ref_id": 13013069, "rating": 0, "num_reviews": 0, "website": null, "contact_phone": "+81 96-352-7556", "contact_email": null, "status": 1, "source_type": 1}, {"name": "Club HouseI Wakiri", "type": "attraction", "image": null, "address": "2375 Gojitcho, Miyakonojo 885-0084 Miyazaki Prefecture", "lat": 31.718824, "lng": 131.03108, "ref_id": 13013075, "rating": 0, "num_reviews": 0, "website": null, "contact_phone": "+81 986-26-3288", "contact_email": null, "status": 1, "source_type": 1}, {"name": "Bar-Mimosa-Actuary", "type": "attraction", "image": null, "address": "1-2-8 Shimotori, Chuo-Ku, Kumamoto 860-0807 Kumamoto Prefecture", "lat": 32.802223, "lng": 130.70818, "ref_id": 13012331, "rating": 0, "num_reviews": 0, "website": null, "contact_phone": "+81 96-351-7733", "contact_email": null, "status": 1, "source_type": 1}, {"name": "Dino Tennis Futsal Club", "type": "attraction", "image": null, "address": "5-3-1 Matsushima, Higashiku, Fukuoka 813-0062 Qu\u00e2\u0323n Fukuoka", "lat": 33.628933, "lng": 130.4384, "ref_id": 13013479, "rating": 0, "num_reviews": 0, "website": null, "contact_phone": "+81 92-622-0305", "contact_email": null, "status": 1, "source_type": 1}, {"name": "Gakuya", "type": "attraction", "image": null, "address": "2-5-10, Nakasu, Hakata, Fukuoka 810-0801 Qu\u00e2\u0323n Fukuoka", "lat": 33.59192, "lng": 130.40726, "ref_id": 13014172, "rating": 0, "num_reviews": 0, "website": null, "contact_phone": "+81 92-262-9302", "contact_email": null, "status": 1, "source_type": 1}, {"name": "Dj&Dartsbarjook", "type": "attraction", "image": null, "address": "1513-5 Nakamachi, Karatsu 847-0051 Saga Prefecture", "lat": 33.448868, "lng": 129.96983, "ref_id": 13013499, "rating": 0, "num_reviews": 0, "website": null, "contact_phone": "+81 955-74-1771", "contact_email": null, "status": 1, "source_type": 1}, {"name": "Bar-Tsu I Chi", "type": "attraction", "image": null, "address": "2-6-24, Nakasu, Hakata, Fukuoka 810-0801 Qu\u00e2\u0323n Fukuoka", "lat": 33.592125, "lng": 130.40828, "ref_id": 13012369, "rating": 0, "num_reviews": 0, "website": null, "contact_phone": "+81 92-263-3496", "contact_email": null, "status": 1, "source_type": 1}, {"name": "Barstreet13", "type": "attraction", "image": null, "address": "4-2-16, Nakasu, Hakata, Fukuoka 810-0801 Qu\u00e2\u0323n Fukuoka", "lat": 33.59238, "lng": 130.4071, "ref_id": 13012383, "rating": 0, "num_reviews": 0, "website": null, "contact_phone": "+81 92-262-0340", "contact_email": null, "status": 1, "source_type": 1}, {"name": "Barkajitsu", "type": "attraction", "image": null, "address": "8-26 Yamanokuchicho, Kagoshima 892-0844 Kagoshima Prefecture", "lat": 31.588398, "lng": 130.55469, "ref_id": 13012395, "rating": 0, "num_reviews": 0, "website": null, "contact_phone": "+81 99-239-7795", "contact_email": null, "status": 1, "source_type": 1}, {"name": "Dream Kobo", "type": "attraction", "image": null, "address": "1983-13 Kamahara, Yame 834-0064 Qu\u00e2\u0323n Fukuoka", "lat": 33.223602, "lng": 130.53712, "ref_id": 13013555, "rating": 0, "num_reviews": 0, "website": null, "contact_phone": "+81 943-23-3190", "contact_email": null, "status": 1, "source_type": 1}, {"name": "Bar-Wesuti", "type": "attraction", "image": null, "address": "3-27-24, Hakataekimae, Hakata, Fukuoka 812-0011 Qu\u00e2\u0323n Fukuoka", "lat": 33.58956, "lng": 130.41518, "ref_id": 13012407, "rating": 0, "num_reviews": 0, "website": null, "contact_phone": "+81 92-482-7555", "contact_email": null, "status": 1, "source_type": 1}, {"name": "Sawayaka Market", "type": "attraction", "image": null, "address": "886-1 Yumutago, Hasami-cho, Higashisonogi-gun 859-3702 Nagasaki Prefecture", "lat": 33.140953, "lng": 129.91635, "ref_id": 13798952, "rating": 0, "num_reviews": 0, "website": null, "contact_phone": "+81 956-85-6139", "contact_email": null, "status": 1, "source_type": 1}, {"name": "Drinker", "type": "attraction", "image": null, "address": "2-70 Mutsumonmachi, Kurume 830-0031 Qu\u00e2\u0323n Fukuoka", "lat": 33.314182, "lng": 130.51118, "ref_id": 13013563, "rating": 0, "num_reviews": 0, "website": null, "contact_phone": "+81 942-39-8150", "contact_email": null, "status": 1, "source_type": 1}, {"name": "Drts Bar 24", "type": "attraction", "image": null, "address": "5-15 Hommachi, Kanoya 893-0002 Kagoshima Prefecture", "lat": 31.386272, "lng": 130.85114, "ref_id": 13013569, "rating": 0, "num_reviews": 0, "website": null, "contact_phone": "+81 994-45-6452", "contact_email": null, "status": 1, "source_type": 1}, {"name": "Contemporary Art Gallery Toco Pola Annex", "type": "attraction", "image": null, "address": "3-6-42 Akasaka, Chuo, Fukuoka 810-0042 Qu\u00e2\u0323n Fukuoka", "lat": 33.583176, "lng": 130.38474, "ref_id": 13013161, "rating": 0, "num_reviews": 0, "website": "http://www.tokopola.co.jp/annexe/", "contact_phone": "+81 92-762-1510", "contact_email": null, "status": 1, "source_type": 1}, {"name": "Suonoyu", "type": "attraction", "image": null, "address": "752-6 Minojima, Yukuhashi 824-0011 Qu\u00e2\u0323n Fukuoka", "lat": 33.745403, "lng": 131.01877, "ref_id": 13793192, "rating": 0, "num_reviews": 0, "website": "http://www.suokan.jp/bedrockbath.html", "contact_phone": "+81 930-23-3260", "contact_email": null, "status": 1, "source_type": 1}, {"name": "Saga Cultural Property Museum", "type": "attraction", "image": null, "address": "1121 Honjomachi Honjo, Saga 840-0027 Saga Prefecture", "lat": 33.239334, "lng": 130.28247, "ref_id": 13957795, "rating": 0, "num_reviews": 0, "website": null, "contact_phone": "+81 952-23-8656", "contact_email": null, "status": 1, "source_type": 1}, {"name": "Billiards Ikukan", "type": "attraction", "image": null, "address": "3-4 Ryogo Miketamachi, Oita 870-0883 Oita Prefecture", "lat": 33.218857, "lng": 131.58707, "ref_id": 13956753, "rating": 0, "num_reviews": 0, "website": null, "contact_phone": "+81 97-576-7712", "contact_email": null, "status": 1, "source_type": 1}, {"name": "Asou Kotsu", "type": "attraction", "image": null, "address": "Mifune-machi, Kamimashiki-gun Kumamoto Prefecture", "lat": 32.713528, "lng": 130.79785, "ref_id": 13956914, "rating": 0, "num_reviews": 0, "website": "http://aso-koutsu.com/", "contact_phone": "+81 96-282-1234", "contact_email": null, "status": 1, "source_type": 1}, {"name": "Little Tokyo", "type": "attraction", "image": null, "address": "1986-1 Momencho, Karatsu 847-0044 Saga Prefecture", "lat": 33.447556, "lng": 129.97154, "ref_id": 13975157, "rating": 0, "num_reviews": 0, "website": "https://www.facebook.com/littletokyo93", "contact_phone": "+81 955-74-6269", "contact_email": null, "status": 1, "source_type": 1}, {"name": "Yoloya Monzen Market", "type": "attraction", "image": null, "address": "1397-2 Yokkaichi, Usa 879-0471 Oita Prefecture", "lat": 33.531464, "lng": 131.3264, "ref_id": 13975212, "rating": 0, "num_reviews": 0, "website": "http://www.yoroya-usa.com/", "contact_phone": "+81 978-25-7775", "contact_email": null, "status": 1, "source_type": 1}, {"name": "Tsukasa Kikusui Golf Club", "type": "attraction", "image": null, "address": "1380 Medoo, Nagomi-machi, Tamana-gun 865-0123 Kumamoto Prefecture", "lat": 32.99015, "lng": 130.61848, "ref_id": 13988445, "rating": 0, "num_reviews": 0, "website": "http://www.tsukasa-kgc.jp/index.html", "contact_phone": "+81 968-86-3123", "contact_email": null, "status": 1, "source_type": 1}, {"name": "Okuhanaze Trout Fishing Place", "type": "attraction", "image": null, "address": "5138-529 Tashirofumoto, Kinko-cho, Kimotsuki-gun 893-2401 Kagoshima Prefecture", "lat": 31.172085, "lng": 130.9081, "ref_id": 13988354, "rating": 0, "num_reviews": 0, "website": "http://okuhanaze.com/", "contact_phone": "+81 994-25-3376", "contact_email": null, "status": 1, "source_type": 1}, {"name": "Juan Juan", "type": "attraction", "image": null, "address": "10-33 Hanabatacho, Chuo-ku, Kumamoto 860-0806 Kumamoto Prefecture", "lat": 32.80204, "lng": 130.70692, "ref_id": 13968719, "rating": 0, "num_reviews": 0, "website": "https://www.facebook.com/Juanjuan234/", "contact_phone": "+81 96-325-7071", "contact_email": null, "status": 1, "source_type": 1}, {"name": "Justice", "type": "attraction", "image": null, "address": "12-59 Hiyoshimachi 2f, Kurume 830-0017 Qu\u00e2\u0323n Fukuoka", "lat": 33.316498, "lng": 130.51268, "ref_id": 13968752, "rating": 0, "num_reviews": 0, "website": null, "contact_phone": "+81 942-37-7373", "contact_email": null, "status": 1, "source_type": 1}, {"name": "Umenoyu", "type": "attraction", "image": null, "address": "620 Shiromoto, Kinko-cho, Kimotsuki-gun 893-2302 Kagoshima Prefecture", "lat": 31.245628, "lng": 130.78754, "ref_id": 13968831, "rating": 0, "num_reviews": 0, "website": null, "contact_phone": "+81 994-22-1408", "contact_email": null, "status": 1, "source_type": 1}, {"name": "Maeda Onsen", "type": "attraction", "image": null, "address": "603-2 Matsunaga Hayatocho, Kirishima 899-5112 Kagoshima Prefecture", "lat": 31.775364, "lng": 130.76408, "ref_id": 13975216, "rating": 0, "num_reviews": 0, "website": null, "contact_phone": "+81 995-42-0853", "contact_email": null, "status": 1, "source_type": 1}, {"name": "Rendaiji Fishing Pond Center", "type": "attraction", "image": null, "address": "4-3-50 Rendaiji, Nishi-ku, Kumamoto 860-0055 Kumamoto Prefecture", "lat": 32.777237, "lng": 130.6854, "ref_id": 13979554, "rating": 0, "num_reviews": 0, "website": null, "contact_phone": "+81 96-324-9653", "contact_email": null, "status": 1, "source_type": 1}, {"name": "Matsuai Local Museum", "type": "attraction", "image": null, "address": "136-1 Shiranuhimachi Matsuai, Uki 869-3472 Kumamoto Prefecture", "lat": 32.63076, "lng": 130.60722, "ref_id": 13990275, "rating": 0, "num_reviews": 0, "website": null, "contact_phone": "+81 964-42-3560", "contact_email": null, "status": 1, "source_type": 1}, {"name": "Keisen Ground Golf Course", "type": "attraction", "image": null, "address": "2008-1 Haji, Keisen-machi, Kaho-gun 820-0607 Qu\u00e2\u0323n Fukuoka", "lat": 33.572403, "lng": 130.68869, "ref_id": 13999773, "rating": 0, "num_reviews": 0, "website": "http://www.town.keisen.fukuoka.jp/shisetsu/taiiku/golf.php", "contact_phone": "+81 948-65-5272", "contact_email": null, "status": 1, "source_type": 1}, {"name": "Family Bath Fuchisaki", "type": "attraction", "image": null, "address": "6075 Soeda Irikicho, Satsumasendai 895-1401 Kagoshima Prefecture", "lat": 31.823214, "lng": 130.43394, "ref_id": 14003174, "rating": 0, "num_reviews": 0, "website": "http://irikionsenfuchisaki.amebaownd.com", "contact_phone": "+81 996-44-3131", "contact_email": null, "status": 1, "source_type": 1}, {"name": "Horainosato Sennin no Yu", "type": "attraction", "image": null, "address": "45-1 Oiwaya, Bungotakada 872-1102 Oita Prefecture", "lat": 33.589394, "lng": 131.52275, "ref_id": 14000195, "rating": 0, "num_reviews": 0, "website": null, "contact_phone": "+81 978-53-4001", "contact_email": null, "status": 1, "source_type": 1}, {"name": "Makizono Specialty Products Sales Office", "type": "attraction", "image": null, "address": "2057-8 Makizonocho Santaido, Kirishima 899-6502 Kagoshima Prefecture", "lat": 31.88836, "lng": 130.80421, "ref_id": 14003206, "rating": 0, "num_reviews": 0, "website": null, "contact_phone": "+81 995-78-2741", "contact_email": null, "status": 1, "source_type": 1}, {"name": "FukuSatoshi The Town Library History Museum Fukuchinochi", "type": "attraction", "image": null, "address": "970-2 Akaike, Fukuchi-machi, Tagawa-gun 822-1101 Qu\u00e2\u0323n Fukuoka", "lat": 33.697502, "lng": 130.76425, "ref_id": 14000471, "rating": 0, "num_reviews": 0, "website": "http://fukuchinochi.com/", "contact_phone": "+81 947-28-2855", "contact_email": null, "status": 1, "source_type": 1}, {"name": "Jojima River Side Golf Course", "type": "attraction", "image": null, "address": "293 Hama Jojimamachi, Kurume 830-0203 Qu\u00e2\u0323n Fukuoka", "lat": 33.267445, "lng": 130.43254, "ref_id": 13989989, "rating": 0, "num_reviews": 0, "website": "http://kurumekoen.org/jyojima/", "contact_phone": "+81 942-62-5250", "contact_email": null, "status": 1, "source_type": 1}, {"name": "Ongacho Townsman Gymnastic Hall", "type": "attraction", "image": null, "address": "2-3-1 The countryside, Onga-cho, Onga-gun 811-4343 Qu\u00e2\u0323n Fukuoka", "lat": 33.856354, "lng": 130.6556, "ref_id": 13990051, "rating": 0, "num_reviews": 0, "website": "http://www.town.onga.lg.jp/shisetsu_navi/ichiran/taiikukan2.html", "contact_phone": "+81 93-293-2004", "contact_email": null, "status": 1, "source_type": 1}, {"name": "Sou", "type": "attraction", "image": null, "address": "10-4 Chuohommachi 2f, Saga 840-0825 Saga Prefecture", "lat": 33.253407, "lng": 130.30324, "ref_id": 13990239, "rating": 0, "num_reviews": 0, "website": "http://www.saga-sou.com/", "contact_phone": "+81 952-22-6628", "contact_email": null, "status": 1, "source_type": 1}, {"name": "Hita Liberte", "type": "attraction", "image": null, "address": "2-6-25 Sanbonmatsu 2f, Hita 877-0016 Oita Prefecture", "lat": 33.32051, "lng": 130.93068, "ref_id": 13999634, "rating": 0, "num_reviews": 0, "website": null, "contact_phone": "+81 973-24-7534", "contact_email": null, "status": 1, "source_type": 1}, {"name": "Hitoyoshi Onsen Family Bath Iyashinomori", "type": "attraction", "image": null, "address": "1009 Onigimachi, Hitoyoshi 868-0021 Kumamoto Prefecture", "lat": 32.222824, "lng": 130.76738, "ref_id": 13999637, "rating": 0, "num_reviews": 0, "website": null, "contact_phone": "+81 966-22-8800", "contact_email": null, "status": 1, "source_type": 1}, {"name": "Gallery Takechi", "type": "attraction", "image": null, "address": "4-1 Suidocho, Chuo-ku, Kumamoto 860-0844 Kumamoto Prefecture", "lat": 32.805054, "lng": 130.71239, "ref_id": 14000367, "rating": 0, "num_reviews": 0, "website": "http://gallerytakechi.com/", "contact_phone": "+81 96-221-6060", "contact_email": null, "status": 1, "source_type": 1}, {"name": "Amor", "type": "attraction", "image": null, "address": "11-8 Yamanoguchicho, Kagoshima 892-0844 Kagoshima Prefecture", "lat": 31.589275, "lng": 130.55408, "ref_id": 19242802, "rating": 0, "num_reviews": 0, "website": null, "contact_phone": "+81 99-294-9523", "contact_email": null, "status": 1, "source_type": 1}, {"name": "Matsubara Beach", "type": "attraction", "image": null, "address": "2-5-2 Matsubara, Omura 914-0801 Nagasaki Prefecture", "lat": 32.98046, "lng": 129.94588, "ref_id": 20920744, "rating": 0, "num_reviews": 0, "website": null, "contact_phone": null, "contact_email": null, "status": 1, "source_type": 1},