[{"name": "SpringHill Suites by Marriott Prince Frederick", "type": "hotel", "image": "https://dynamic-media-cdn.tripadvisor.com/media/photo-o/2c/0a/aa/ad/exterior.jpg?w=1000&s=1", "address": "75 Sherry Lane, Prince Frederick, MD 20678", "lat": 38.53258, "lng": -76.58475, "ref_id": 650692, "rating": 3.5, "num_reviews": 0, "website": "https://www.marriott.com/en-us/hotels/bwipf-springhill-suites-prince-frederick/overview/?scid=45f93f1b-bd77-45c9-8dab-83b6a417f6fe&y_source=1_MjgxODA4MS03NjktbG9jYXRpb24ud2Vic2l0ZQ%3D%3D", "contact_phone": "+1 443-968-3000", "contact_email": "shspfsales@kayakhg.com", "status": 1, "source_type": 1, "numberReviews": 167}, {"name": "John L. Stam House", "type": "hotel", "image": "https://dynamic-media-cdn.tripadvisor.com/media/photo-o/02/dc/cd/fb/john-stam-house.jpg?w=1000&s=1", "address": "114 Washington Ave, Chestertown, MD 21620-1616", "lat": 39.21239, "lng": -76.06621, "ref_id": 3443605, "rating": 5, "num_reviews": 0, "website": "http://www.jlstamhouse.com", "contact_phone": "+1 410-778-1926", "contact_email": "jlstamhouse@gmail.com", "status": 1, "source_type": 1, "numberReviews": 34}, {"name": "Widow's Walk Inn", "type": "hotel", "image": null, "address": "402 High St, Chestertown, MD 21620-1312", "lat": 39.211, "lng": -76.06865, "ref_id": 113143, "rating": 4.5, "num_reviews": 0, "website": "http://www.bramptoninn.com", "contact_phone": "+1 888-778-6455", "contact_email": null, "status": 1, "source_type": 1, "numberReviews": 43}, {"name": "Miramar Condominiums", "type": "hotel", "image": "https://dynamic-media-cdn.tripadvisor.com/media/photo-s/01/88/2f/ac/miramar-condominiums.jpg?w=1000&s=1", "address": "2 15th St 5th Floor of Courtyard by Marriott, Ocean City, MD 21842-4495", "lat": 38.34507, "lng": -75.07818, "ref_id": 1788339, "rating": 5, "num_reviews": 0, "website": null, "contact_phone": "+1 410-520-3028", "contact_email": "reservations@miramaroc.com", "status": 1, "source_type": 1, "numberReviews": 32}, {"name": "Navy Lodge Bethesda", "type": "hotel", "image": "https://dynamic-media-cdn.tripadvisor.com/media/photo-o/23/6b/5f/30/two-queen-beds.jpg?w=1000&s=1", "address": "8901 Rockville Pike Building 52, Bethesda, MD 20889-0001", "lat": 38.999035, "lng": -77.089195, "ref_id": 2616425, "rating": 4, "num_reviews": 0, "website": "http://www.navy-lodge.com/", "contact_phone": "+1 301-654-1795", "contact_email": "navylodge.bethesda@nexweb.org", "status": 1, "source_type": 1, "numberReviews": 54}, {"name": "Blue Max Inn Bed and Breakfast", "type": "hotel", "image": "https://dynamic-media-cdn.tripadvisor.com/media/photo-o/19/72/37/a8/blue-max-inn-bed-and.jpg?w=1000&s=1", "address": "300 Bohemia Ave, Chesapeake City, MD 21915-1244", "lat": 39.525948, "lng": -75.81332, "ref_id": 77475, "rating": 4, "num_reviews": 0, "website": null, "contact_phone": "+1 410-885-2781", "contact_email": "bluemax@crosslink.net", "status": 1, "source_type": 1, "numberReviews": 62}, {"name": "Reynolds Tavern", "type": "hotel", "image": "https://dynamic-media-cdn.tripadvisor.com/media/photo-o/26/25/a4/af/reynolds-tavern.jpg?w=1000&s=1", "address": "7 Church Cir, Annapolis, MD 21401-1935", "lat": 38.97806, "lng": -76.49346, "ref_id": 565121, "rating": 4.5, "num_reviews": 0, "website": "http://www.reynoldstavern.org", "contact_phone": "+1 410-295-9555", "contact_email": "reynoldstavern@comcast.net", "status": 1, "source_type": 1, "numberReviews": 42}, {"name": "Maria's Love Point Bed and Breakfast", "type": "hotel", "image": "https://dynamic-media-cdn.tripadvisor.com/media/photo-o/12/f5/85/d0/photo2jpg.jpg?w=1000&s=1", "address": "1710 Love Point Rd, Stevensville, Kent Island, MD 21666-2088", "lat": 39.0186, "lng": -76.30322, "ref_id": 3874200, "rating": 5, "num_reviews": 0, "website": null, "contact_phone": "+1 410-643-5054", "contact_email": null, "status": 1, "source_type": 1, "numberReviews": 18}, {"name": "Charlie's Motel", "type": "hotel", "image": "https://dynamic-media-cdn.tripadvisor.com/media/photo-o/08/57/c0/15/charlie-s-motel.jpg?w=1000&s=1", "address": "220 W Main St, Frostburg, MD 21532-1501", "lat": 39.665447, "lng": -78.93604, "ref_id": 2475300, "rating": 4, "num_reviews": 0, "website": "http://charliesmotelusa.com/", "contact_phone": "+1 301-689-6557", "contact_email": "charliesmotelusa@yahoo.com", "status": 1, "source_type": 1, "numberReviews": 48}, {"name": "Mt. Washington Conference Center", "type": "hotel", "image": "https://dynamic-media-cdn.tripadvisor.com/media/photo-o/2c/18/a8/47/mwcc-queen-guestroom.jpg?w=1000&s=1", "address": "5801 Smith Ave Ste 1100, Baltimore, MD 21209-3652", "lat": 39.36964, "lng": -76.65477, "ref_id": 225246, "rating": 3.5, "num_reviews": 0, "website": "http://www.mtwashconfctr.com/", "contact_phone": "+1 410-735-7685", "contact_email": "", "status": 1, "source_type": 1, "numberReviews": 130}, {"name": "North Glade Inn", "type": "hotel", "image": "https://dynamic-media-cdn.tripadvisor.com/media/photo-o/05/b2/41/5a/north-glade-inn.jpg?w=1000&s=1", "address": "184 N Glade Rd, Swanton, MD 21561-2224", "lat": 39.51399, "lng": -79.27696, "ref_id": 581498, "rating": 4.5, "num_reviews": 0, "website": "http://www.northgladeinn.com/", "contact_phone": "+1 301-387-3373", "contact_email": "", "status": 1, "source_type": 1, "numberReviews": 28}, {"name": "Solomons Inn Resort and Marina", "type": "hotel", "image": "https://dynamic-media-cdn.tripadvisor.com/media/photo-s/01/71/9c/41/pool-and-courtyard-area.jpg?w=1000&s=1", "address": "155 Holiday Dr, Solomons, MD 20688-3150", "lat": 38.336685, "lng": -76.462456, "ref_id": 89529, "rating": 3.5, "num_reviews": 0, "website": "https://solomonsinn.com", "contact_phone": "+1 410-326-6311", "contact_email": "sales@solomonsinn.com", "status": 1, "source_type": 1, "numberReviews": 444}, {"name": "Suites at Silver Tree", "type": "hotel", "image": "https://dynamic-media-cdn.tripadvisor.com/media/photo-o/11/9a/fa/34/suites-at-silver-tree.jpg?w=1000&s=1", "address": "565 Glendale Rd, Oakland, MD 21550-7171", "lat": 39.501965, "lng": -79.31866, "ref_id": 1113912, "rating": 4, "num_reviews": 0, "website": "http://www.suitesatsilvertree.com", "contact_phone": "+1 800-711-1719", "contact_email": "stsfrontdesk@deepcreek.com", "status": 1, "source_type": 1, "numberReviews": 145}, {"name": "Inn At Norwood", "type": "hotel", "image": "https://dynamic-media-cdn.tripadvisor.com/media/photo-o/0a/77/06/c9/photo0jpg.jpg?w=1000&s=1", "address": "7514 Norwood Ave, Sykesville, MD 21784-7323", "lat": 39.36662, "lng": -76.9709, "ref_id": 555873, "rating": 4.5, "num_reviews": 0, "website": "http://www.innatnorwood.com/", "contact_phone": "+1 410-549-7868", "contact_email": "innatnorwood@adelphia.net", "status": 1, "source_type": 1, "numberReviews": 40}, {"name": "Combsberry Inn Bed and Breakfast", "type": "hotel", "image": "https://dynamic-media-cdn.tripadvisor.com/media/photo-o/04/52/fc/ed/combsberry-inn-bed-and.jpg?w=1000&s=1", "address": "4837 Evergreen Rd, Oxford, MD 21654-1450", "lat": 38.676624, "lng": -76.13806, "ref_id": 113152, "rating": 4.5, "num_reviews": 0, "website": "http://www.combsberry.com/", "contact_phone": "+1 410-226-5353", "contact_email": "combsberry@yahoo.com", "status": 1, "source_type": 1, "numberReviews": 37}, {"name": "Deer Park Inn", "type": "hotel", "image": "https://dynamic-media-cdn.tripadvisor.com/media/photo-o/08/a9/89/78/deer-park-inn.jpg?w=1000&s=1", "address": "65 Hotel Rd, Deer Park, MD 21550-6247", "lat": 39.420193, "lng": -79.33303, "ref_id": 1380082, "rating": 4.5, "num_reviews": 0, "website": null, "contact_phone": "+1 301-334-2308", "contact_email": "deer_park_inn@hotmail.com", "status": 1, "source_type": 1, "numberReviews": 24}, {"name": "Mansion House B&B", "type": "hotel", "image": "https://dynamic-media-cdn.tripadvisor.com/media/photo-o/06/2f/29/94/looking-north-across.jpg?w=1000&s=1", "address": "4436 Bayside Rd, Snow Hill, MD 21863", "lat": 38.14854, "lng": -75.28711, "ref_id": 77544, "rating": 5, "num_reviews": 0, "website": "http://mansionhousebnb.com", "contact_phone": "+1 410-632-3189", "contact_email": "innkeeper@mansionhousebnb.com", "status": 1, "source_type": 1, "numberReviews": 29}, {"name": "The Castle Bed and Breakfast", "type": "hotel", "image": "https://dynamic-media-cdn.tripadvisor.com/media/photo-o/08/97/6f/a5/photo1jpg.jpg?w=1000&s=1", "address": "15925 Mount Savage Rd NW, Mount Savage, MD 21545-1605", "lat": 39.694992, "lng": -78.88298, "ref_id": 115151, "rating": 4, "num_reviews": 0, "website": "http://www.castlebandb.com/", "contact_phone": "+1 301-264-4645", "contact_email": "", "status": 1, "source_type": 1, "numberReviews": 44}, {"name": "Will O' the Wisp", "type": "hotel", "image": "https://dynamic-media-cdn.tripadvisor.com/media/photo-o/1c/9c/d1/6d/will-o-the-wisp.jpg?w=1000&s=1", "address": "20160 Garrett Hwy, Oakland, MD 21550-7133", "lat": 39.50924, "lng": -79.32319, "ref_id": 262604, "rating": 3.5, "num_reviews": 0, "website": "http://www.willothewisp.com/", "contact_phone": "+1 855-508-0765", "contact_email": "wowreservations@deepcreek.com", "status": 1, "source_type": 1, "numberReviews": 116}, {"name": "The Ruffled Duck House", "type": "hotel", "image": null, "address": "110 N Morris St, Oxford, MD 21654-1015", "lat": 38.68986, "lng": -76.17287, "ref_id": 1207168, "rating": 4.5, "num_reviews": 0, "website": "http://www.theruffledduckhouse.com", "contact_phone": "+1 765-491-0227", "contact_email": null, "status": 1, "source_type": 1, "numberReviews": 28}, {"name": "Executive Inn - Park Avenue Hotel", "type": "hotel", "image": "https://dynamic-media-cdn.tripadvisor.com/media/photo-o/05/8b/36/9b/best-western-plus-park.jpg?w=1000&s=1", "address": "41655 Park Ave PO Box 635, Leonardtown, MD 20650-3894", "lat": 38.290176, "lng": -76.63514, "ref_id": 1234114, "rating": 4, "num_reviews": 0, "website": null, "contact_phone": "+1 301-475-3000", "contact_email": null, "status": 1, "source_type": 1, "numberReviews": 86}, {"name": "Seasons at Magnolia Manor", "type": "hotel", "image": "https://dynamic-media-cdn.tripadvisor.com/media/photo-o/17/bb/63/e5/seasons-at-magnolia-manor.jpg?w=1000&s=1", "address": "111 S Springdale Ave, New Windsor, MD 21776-9732", "lat": 39.54757, "lng": -77.099266, "ref_id": 118402, "rating": 4, "num_reviews": 0, "website": "http://www.seasonsatmagnolia.com/", "contact_phone": "+1 301-466-6644", "contact_email": "information@seasonsatmagnolia.com", "status": 1, "source_type": 1, "numberReviews": 58}, {"name": "North Bay B&B", "type": "hotel", "image": "https://dynamic-media-cdn.tripadvisor.com/media/photo-o/13/a7/e8/36/photo5jpg.jpg?w=1000&s=1", "address": "9 Sunset Dr, North East, MD 21901-5327", "lat": 39.55906, "lng": -75.96434, "ref_id": 1206905, "rating": 5, "num_reviews": 0, "website": null, "contact_phone": "", "contact_email": "", "status": 1, "source_type": 1, "numberReviews": 20}, {"name": "Susan's on Smith Island", "type": "hotel", "image": "https://dynamic-media-cdn.tripadvisor.com/media/photo-o/0e/d2/2a/ec/very-good-softshell-crabs.jpg?w=1000&s=1", "address": "20759 Caleb Jones Rd, Ewell, MD 21824-9713", "lat": 37.99587, "lng": -76.03641, "ref_id": 3461002, "rating": 5, "num_reviews": 0, "website": "http://www.susansonsmithisland.com/", "contact_phone": "+1 410-425-2403", "contact_email": "susansonsmithisland@verizon.net", "status": 1, "source_type": 1, "numberReviews": 15}, {"name": "Bel Alton Motel", "type": "hotel", "image": "https://dynamic-media-cdn.tripadvisor.com/media/photo-o/0e/35/da/f4/bel-alton-motel.jpg?w=1000&s=1", "address": "9295 Crain Highway, Bel Alton, MD 20611", "lat": 38.456814, "lng": -76.99234, "ref_id": 2231876, "rating": 4.5, "num_reviews": 0, "website": "http://www.belaltonmotel.com/", "contact_phone": "+1 301-934-9505", "contact_email": "", "status": 1, "source_type": 1, "numberReviews": 23}, {"name": "Candlewood Suites Building 4690", "type": "hotel", "image": "https://dynamic-media-cdn.tripadvisor.com/media/photo-o/0f/64/d7/5b/king-size-bed.jpg?w=1000&s=1", "address": "4690 Cooper Avenue Bldg. 4690, Fort Meade, MD 20755", "lat": 39.10145, "lng": -76.74325, "ref_id": 12148887, "rating": 4.5, "num_reviews": 0, "website": "https://www.ihg.com/armyhotels/hotels/us/en/fort-meade/zyeab/hoteldetail?cm_mmc=YextLocal-_-MA-_-US-_-ZYEAB", "contact_phone": "+1 410-674-7700", "contact_email": null, "status": 1, "source_type": 1, "numberReviews": 19}, {"name": "Miles River Guest House", "type": "hotel", "image": "https://dynamic-media-cdn.tripadvisor.com/media/photo-s/02/1b/ab/26/miles.jpg?w=1000&s=1", "address": "8862 Quailsar Rd, Easton, MD 21601-7482", "lat": 38.79212, "lng": -76.11151, "ref_id": 1098881, "rating": 5, "num_reviews": 0, "website": "http://www.milesriverguesthouse.com/", "contact_phone": "+1 410-822-2743", "contact_email": "will@tourvideo.com", "status": 1, "source_type": 1, "numberReviews": 30}, {"name": "Meshach Browning's Cabins on the River", "type": "hotel", "image": "https://dynamic-media-cdn.tripadvisor.com/media/photo-o/12/d7/92/de/photo0jpg.jpg?w=1000&s=1", "address": "315 River Rd, Grantsville, MD 21536-2007", "lat": 39.70137, "lng": -79.136925, "ref_id": 1554585, "rating": 4.5, "num_reviews": 0, "website": "http://www.mbcabinsontheriver.com/", "contact_phone": "+1 301-707-1440", "contact_email": "cabinsontheriver@verizon.net", "status": 1, "source_type": 1, "numberReviews": 24}, {"name": "Rose Cottage Bed & Breakfast", "type": "hotel", "image": "https://dynamic-media-cdn.tripadvisor.com/media/photo-o/17/2b/aa/45/we-had-such-a-wonderful.jpg?w=1000&s=1", "address": "8115 Rose Cottage Ln, Fairplay, MD 21733-1006", "lat": 39.536617, "lng": -77.757126, "ref_id": 8662088, "rating": 5, "num_reviews": 0, "website": null, "contact_phone": null, "contact_email": null, "status": 1, "source_type": 1, "numberReviews": 12}, {"name": "Mallard Apartments", "type": "hotel", "image": "https://dynamic-media-cdn.tripadvisor.com/media/photo-o/13/19/b9/d9/deluxe-apartment-bedroom.jpg?w=1000&s=1", "address": "603 N Baltimore Ave, Ocean City, MD 21842-4348", "lat": 38.33758, "lng": -75.08336, "ref_id": 1882857, "rating": 3, "num_reviews": 0, "website": "http://ochotelsandapartments.com", "contact_phone": "+1 443-664-5451", "contact_email": "mallardappartments@gmail.com", "status": 1, "source_type": 1, "numberReviews": 2}, {"name": "Sun 'n Fun Motel", "type": "hotel", "image": "https://dynamic-media-cdn.tripadvisor.com/media/photo-o/0d/24/d5/6a/rm27-standard-double-room--v13430.jpg?w=1000&s=1", "address": "29th Street & Baltimore Ave, Ocean City, MD 21842", "lat": 38.357666, "lng": -75.07282, "ref_id": 1632299, "rating": 4, "num_reviews": 0, "website": null, "contact_phone": "+1 410-289-6060", "contact_email": "info@ocmotels.com", "status": 1, "source_type": 1, "numberReviews": 83}, {"name": "Hilton Baltimore BWI Airport", "type": "hotel", "image": "https://dynamic-media-cdn.tripadvisor.com/media/photo-o/2b/b8/59/44/exterior.jpg?w=1000&s=1", "address": "1739 West Nursery Rd, Linthicum Heights, MD 21090-2906", "lat": 39.195827, "lng": -76.68068, "ref_id": 618171, "rating": 4.5, "num_reviews": 0, "website": "https://www.hilton.com/en/hotels/bwiaphf-hilton-baltimore-bwi-airport/?SEO_id=YEXTN-AMER-HH-BWIAPHF&y_source=1_MTIyMDgwNy03NjktbG9jYXRpb24ud2Vic2l0ZQ%3D%3D", "contact_phone": "+1 410-694-0808", "contact_email": "", "status": 1, "source_type": 1, "numberReviews": 2473}, {"name": "Inn At Henderson's Wharf, Ascend Hotel Collection", "type": "hotel", "image": "https://dynamic-media-cdn.tripadvisor.com/media/photo-o/2a/cb/a6/39/hotel-lobby.jpg?w=1000&s=1", "address": "1000 Fell St, Baltimore, MD 21231-3529", "lat": 39.28031, "lng": -76.589386, "ref_id": 111408, "rating": 4.5, "num_reviews": 0, "website": "http://hendersonswharf.com", "contact_phone": "+1 410-522-7777", "contact_email": "hwinfo@hendersonswharf.com", "status": 1, "source_type": 1, "numberReviews": 1204}, {"name": "Hyatt Place National Harbor", "type": "hotel", "image": "https://dynamic-media-cdn.tripadvisor.com/media/photo-o/2a/37/df/9d/suite.jpg?w=1000&s=1", "address": "123 Waterfront St, National Harbor, MD 20745-1138", "lat": 38.78565, "lng": -77.01581, "ref_id": 21247973, "rating": 4.5, "num_reviews": 0, "website": "http://www.hyatt.com/en-US/hotel/maryland/hyatt-place-national-harbor/iadzr", "contact_phone": "+1 301-686-1120", "contact_email": "ted.fleurimond@hyatt.com", "status": 1, "source_type": 1, "numberReviews": 473}, {"name": "The Hotel at the University of Maryland", "type": "hotel", "image": "https://dynamic-media-cdn.tripadvisor.com/media/photo-o/12/46/87/89/deluxe-king-guest-room.jpg?w=1000&s=1", "address": "7777 Baltimore Ave, College Park, MD 20740-3261", "lat": 38.986862, "lng": -76.93595, "ref_id": 12672768, "rating": 4.5, "num_reviews": 0, "website": "https://www.thehotelumd.com/?utm_campaign=yext&utm_medium=organic&utm_source=local&y_source=1_MTQ4OTE3NjMtNzY5LWxvY2F0aW9uLndlYnNpdGU%3D", "contact_phone": "+1 301-277-7777", "contact_email": null, "status": 1, "source_type": 1, "numberReviews": 542}, {"name": "Hampton Inn & Suites by Hilton Glenarden Washington DC", "type": "hotel", "image": "https://dynamic-media-cdn.tripadvisor.com/media/photo-o/2b/5a/3b/33/exterior.jpg?w=1000&s=1", "address": "2901 Campus Way North, Glenarden, MD 20706", "lat": 38.920486, "lng": -76.851265, "ref_id": 13071966, "rating": 4.5, "num_reviews": 0, "website": "https://www.hilton.com/en/hotels/waslahx-hampton-suites-glenarden-washington-dc/?SEO_id=YEXTN-AMER-HX-WASLAHX&y_source=1_ODc0MjAwNi03NjktbG9jYXRpb24ud2Vic2l0ZQ%3D%3D", "contact_phone": "+1 301-322-3200", "contact_email": null, "status": 1, "source_type": 1, "numberReviews": 214}, {"name": "Hampton Inn Hagerstown-I-81", "type": "hotel", "image": "https://dynamic-media-cdn.tripadvisor.com/media/photo-o/2b/84/96/ec/exterior.jpg?w=1000&s=1", "address": "18300 Peak Circle, Hagerstown, MD 21742-2370", "lat": 39.69191, "lng": -77.733, "ref_id": 224401, "rating": 4.5, "num_reviews": 0, "website": "https://www.hilton.com/en/hotels/hgrmghx-hampton-hagerstown-i-81/?SEO_id=YEXTN-AMER-HX-HGRMGHX&y_source=1_MjA4MjczNy03NjktbG9jYXRpb24ud2Vic2l0ZQ%3D%3D", "contact_phone": "+1 240-420-1970", "contact_email": null, "status": 1, "source_type": 1, "numberReviews": 990}, {"name": "Country Inn & Suites by Radisson, Annapolis, MD", "type": "hotel", "image": "https://dynamic-media-cdn.tripadvisor.com/media/photo-o/2b/da/48/56/2-queen-beds.jpg?w=1000&s=1", "address": "2600 Housley Road, Annapolis, MD 21401", "lat": 38.985832, "lng": -76.556885, "ref_id": 225465, "rating": 4, "num_reviews": 0, "website": "https://www.radissonhotelsamericas.com/en-us/hotels/country-inn-annapolis-md?cid=a:rf+b:yex+c:amer+i:local+e:cis+d:us+f:en-US+h:MDANNAP", "contact_phone": "+1 410-571-6700", "contact_email": "cx_anap@countryinn.com", "status": 1, "source_type": 1, "numberReviews": 1300}, {"name": "Extended Stay America Select Suites - Washington D.C. - Germantown - Town Center", "type": "hotel", "image": "https://dynamic-media-cdn.tripadvisor.com/media/photo-o/2b/de/6c/2b/exterior.jpg?w=1000&s=1", "address": "20141 Century Blvd, Germantown, MD 20874-1179", "lat": 39.18724, "lng": -77.25941, "ref_id": 217773, "rating": 4.5, "num_reviews": 0, "website": "http://www.extendedstayamerica.com/hotels/dc/washington-dc/washington-dc-germantown-town-center", "contact_phone": "+1 301-515-4500", "contact_email": "", "status": 1, "source_type": 1, "numberReviews": 529}, {"name": "Super 8 by Wyndham Frederick", "type": "hotel", "image": "https://dynamic-media-cdn.tripadvisor.com/media/photo-o/2c/0c/c7/ea/exterior.jpg?w=1000&s=1", "address": "20 Monocacy Blvd, Frederick, MD 21704-7256", "lat": 39.401836, "lng": -77.406136, "ref_id": 93927, "rating": 4, "num_reviews": 0, "website": "http://www.wyndhamhotels.com/hotels/12307?tel=18005361211&iata=00065402&cid=fe:se:20170330:tabl:pp:seus:12307&checkin_date={{ci:MM/dd/yyyy}}&checkout_date={{co:MM/dd/yyyy}}&children={{nc}}&adults={{na}}&rooms={{nr}}&checkin_date={{ci:MM/dd/yyyy}}&checkout_date={{co:MM/dd/yyyy}}&children={{nc}}&adults={{na}}&rooms={{nr}}", "contact_phone": "+1 301-228-0672", "contact_email": "", "status": 1, "source_type": 1, "numberReviews": 295}, {"name": "Cambria Hotel Rockville", "type": "hotel", "image": "https://dynamic-media-cdn.tripadvisor.com/media/photo-o/0a/a9/2e/c3/cambria-hotel-suites.jpg?w=1000&s=1", "address": "1 Helen Heneghan Way, Rockville, MD 20850-2276", "lat": 39.085033, "lng": -77.15004, "ref_id": 7182724, "rating": 4.5, "num_reviews": 0, "website": "https://www.cambriasuitesrockville.com/", "contact_phone": "+1 301-294-2200", "contact_email": "information@cambriasuitesrockville.com", "status": 1, "source_type": 1, "numberReviews": 516}, {"name": "Annapolis Waterfront Hotel", "type": "hotel", "image": "https://dynamic-media-cdn.tripadvisor.com/media/photo-o/2c/04/42/fc/exterior.jpg?w=1000&s=1", "address": "80 Compromise Street, Annapolis, MD 21401", "lat": 38.975735, "lng": -76.485634, "ref_id": 89320, "rating": 4, "num_reviews": 0, "website": "https://www.annapoliswaterfront.com/", "contact_phone": "+1 888-773-0786", "contact_email": "info@annapoliswaterfront.com", "status": 1, "source_type": 1, "numberReviews": 679}, {"name": "Comfort Inn Shady Grove - Gaithersburg - Rockville", "type": "hotel", "image": "https://dynamic-media-cdn.tripadvisor.com/media/photo-o/1d/9a/dc/0d/hotel-exterior.jpg?w=1000&s=1", "address": "16216 Frederick Rd, Gaithersburg, MD 20877-4023", "lat": 39.120983, "lng": -77.17703, "ref_id": 89424, "rating": 4.5, "num_reviews": 0, "website": "https://www.choicehotels.com/maryland/gaithersburg/comfort-inn-hotels/md413?mc=llgoxxpx", "contact_phone": "+1 301-330-0023", "contact_email": "sales@comfortinngaithersburg.com", "status": 1, "source_type": 1, "numberReviews": 889}, {"name": "Aloft Ocean City", "type": "hotel", "image": "https://dynamic-media-cdn.tripadvisor.com/media/photo-o/2c/16/e5/00/exterior.jpg?w=1000&s=1", "address": "4501 Coastal Highway, Ocean City, MD 21842", "lat": 38.37141, "lng": -75.071625, "ref_id": 16709114, "rating": 4, "num_reviews": 0, "website": "https://www.marriott.com/en-us/hotels/sbyal-aloft-ocean-city/overview/?scid=45f93f1b-bd77-45c9-8dab-83b6a417f6fe&y_source=1_MTIyODE1MTQtNzY5LWxvY2F0aW9uLndlYnNpdGU%3D", "contact_phone": "+1 443-373-0800", "contact_email": null, "status": 1, "source_type": 1, "numberReviews": 187}, {"name": "Country Inn & Suites by Radisson, BWI Airport (Baltimore), MD", "type": "hotel", "image": "https://dynamic-media-cdn.tripadvisor.com/media/photo-o/2b/9d/7f/82/exterior.jpg?w=1000&s=1", "address": "1717 W Nursery Rd, Linthicum Heights, MD 21090-2906", "lat": 39.19766, "lng": -76.68258, "ref_id": 558241, "rating": 4.5, "num_reviews": 0, "website": "https://www.radissonhotelsamericas.com/en-us/hotels/country-inn-linthicum-heights-bwi-md?cid=a:rf+b:yex+c:amer+i:local+e:cis+d:us+f:en-US+h:MDBALAIR", "contact_phone": "+1 410-981-9997", "contact_email": "cx_bwia@countryinn.com", "status": 1, "source_type": 1, "numberReviews": 1094}, {"name": "Inn at The Colonnade Baltimore - a DoubleTree by Hilton Hotel", "type": "hotel", "image": "https://dynamic-media-cdn.tripadvisor.com/media/photo-o/2b/4e/8c/b6/exterior.jpg?w=1000&s=1", "address": "4 W University Pkwy, Baltimore, MD 21218-2387", "lat": 39.334255, "lng": -76.61989, "ref_id": 89333, "rating": 4, "num_reviews": 0, "website": "https://www.hilton.com/en/hotels/bwicudt-inn-at-the-colonnade-baltimore/?SEO_id=YEXTN-AMER-DT-BWICUDT&y_source=1_MTM3Mjc0Ni03NjktbG9jYXRpb24ud2Vic2l0ZQ%3D%3D", "contact_phone": "+1 410-235-5400", "contact_email": "steve.nyitrai@hilton.com", "status": 1, "source_type": 1, "numberReviews": 1372}, {"name": "Best Western Kent Narrows Inn", "type": "hotel", "image": "https://dynamic-media-cdn.tripadvisor.com/media/photo-o/2b/18/f4/b2/exterior.jpg?w=1000&s=1", "address": "3101 Main St, Grasonville, MD 21638", "lat": 38.96858, "lng": -76.24226, "ref_id": 89438, "rating": 4, "num_reviews": 0, "website": "https://www.bestwestern.com/de_DE/book/hotel-rooms.21049.html?iata=00171890&ssob=BLBWI0003G&cid=BLBWI0003G:yext:website:21049", "contact_phone": "+1 410-827-6767", "contact_email": "bwkentnarrows@gmail.com", "status": 1, "source_type": 1, "numberReviews": 913}, {"name": "Hampton Inn & Suites Columbia South Fort Meade Area", "type": "hotel", "image": "https://dynamic-media-cdn.tripadvisor.com/media/photo-o/2b/84/51/ba/exterior.jpg?w=1000&s=1", "address": "7045 Minstrel Way, Columbia, MD 21046-1907", "lat": 39.175865, "lng": -76.846214, "ref_id": 3529848, "rating": 4.5, "num_reviews": 0, "website": "https://www.hilton.com/en/hotels/balcohx-hampton-suites-columbia-south-fort-meade-area/?SEO_id=YEXTN-AMER-HX-BALCOHX&y_source=1_MjA4NDg2MS03NjktbG9jYXRpb24ud2Vic2l0ZQ%3D%3D", "contact_phone": "+1 410-381-3001", "contact_email": null, "status": 1, "source_type": 1, "numberReviews": 752}, {"name": "Microtel Inn & Suites by Wyndham Ocean City", "type": "hotel", "image": "https://dynamic-media-cdn.tripadvisor.com/media/photo-o/23/e2/f6/eb/exterior.jpg?w=1000&s=1", "address": "12536 Ocean Gtwy, Ocean City, MD 21842-9690", "lat": 38.338432, "lng": -75.116035, "ref_id": 10779887, "rating": 4.5, "num_reviews": 0, "website": "http://www.wyndhamhotels.com/hotels/48240?tel=18882936798&iata=00065402&cid=fe:mt:20170330:tabl:pp:mtus:48240&checkin_date={{ci:MM/dd/yyyy}}&checkout_date={{co:MM/dd/yyyy}}&children={{nc}}&adults={{na}}&rooms={{nr}}&checkin_date={{ci:MM/dd/yyyy}}&checkout_date={{co:MM/dd/yyyy}}&children={{nc}}&adults={{na}}&rooms={{nr}}", "contact_phone": "+1 410-390-5033", "contact_email": null, "status": 1, "source_type": 1, "numberReviews": 525}, {"name": "Hampton Inn Hagerstown", "type": "hotel", "image": "https://dynamic-media-cdn.tripadvisor.com/media/photo-o/2a/ef/42/ed/exterior.jpg?w=1000&s=1", "address": "1716 Dual Highway, Hagerstown, MD 21740-6635", "lat": 39.616047, "lng": -77.69073, "ref_id": 93942, "rating": 4.5, "num_reviews": 0, "website": "https://www.hilton.com/en/hotels/hgrmdhx-hampton-hagerstown/?SEO_id=YEXTN-AMER-HX-HGRMDHX&y_source=1_MjA4MjY0NC03NjktbG9jYXRpb24ud2Vic2l0ZQ%3D%3D", "contact_phone": "+1 301-739-6100", "contact_email": "", "status": 1, "source_type": 1, "numberReviews": 1119}, {"name": "Wingate by Wyndham Baltimore Bwi Airport", "type": "hotel", "image": "https://dynamic-media-cdn.tripadvisor.com/media/photo-o/18/1a/1b/53/lobby-area.jpg?w=1000&s=1", "address": "829 Elkridge Landing Rd, Linthicum Heights, MD 21090-2902", "lat": 39.19713, "lng": -76.68703, "ref_id": 120941, "rating": 4, "num_reviews": 0, "website": "https://www.wyndhamhotels.com/wingate/baltimore-maryland/wingate-by-wyndham-baltimore-bwi-airport/overview?CID=LC:7hcm1fujuihd89e:54986&iata=00093796", "contact_phone": "+1 410-850-0600", "contact_email": "", "status": 1, "source_type": 1, "numberReviews": 1646}, {"name": "Cambria Hotel Ocean City - Bayfront", "type": "hotel", "image": "https://dynamic-media-cdn.tripadvisor.com/media/photo-o/1c/06/37/e4/cambria-hotel-ocean-city.jpg?w=1000&s=1", "address": "13 Saint Louis Ave, Ocean City, MD 21842-4044", "lat": 38.33293, "lng": -75.089134, "ref_id": 20949100, "rating": 4, "num_reviews": 0, "website": "https://www.facebook.com/CambriaOC/", "contact_phone": "+1 443-856-4158", "contact_email": "Ray.Shields@cambriaoc.com", "status": 1, "source_type": 1, "numberReviews": 87}, {"name": "Hampton Inn Baltimore Bayview Campus", "type": "hotel", "image": "https://dynamic-media-cdn.tripadvisor.com/media/photo-o/2b/5f/88/e2/exterior.jpg?w=1000&s=1", "address": "6571 Eastern Avenue, Baltimore, MD 21224", "lat": 39.286446, "lng": -76.53562, "ref_id": 14114190, "rating": 4.5, "num_reviews": 0, "website": "https://www.hilton.com/en/hotels/wasbbhx-hampton-baltimore-bayview-campus/?SEO_id=YEXTN-AMER-HX-WASBBHX&y_source=1_OTg4MTg0MS03NjktbG9jYXRpb24ud2Vic2l0ZQ%3D%3D", "contact_phone": "+1 410-631-5796", "contact_email": null, "status": 1, "source_type": 1, "numberReviews": 291}, {"name": "La Quinta Inn & Suites by Wyndham DC Metro Capital Beltway", "type": "hotel", "image": "https://dynamic-media-cdn.tripadvisor.com/media/photo-o/1d/d6/9d/15/exterior.jpg?w=1000&s=1", "address": "55 Hampton Park Blvd, Capitol Heights, MD 20743-3816", "lat": 38.888756, "lng": -76.853584, "ref_id": 83974, "rating": 3.5, "num_reviews": 0, "website": "https://www.wyndhamhotels.com/laquinta/capitol-heights-maryland/la-quinta-dc-metro-capital-beltway/overview", "contact_phone": "+1 301-336-8900", "contact_email": null, "status": 1, "source_type": 1, "numberReviews": 626}, {"name": "Paradise Plaza Inn", "type": "hotel", "image": "https://dynamic-media-cdn.tripadvisor.com/media/photo-o/2c/29/44/ce/paradise-plaza-exterior.jpg?w=1000&s=1", "address": "3 Ninth Street, Ocean City, MD 21842", "lat": 38.33942, "lng": -75.081085, "ref_id": 93790, "rating": 4, "num_reviews": 0, "website": "http://www.paradiseplazainn.com/", "contact_phone": "+1 410-289-6381", "contact_email": "%20info@paradiseplazainn.com", "status": 1, "source_type": 1, "numberReviews": 1473}, {"name": "Country Inn & Suites by Radisson, Frederick, MD", "type": "hotel", "image": "https://dynamic-media-cdn.tripadvisor.com/media/photo-o/1c/db/c5/2d/hotel-exterior.jpg?w=1000&s=1", "address": "5579 Spectrum Dr, Frederick, MD 21703-8350", "lat": 39.386772, "lng": -77.406975, "ref_id": 89422, "rating": 4, "num_reviews": 0, "website": "https://www.radissonhotelsamericas.com/en-us/hotels/country-inn-frederick-md?cid=a:rf+b:yex+c:amer+i:local+e:cis+d:us+f:en-US+h:USAFRMD", "contact_phone": "+1 301-695-2881", "contact_email": "jheineken@horizonhotels.com", "status": 1, "source_type": 1, "numberReviews": 596}, {"name": "The Westin Washington National Harbor", "type": "hotel", "image": "https://dynamic-media-cdn.tripadvisor.com/media/photo-o/2c/15/5f/71/exterior.jpg?w=1000&s=1", "address": "171 Waterfront Street, National Harbor, MD 20745-1138", "lat": 38.78402, "lng": -77.01722, "ref_id": 1025768, "rating": 4, "num_reviews": 0, "website": "https://www.marriott.com/en-us/hotels/washw-the-westin-washington-national-harbor/overview/?scid=45f93f1b-bd77-45c9-8dab-83b6a417f6fe&y_source=1_Mjg2ODk3My03NjktbG9jYXRpb24ud2Vic2l0ZQ%3D%3D", "contact_phone": "+1 301-567-3999", "contact_email": "", "status": 1, "source_type": 1, "numberReviews": 777}, {"name": "Canopy by Hilton Baltimore Harbor Point", "type": "hotel", "image": "https://dynamic-media-cdn.tripadvisor.com/media/photo-o/1c/4a/17/75/main-entrance.jpg?w=1000&s=1", "address": "1215 Wills Street, Baltimore, MD 21231", "lat": 39.27946, "lng": -76.597725, "ref_id": 20265544, "rating": 4, "num_reviews": 0, "website": "https://www.hilton.com/en/hotels/bwihppy-canopy-baltimore-harbor-point/?SEO_id=YEXTN-AMER-PY-BWIHPPY&y_source=1_MTcxNjI0NzktNzY5LWxvY2F0aW9uLndlYnNpdGU%3D", "contact_phone": "+1 443-422-6679", "contact_email": null, "status": 1, "source_type": 1, "numberReviews": 195}, {"name": "Sleep Inn", "type": "hotel", "image": "https://dynamic-media-cdn.tripadvisor.com/media/photo-o/1c/ef/28/98/hotel-exterior.jpg?w=1000&s=1", "address": "5361 Spectrum Dr, Frederick, MD 21703-7339", "lat": 39.380527, "lng": -77.40134, "ref_id": 93965, "rating": 3.5, "num_reviews": 0, "website": "http://www.sleepinn.com/hotel-frederick-maryland-MD125", "contact_phone": "+1 301-668-2003", "contact_email": "gm.md125@choicehotels.com", "status": 1, "source_type": 1, "numberReviews": 274}, {"name": "Delta Hotels by Marriott Baltimore North", "type": "hotel", "image": "https://dynamic-media-cdn.tripadvisor.com/media/photo-o/2c/16/ef/3c/entrance.jpg?w=1000&s=1", "address": "5100 Falls Rd (100 Village Sq), Baltimore, MD 21210", "lat": 39.3552, "lng": -76.646454, "ref_id": 225792, "rating": 4, "num_reviews": 0, "website": "https://www.marriott.com/en-us/hotels/bwidc-delta-hotels-baltimore-north/overview/?scid=45f93f1b-bd77-45c9-8dab-83b6a417f6fe&y_source=1_MTI2MDMxMDgtNzY5LWxvY2F0aW9uLndlYnNpdGU%3D", "contact_phone": "+1 410-532-6900", "contact_email": "dbowden@deltabaltimorenorth.com", "status": 1, "source_type": 1, "numberReviews": 811}, {"name": "Quality Inn Oceanfront", "type": "hotel", "image": "https://dynamic-media-cdn.tripadvisor.com/media/photo-o/1c/cf/5c/b8/hotel-entrance.jpg?w=1000&s=1", "address": "5400 Coastal Hwy, Ocean City, MD 21842-3143", "lat": 38.37876, "lng": -75.06665, "ref_id": 89493, "rating": 3.5, "num_reviews": 0, "website": "https://www.choicehotels.com/maryland/ocean-city/quality-inn-hotels/md010", "contact_phone": "+1 410-524-7200", "contact_email": "", "status": 1, "source_type": 1, "numberReviews": 820}, {"name": "Days Inn by Wyndham Baltimore Northwest", "type": "hotel", "image": "https://dynamic-media-cdn.tripadvisor.com/media/photo-o/2a/13/e4/67/king-bed.jpg?w=1000&s=1", "address": "6700 Security Boulevard, Woodlawn, MD 21207", "lat": 39.312946, "lng": -76.74171, "ref_id": 26517299, "rating": -1, "num_reviews": 0, "website": "https://www.wyndhamhotels.com/days-inn/baltimore-maryland/days-inn-baltimore-northwest/overview", "contact_phone": "+1 410-281-1800", "contact_email": "DIBaltimoreNW@gmail.com", "status": 1, "source_type": 1, "numberReviews": 0}, {"name": "Fairfield Inn & Suites Annapolis", "type": "hotel", "image": "https://dynamic-media-cdn.tripadvisor.com/media/photo-o/2c/70/9b/56/caption.jpg?w=1000&s=1", "address": "200 Taylor Avenue, Annapolis, MD 21401", "lat": 38.979744, "lng": -76.505745, "ref_id": 26787670, "rating": -1, "num_reviews": 0, "website": "https://www.marriott.com/en-us/hotels/bwinf-fairfield-inn-and-suites-annapolis/overview/", "contact_phone": "+1 443-598-8261", "contact_email": null, "status": 1, "source_type": 1, "numberReviews": 0}, {"name": "Dhimas Apartments 209", "type": "hotel", "image": "https://dynamic-media-cdn.tripadvisor.com/media/partner/bookingcom/photo-o/29/2b/ee/fb/caption.jpg?w=1000&s=1", "address": "209 Saint Louis Ave, Ocean City, MD 21842-4047", "lat": 38.33507, "lng": -75.08745, "ref_id": 19849673, "rating": -1, "num_reviews": 0, "website": null, "contact_phone": null, "contact_email": null, "status": 1, "source_type": 1, "numberReviews": 0}, {"name": "The Oasis", "type": "hotel", "image": "https://dynamic-media-cdn.tripadvisor.com/media/partner/bookingcom/photo-o/1c/37/04/21/5732184.jpg?w=1000&s=1", "address": "7029 Groveton Dr, Clinton, MD 20735-4046", "lat": 38.739155, "lng": -76.885544, "ref_id": 21285962, "rating": -1, "num_reviews": 0, "website": null, "contact_phone": null, "contact_email": null, "status": 1, "source_type": 1, "numberReviews": 0}, {"name": "Constellation House", "type": "hotel", "image": "https://dynamic-media-cdn.tripadvisor.com/media/partner/bookingcom/photo-o/2b/d0/f0/b4/caption.jpg?w=1000&s=1", "address": "5201 Atlantic Ave, Ocean City, MD 21842-7368", "lat": 38.42195, "lng": -75.05415, "ref_id": 16916895, "rating": -1, "num_reviews": 0, "website": null, "contact_phone": "+1 855-910-9933", "contact_email": null, "status": 1, "source_type": 1, "numberReviews": 0}, {"name": "Americana Princess Suites/Condos", "type": "hotel", "image": "https://dynamic-media-cdn.tripadvisor.com/media/partner/bookingcom/photo-o/29/2b/fb/2a/caption.jpg?w=1000&s=1", "address": "101 6th St, Ocean City, MD 21842-4660", "lat": 38.33724, "lng": -75.08351, "ref_id": 23724338, "rating": -1, "num_reviews": 0, "website": "https://theamericanahotel.com/", "contact_phone": "+1 410-289-6117", "contact_email": "ameri6oc@theamericanastowaway.com", "status": 1, "source_type": 1, "numberReviews": 0}, {"name": "El Canelo Motel", "type": "hotel", "image": "https://dynamic-media-cdn.tripadvisor.com/media/photo-o/15/85/34/af/motel-room.jpg?w=1000&s=1", "address": "12678 Garrett Hwy, Oakland, MD 21550-1160", "lat": 39.42103, "lng": -79.39814, "ref_id": 15325586, "rating": -1, "num_reviews": 0, "website": "http://elcanelomotel.business.site", "contact_phone": "+1 301-334-8266", "contact_email": null, "status": 1, "source_type": 1, "numberReviews": 0}, {"name": "Rosendale Motel", "type": "hotel", "image": null, "address": "7940 Pulaski Hwy, Rosedale, MD 21237-2714", "lat": 39.31897, "lng": -76.51278, "ref_id": 1648089, "rating": -1, "num_reviews": 0, "website": null, "contact_phone": "+1 410-574-3662", "contact_email": "", "status": 1, "source_type": 1, "numberReviews": 0}, {"name": "Cavalier Inn", "type": "hotel", "image": "https://dynamic-media-cdn.tripadvisor.com/media/partner/bookingcom/photo-o/1a/f2/af/1f/5474640.jpg?w=1000&s=1", "address": "1109 S Philadelphia Blvd, Aberdeen, MD 21001-3912", "lat": 39.48986, "lng": -76.19292, "ref_id": 19929670, "rating": -1, "num_reviews": 0, "website": null, "contact_phone": null, "contact_email": null, "status": 1, "source_type": 1, "numberReviews": 0}, {"name": "Sleepy Hollow Campground", "type": "hotel", "image": "https://dynamic-media-cdn.tripadvisor.com/media/photo-o/2a/51/81/b6/a-frame-cabins-and-tent.jpg?w=1000&s=1", "address": "685 Twin Churches Rd, Avilton, MD 21536", "lat": 39.63903, "lng": -79.11124, "ref_id": 26634049, "rating": -1, "num_reviews": 0, "website": "www.sleepyhollowcampmd.com", "contact_phone": "+1 240-442-2550", "contact_email": "sleepyhollowcampmaryland@gmail.com", "status": 1, "source_type": 1, "numberReviews": 0}, {"name": "Lores Lodging", "type": "hotel", "image": null, "address": "21628 Great Mills Rd, Lexington Park, MD 20653-1217", "lat": 38.26097, "lng": -76.46348, "ref_id": 259278, "rating": -1, "num_reviews": 0, "website": null, "contact_phone": "", "contact_email": "", "status": 1, "source_type": 1, "numberReviews": 0}, {"name": "Moofy's Farmhouse", "type": "hotel", "image": "https://dynamic-media-cdn.tripadvisor.com/media/photo-o/2a/13/f7/58/aerial-view.jpg?w=1000&s=1", "address": "6670 Cedar Cove Rd., Royal Oak, MD 21662", "lat": 38.73358, "lng": -76.23465, "ref_id": 26455304, "rating": -1, "num_reviews": 0, "website": "https://www.moofy.com/", "contact_phone": "+1 516-987-2602", "contact_email": "adam@moofy.com", "status": 1, "source_type": 1, "numberReviews": 0}, {"name": "National Harbor Resort by ResortShare", "type": "hotel", "image": null, "address": "250 Mariner Psge, National Harbor, MD 20745-1585", "lat": 38.78337, "lng": -77.014755, "ref_id": 22953728, "rating": -1, "num_reviews": 0, "website": null, "contact_phone": null, "contact_email": null, "status": 1, "source_type": 1, "numberReviews": 0}, {"name": "Honey's Farmhouse Retreat", "type": "hotel", "image": null, "address": "5819 Brooks Woods Rd, Lothian, MD 20711-9560", "lat": 38.793423, "lng": -76.6148, "ref_id": 24972348, "rating": -1, "num_reviews": 0, "website": "https://honeysharvest.com/honeys-farmhouse-retreat", "contact_phone": "+1 410-610-9693", "contact_email": "info@honeysretreat.com", "status": 1, "source_type": 1, "numberReviews": 0}, {"name": "Mill Pond Cottage", "type": "hotel", "image": null, "address": "Gunpowder Falls State Park 2813 Jerusalem Road, Kingsville, MD 21087", "lat": 39.462322, "lng": -76.39079, "ref_id": 536484, "rating": -1, "num_reviews": 0, "website": null, "contact_phone": "+1 410-592-2897", "contact_email": "", "status": 1, "source_type": 1, "numberReviews": 0}, {"name": "Towers Shared Condominium", "type": "hotel", "image": null, "address": "1836 Metzerott Rd, Adelphi, MD 20783-3475", "lat": 39.003548, "lng": -76.97587, "ref_id": 21246392, "rating": -1, "num_reviews": 0, "website": null, "contact_phone": null, "contact_email": null, "status": 1, "source_type": 1, "numberReviews": 0}, {"name": "Sleep Inn & Suites Near Joint Base Andrews-Washington Areas", "type": "hotel", "image": null, "address": "9400 Marlboro Pike, Upper Marlboro, MD 20772-3687", "lat": 38.81769, "lng": -76.84379, "ref_id": 23260512, "rating": -1, "num_reviews": 0, "website": "https://www.choicehotels.com/maryland/upper-marlboro/sleep-inn-hotels/md214?mc=llgoxxpx", "contact_phone": "+1 301-599-9400", "contact_email": null, "status": 1, "source_type": 1, "numberReviews": 0}, {"name": "Butterfly Home", "type": "hotel", "image": null, "address": "2216 Kerrydale Ct, Clarksburg, MD 20871-3366", "lat": 39.22404, "lng": -77.23996, "ref_id": 17697199, "rating": -1, "num_reviews": 0, "website": null, "contact_phone": null, "contact_email": null, "status": 1, "source_type": 1, "numberReviews": 0}, {"name": "Chateau Surf", "type": "hotel", "image": null, "address": "503 N Baltimore Ave, Ocean City, MD 21842-3900", "lat": 38.3367, "lng": -75.08384, "ref_id": 12050964, "rating": -1, "num_reviews": 0, "website": "https://www.facebook.com/ChateauSurf/?ref=page_internal", "contact_phone": "+1 443-567-8989", "contact_email": "Chateausurf@gmail.com", "status": 1, "source_type": 1, "numberReviews": 0}, {"name": "Pax River Hotel", "type": "hotel", "image": null, "address": "21847 Three Notch Rd, Lexington Park, MD 20653-1564", "lat": 38.26702, "lng": -76.45731, "ref_id": 21511114, "rating": -1, "num_reviews": 0, "website": null, "contact_phone": null, "contact_email": null, "status": 1, "source_type": 1, "numberReviews": 0}, {"name": "Carriage Guest House", "type": "hotel", "image": "https://dynamic-media-cdn.tripadvisor.com/media/partner/bookingcom/photo-o/28/ad/11/c5/caption.jpg?w=1000&s=1", "address": "11770 Carriage House Dr, Silver Spring, MD 20904-2267", "lat": 39.04976, "lng": -76.97836, "ref_id": 13474030, "rating": -1, "num_reviews": 0, "website": "http://carriageguesthouse.com", "contact_phone": "+1 202-838-6291", "contact_email": "hello@helot.co", "status": 1, "source_type": 1, "numberReviews": 0}, {"name": "Towson University Marriott Conference Hotel", "type": "hotel", "image": null, "address": "10 Burke Ave, Towson, MD 21204-7008", "lat": 39.3953, "lng": -76.6042, "ref_id": 23110877, "rating": -1, "num_reviews": 0, "website": null, "contact_phone": null, "contact_email": null, "status": 1, "source_type": 1, "numberReviews": 0}, {"name": "Robert C Mc Donnell Campground", "type": "hotel", "image": null, "address": "7701 Tuckerman Ln, Potomac, MD 20854-3266", "lat": 39.03872, "lng": -77.15447, "ref_id": 1631224, "rating": -1, "num_reviews": 0, "website": null, "contact_phone": "+1 301-495-2595", "contact_email": "MCP-Parks@MontgomeryParks.org", "status": 1, "source_type": 1, "numberReviews": 0}, {"name": "Makai", "type": "hotel", "image": null, "address": "4201 Coastal Hwy, Ocean City, MD 21842", "lat": 38.36951, "lng": -75.07207, "ref_id": 25977011, "rating": -1, "num_reviews": 0, "website": "https://www.makaicondominiums.com/contact-us.php", "contact_phone": "+1 410-246-1990", "contact_email": "makaicondominiums@gmail.com", "status": 1, "source_type": 1, "numberReviews": 0}, {"name": "Annas Place", "type": "hotel", "image": null, "address": "107 7th St, Ocean City, MD 21842-4349", "lat": 38.33817, "lng": -75.08359, "ref_id": 21275928, "rating": -1, "num_reviews": 0, "website": "https://www.facebook.com/AnnasPlaceApts", "contact_phone": "+1 410-289-1140", "contact_email": null, "status": 1, "source_type": 1, "numberReviews": 0}, {"name": "Wood's Gain Bed and Breakfast", "type": "hotel", "image": null, "address": "421 McKinstrys Mill Rd, Linwood, MD 21791-8827", "lat": 39.5629, "lng": -77.1427, "ref_id": 273586, "rating": -1, "num_reviews": 0, "website": null, "contact_phone": "+1 410-775-0308", "contact_email": "innkeeper@woodsgainbnb.com", "status": 1, "source_type": 1, "numberReviews": 0}, {"name": "Star Motel", "type": "hotel", "image": null, "address": "9619 Pulaski Hwy, Baltimore, MD 21220-1434", "lat": 39.35415, "lng": -76.45223, "ref_id": 6028924, "rating": -1, "num_reviews": 0, "website": null, "contact_phone": "+1 410-687-3169", "contact_email": null, "status": 1, "source_type": 1, "numberReviews": 0}, {"name": "La Bella Vita... a boat and breakfast on the Bay", "type": "hotel", "image": null, "address": "14299 Dowell Rd, Dowell, MD 20629", "lat": 38.33113, "lng": -76.45423, "ref_id": 1207206, "rating": -1, "num_reviews": 0, "website": null, "contact_phone": "", "contact_email": "", "status": 1, "source_type": 1, "numberReviews": 0}, {"name": "Colonel Arms Luxury Suites", "type": "hotel", "image": null, "address": "609 Philadelphia Ave, Ocean City, MD 21842-3844", "lat": 38.33839, "lng": -75.0842, "ref_id": 17601742, "rating": -1, "num_reviews": 0, "website": "https://www.colonelarms.com/", "contact_phone": "+1 410-289-5060", "contact_email": null, "status": 1, "source_type": 1, "numberReviews": 0}, {"name": "Mark at Brickyard", "type": "hotel", "image": null, "address": "12401 Brickyard Blvd, Beltsville, MD 20705-1328", "lat": 39.061405, "lng": -76.88214, "ref_id": 11962769, "rating": -1, "num_reviews": 0, "website": "http://www.themarkatbrickyard.com/", "contact_phone": "+1 877-468-0063", "contact_email": "info@themarkatbrickyard.com", "status": 1, "source_type": 1, "numberReviews": 0}, {"name": "Sagamore Pendry Baltimore", "type": "hotel", "image": "https://dynamic-media-cdn.tripadvisor.com/media/photo-o/2a/9c/63/8b/spb-pool.jpg?w=1000&s=1", "address": "1715 Thames St, Baltimore, MD 21231-3417", "lat": 39.281483, "lng": -76.59208, "ref_id": 11982631, "rating": 4.5, "num_reviews": 0, "website": "http://www.pendryhotels.com/baltimore/", "contact_phone": "+1 443-552-1400", "contact_email": "socialbaltimore@pendryhotels.com", "status": 1, "source_type": 1, "numberReviews": 1695}, {"name": "Hampton Inn & Suites National Harbor / Alexandria Area", "type": "hotel", "image": "https://dynamic-media-cdn.tripadvisor.com/media/photo-o/2a/ed/e3/e4/exterior.jpg?w=1000&s=1", "address": "250 Waterfront St Oxon Hill, National Harbor, MD 20745-1136", "lat": 38.7821, "lng": -77.01505, "ref_id": 1025766, "rating": 4.5, "num_reviews": 0, "website": "https://www.hilton.com/en/hotels/wasoxhx-hampton-suites-national-harbor-alexandria-area/?SEO_id=YEXTN-AMER-HX-WASOXHX&y_source=1_MjA4MzMwOC03NjktbG9jYXRpb24ud2Vic2l0ZQ%3D%3D", "contact_phone": "+1 301-567-3531", "contact_email": "", "status": 1, "source_type": 1, "numberReviews": 1416}, {"name": "Ashore Resort & Beach Club", "type": "hotel", "image": "https://dynamic-media-cdn.tripadvisor.com/media/photo-o/2c/6c/75/4d/logo-beach.jpg?w=1000&s=1", "address": "10100 Coastal Highway, Ocean City, MD 21842", "lat": 38.414455, "lng": -75.05681, "ref_id": 89495, "rating": 4, "num_reviews": 0, "website": "https://ashoreresortoceancity.com/", "contact_phone": "+1 410-524-3535", "contact_email": "info@ocbeachresort.com", "status": 1, "source_type": 1, "numberReviews": 236}, {"name": "Holiday Inn & Suites Ocean City, An Ihg Hotel", "type": "hotel", "image": "https://dynamic-media-cdn.tripadvisor.com/media/photo-o/2c/0b/0b/9a/all-rooms-are-fully-renovated.jpg?w=1000&s=1", "address": "1701 Atlantic Avenue, Ocean City, MD 21842", "lat": 38.34678, "lng": -75.077644, "ref_id": 223414, "rating": 4, "num_reviews": 0, "website": "https://www.ihg.com/holidayinn/hotels/us/en/ocean-city/oceaa/hoteldetail?cm_mmc=YextLocal-_-HI-_-US-_-OCEAA", "contact_phone": "+1 410-289-7263", "contact_email": "ocsuites17@gmail.com", "status": 1, "source_type": 1, "numberReviews": 1227}, {"name": "Holiday Inn Ocean City, An Ihg Hotel", "type": "hotel", "image": "https://dynamic-media-cdn.tripadvisor.com/media/photo-o/2a/7b/bc/ed/holiday-inn-ocean-city.jpg?w=1000&s=1", "address": "6600 Coastal Hwy, Ocean City, MD 21842", "lat": 38.38843, "lng": -75.064156, "ref_id": 113149, "rating": 4, "num_reviews": 0, "website": "https://www.ihg.com/holidayinn/hotels/us/en/ocean-city/ocemd/hoteldetail", "contact_phone": "+1 410-524-1600", "contact_email": "hiocean@beachin.net", "status": 1, "source_type": 1, "numberReviews": 1305}, {"name": "Best Western Plus Easton Inn & Suites", "type": "hotel", "image": "https://dynamic-media-cdn.tripadvisor.com/media/photo-o/17/9d/13/0d/best-western-plus-easton.jpg?w=1000&s=1", "address": "8708 Alicia Dr, Easton, MD 21601-7054", "lat": 38.788452, "lng": -76.05938, "ref_id": 5207610, "rating": 5, "num_reviews": 0, "website": "https://www.bestwestern.com/de_DE/book/hotel-rooms.21057.html?iata=00171890&ssob=BLBWI0003G&cid=BLBWI0003G:yext:website:21057", "contact_phone": "+1 410-822-7100", "contact_email": null, "status": 1, "source_type": 1, "numberReviews": 911}, {"name": "The Old Brick Inn", "type": "hotel", "image": "https://dynamic-media-cdn.tripadvisor.com/media/photo-o/19/c4/5f/5c/fall-kemp-house.jpg?w=1000&s=1", "address": "401 S. Talbot Street, St. Michaels, MD 21663", "lat": 38.78375, "lng": -76.22352, "ref_id": 118409, "rating": 4.5, "num_reviews": 0, "website": "http://www.oldbrickinn.com", "contact_phone": "+1 410-745-3323", "contact_email": "innkeepers@oldbrickinn.com", "status": 1, "source_type": 1, "numberReviews": 803}, {"name": "Hampton Inn & Suites Arundel Mills/Baltimore", "type": "hotel", "image": "https://dynamic-media-cdn.tripadvisor.com/media/photo-o/2b/84/51/72/exterior.jpg?w=1000&s=1", "address": "7027 Arundel Mills Cir, Hanover, MD 21076-1387", "lat": 39.15914, "lng": -76.720604, "ref_id": 258727, "rating": 4, "num_reviews": 0, "website": "https://www.hilton.com/en/hotels/balamhx-hampton-suites-arundel-mills-baltimore/?SEO_id=YEXTN-AMER-HX-BALAMHX&y_source=1_MjA4NDg1Ni03NjktbG9jYXRpb24ud2Vic2l0ZQ%3D%3D", "contact_phone": "+1 410-540-9225", "contact_email": "", "status": 1, "source_type": 1, "numberReviews": 818}, {"name": "Hilton Garden Inn Silver Spring White Oak", "type": "hotel", "image": "https://dynamic-media-cdn.tripadvisor.com/media/photo-o/2a/f4/99/ae/exterior.jpg?w=1000&s=1", "address": "2200 Broadbirch Dr, Silver Spring, MD 20904-1949", "lat": 39.05649, "lng": -76.96489, "ref_id": 1852851, "rating": 4.5, "num_reviews": 0, "website": "https://www.hilton.com/en/hotels/dcasggi-hilton-garden-inn-silver-spring-white-oak/?SEO_id=YEXTN-AMER-GI-DCASGGI&y_source=1_MjA4MzEwMi03NjktbG9jYXRpb24ud2Vic2l0ZQ%3D%3D", "contact_phone": "+1 301-622-3333", "contact_email": "", "status": 1, "source_type": 1, "numberReviews": 1119}, {"name": "Hilton Garden Inn Bethesda Downtown", "type": "hotel", "image": "https://dynamic-media-cdn.tripadvisor.com/media/photo-o/2b/c6/3c/11/exterior.jpg?w=1000&s=1", "address": "7301 Waverly St, Bethesda, MD 20814-3330", "lat": 38.983303, "lng": -77.092255, "ref_id": 1585996, "rating": 4, "num_reviews": 0, "website": "https://www.hilton.com/en/hotels/wasbtgi-hilton-garden-inn-bethesda-downtown/?SEO_id=YEXTN-AMER-GI-WASBTGI&y_source=1_MjA4NDkxOS03NjktbG9jYXRpb24ud2Vic2l0ZQ%3D%3D", "contact_phone": "+1 301-654-8111", "contact_email": "roberto.perez@hilton.com", "status": 1, "source_type": 1, "numberReviews": 1172}, {"name": "Hampton Inn Owings Mills", "type": "hotel", "image": "https://dynamic-media-cdn.tripadvisor.com/media/photo-o/2b/57/02/22/exterior.jpg?w=1000&s=1", "address": "10521 Red Run Blvd, Owings Mills, MD 21117-5399", "lat": 39.403343, "lng": -76.7971, "ref_id": 2152318, "rating": 4.5, "num_reviews": 0, "website": "https://www.hilton.com/en/hotels/bwiowhx-hampton-baltimore-owings-mills/?SEO_id=YEXTN-AMER-HX-BWIOWHX&y_source=1_MjA4MTkxMC03NjktbG9jYXRpb24ud2Vic2l0ZQ%3D%3D", "contact_phone": "+1 410-654-2780", "contact_email": "joanna.hall@hilton.com", "status": 1, "source_type": 1, "numberReviews": 625}, {"name": "WoodSpring Suites Washington DC Northeast Greenbelt", "type": "hotel", "image": "https://dynamic-media-cdn.tripadvisor.com/media/photo-o/1d/c3/25/c6/hotel-exterior.jpg?w=1000&s=1", "address": "7480 Greenway Center Dr, Greenbelt, MD 20770-3503", "lat": 38.992893, "lng": -76.88179, "ref_id": 15096782, "rating": 4.5, "num_reviews": 0, "website": "https://www.woodspring.com/extended-stay-hotels/locations/maryland/washington-dc/woodspring-suites-washington-dc-northeast-greenbelt?", "contact_phone": "+1 240-760-1300", "contact_email": null, "status": 1, "source_type": 1, "numberReviews": 129}, {"name": "Country Inn & Suites by Radisson, Ocean City, MD", "type": "hotel", "image": "https://dynamic-media-cdn.tripadvisor.com/media/photo-o/2b/de/73/e8/aerial-exterior.jpg?w=1000&s=1", "address": "12303 Coastal Highway, Ocean City, MD 21842", "lat": 38.428867, "lng": -75.056, "ref_id": 13199397, "rating": 4.5, "num_reviews": 0, "website": "https://www.radissonhotelsamericas.com/en-us/hotels/country-inn-ocean-city-md?cid=a:rf+b:yex+c:amer+i:local+e:cis+d:us+f:en-US+h:USAOCNJ", "contact_phone": "+1 410-520-1121", "contact_email": "cx_ocnj@countryinn.com", "status": 1, "source_type": 1, "numberReviews": 357}, {"name": "Embassy Suites by Hilton Baltimore Hunt Valley", "type": "hotel", "image": "https://dynamic-media-cdn.tripadvisor.com/media/photo-o/2b/b4/42/5b/exterior.jpg?w=1000&s=1", "address": "213 International Circle, Hunt Valley, MD 21030", "lat": 39.496124, "lng": -76.66296, "ref_id": 89335, "rating": 4, "num_reviews": 0, "website": "https://www.hilton.com/en/hotels/balhves-embassy-suites-baltimore-hunt-valley/?SEO_id=YEXTN-AMER-ES-BALHVES&y_source=1_MTEwOTkwMS03NjktbG9jYXRpb24ud2Vic2l0ZQ%3D%3D", "contact_phone": "+1 410-584-1400", "contact_email": null, "status": 1, "source_type": 1, "numberReviews": 1236}, {"name": "Wades Point Inn on the Bay", "type": "hotel", "image": "https://dynamic-media-cdn.tripadvisor.com/media/photo-o/15/00/ad/02/wades-point-inn-on-the.jpg?w=1000&s=1", "address": "10090 Wades Point Rd, McDaniel, St. Michaels, MD 21647-9749", "lat": 38.828033, "lng": -76.29751, "ref_id": 113162, "rating": 4.5, "num_reviews": 0, "website": "https://wadespoint.com/", "contact_phone": "+1 410-745-2500", "contact_email": "Wadesinn@wadespoint.com", "status": 1, "source_type": 1, "numberReviews": 343}, {"name": "Plim Plaza Hotel", "type": "hotel", "image": "https://dynamic-media-cdn.tripadvisor.com/media/photo-o/19/79/d0/61/plim-plaza-hotel.jpg?w=1000&s=1", "address": "109 N. Atlantic Ave, Ocean City, MD 21842-4129", "lat": 38.333023, "lng": -75.08468, "ref_id": 571188, "rating": 3, "num_reviews": 0, "website": "https://www.plimplazaoc.com/", "contact_phone": "+1 410-289-6181", "contact_email": "info@plimplazaoc.com", "status": 1, "source_type": 1, "numberReviews": 664}, {"name": "Courtyard by Marriott Ocean City Oceanfront", "type": "hotel", "image": "https://dynamic-media-cdn.tripadvisor.com/media/photo-o/2c/00/53/9e/exterior.jpg?w=1000&s=1", "address": "2 15th St, Ocean City, MD 21842-4495", "lat": 38.344982, "lng": -75.07834, "ref_id": 1196587, "rating": 4, "num_reviews": 0, "website": "https://www.marriott.com/en-us/hotels/sbyoc-courtyard-ocean-city-oceanfront/overview", "contact_phone": "+1 410-289-5008", "contact_email": null, "status": 1, "source_type": 1, "numberReviews": 740}, {"name": "Oceanic Motel", "type": "hotel", "image": "https://dynamic-media-cdn.tripadvisor.com/media/photo-o/0e/14/c1/14/oceanic-motel.jpg?w=1000&s=1", "address": "105 South 1st Street, Ocean City, MD 21842-7420", "lat": 38.326042, "lng": -75.089905, "ref_id": 283801, "rating": 3.5, "num_reviews": 0, "website": "https://oceanicoc.com/", "contact_phone": "+1 410-289-6494", "contact_email": "", "status": 1, "source_type": 1, "numberReviews": 563}, {"name": "Sheraton Inner Harbor Hotel", "type": "hotel", "image": "https://dynamic-media-cdn.tripadvisor.com/media/photo-o/01/af/34/65/view-from-camden-yards.jpg?w=1000&s=1", "address": "300 South Charles Street The Baltimore Convention Center, Baltimore, MD 21201", "lat": 39.284477, "lng": -76.615524, "ref_id": 89361, "rating": 4, "num_reviews": 0, "website": "https://www.marriott.com/en-us/hotels/bwiis-sheraton-inner-harbor-hotel/overview/?scid=45f93f1b-bd77-45c9-8dab-83b6a417f6fe&y_source=1_MTUwMjc5MS03NjktbG9jYXRpb24ud2Vic2l0ZQ%3D%3D", "contact_phone": "+1 410-962-8300", "contact_email": "innerharbor@sheraton.com", "status": 1, "source_type": 1, "numberReviews": 1152}, {"name": "Best Western Westminster Hotel", "type": "hotel", "image": "https://dynamic-media-cdn.tripadvisor.com/media/photo-o/2b/26/99/94/lobby.jpg?w=1000&s=1", "address": "451 WMC Dr, Westminster, MD 21158", "lat": 39.5873, "lng": -77.01016, "ref_id": 77642, "rating": 4, "num_reviews": 0, "website": "http://book.bestwestern.com/bestwestern/US/MD/Westminster-hotels/BEST-WESTERN-Westminster-Catering---Conference-Center/Hotel-Overview.do?propertyCode=21045", "contact_phone": "+1 410-857-1900", "contact_email": "gm@bestwesternwestminster.com", "status": 1, "source_type": 1, "numberReviews": 621}, {"name": "The Columbia Inn at Peralynna", "type": "hotel", "image": "https://dynamic-media-cdn.tripadvisor.com/media/photo-o/2a/ba/e5/9e/caption.jpg?w=1000&s=1", "address": "10605 State Route 108, Columbia, MD 21044-1336", "lat": 39.234985, "lng": -76.879295, "ref_id": 120578, "rating": 4, "num_reviews": 0, "website": "https://columbiaperalynna.com", "contact_phone": "+1 410-715-4600", "contact_email": "gm.columbiainn@gmail.com", "status": 1, "source_type": 1, "numberReviews": 259}, {"name": "Lankford Hotel", "type": "hotel", "image": "https://dynamic-media-cdn.tripadvisor.com/media/photo-o/05/d8/3d/95/lankford-hotel.jpg?w=1000&s=1", "address": "807 North Atlantic Avenue, Ocean City, MD 21842-4173", "lat": 38.339146, "lng": -75.08133, "ref_id": 496905, "rating": 4.5, "num_reviews": 0, "website": "https://www.facebook.com/OCLankfordHotel/", "contact_phone": "+1 410-289-4041", "contact_email": "frontdesk@lankfordhotel.com", "status": 1, "source_type": 1, "numberReviews": 211}, {"name": "Comfort Inn & Suites Baltimore Inner Harbor", "type": "hotel", "image": "https://dynamic-media-cdn.tripadvisor.com/media/photo-o/1c/c8/b9/65/hotel-exterior.jpg?w=1000&s=1", "address": "120 E Lombard St, Baltimore, MD 21202-5541", "lat": 39.287964, "lng": -76.612366, "ref_id": 89327, "rating": 4, "num_reviews": 0, "website": "https://www.comforthotelinnerharbormd.com/", "contact_phone": "+1 410-625-1300", "contact_email": null, "status": 1, "source_type": 1, "numberReviews": 1214}, {"name": "Hilton Garden Inn Baltimore Inner Harbor", "type": "hotel", "image": "https://dynamic-media-cdn.tripadvisor.com/media/photo-o/06/12/18/f4/hilton-garden-inn-baltimore.jpg?w=1000&s=1", "address": "625 S. President Street, Baltimore, MD 21202", "lat": 39.28379, "lng": -76.60145, "ref_id": 1007816, "rating": 4, "num_reviews": 0, "website": "https://www.hilton.com/en/hotels/bwiihgi-hilton-garden-inn-baltimore-inner-harbor/?SEO_id=YEXTN-AMER-GI-BWIIHGI&y_source=1_MjA4NDcwNy03NjktbG9jYXRpb24ud2Vic2l0ZQ%3D%3D", "contact_phone": "+1 410-234-0065", "contact_email": "", "status": 1, "source_type": 1, "numberReviews": 1378}, {"name": "Hilton Garden Inn Annapolis Downtown", "type": "hotel", "image": "https://dynamic-media-cdn.tripadvisor.com/media/photo-o/2b/7e/ee/35/exterior.jpg?w=1000&s=1", "address": "174 West Street, Annapolis, MD 21401", "lat": 38.97733, "lng": -76.50048, "ref_id": 13971229, "rating": 4, "num_reviews": 0, "website": "https://www.hilton.com/en/hotels/anpmdgi-hilton-garden-inn-annapolis-downtown/?SEO_id=YEXTN-AMER-GI-ANPMDGI&y_source=1_OTQwMzQxNS03NjktbG9jYXRpb24ud2Vic2l0ZQ%3D%3D", "contact_phone": "+1 410-990-1100", "contact_email": null, "status": 1, "source_type": 1, "numberReviews": 266}, {"name": "Flagship Hotel Oceanfront", "type": "hotel", "image": "https://dynamic-media-cdn.tripadvisor.com/media/photo-o/16/77/3d/de/flagship-hotel-oceanfront.jpg?w=1000&s=1", "address": "2600 N Baltimore Ave Boardwalk and 26th Street, Ocean City, MD 21842-3438", "lat": 38.355114, "lng": -75.07452, "ref_id": 648068, "rating": 3.5, "num_reviews": 0, "website": "http://www.flagshipoceanfront.com/", "contact_phone": "+1 410-289-3384", "contact_email": "flagshipoceanfront@gmail.com", "status": 1, "source_type": 1, "numberReviews": 950}, {"name": "Country Inn & Suites by Radisson, Salisbury, MD", "type": "hotel", "image": "https://dynamic-media-cdn.tripadvisor.com/media/photo-o/27/bf/0c/aa/hotel-exterior.jpg?w=1000&s=1", "address": "1804 Sweetbay Drive, Salisbury, MD 21804", "lat": 38.36904, "lng": -75.54146, "ref_id": 572107, "rating": 3.5, "num_reviews": 0, "website": "https://www.radissonhotelsamericas.com/en-us/hotels/country-inn-salisbury-md?cid=a:rf+b:yex+c:amer+i:local+e:cis+d:us+f:en-US+h:MDSALISB", "contact_phone": "+1 410-742-2688", "contact_email": "cx_samd@countryinn.com", "status": 1, "source_type": 1, "numberReviews": 607}, {"name": "Admiral Suites", "type": "hotel", "image": "https://dynamic-media-cdn.tripadvisor.com/media/photo-o/23/e3/ce/d1/exterior.jpg?w=1000&s=1", "address": "120 Admiral Cochrane Dr, Annapolis, MD 21401-7308", "lat": 38.975067, "lng": -76.55139, "ref_id": 280376, "rating": 3.5, "num_reviews": 0, "website": null, "contact_phone": "+1 410-571-6600", "contact_email": null, "status": 1, "source_type": 1, "numberReviews": 175}, {"name": "Metro Points Hotel", "type": "hotel", "image": "https://dynamic-media-cdn.tripadvisor.com/media/photo-o/07/ca/eb/70/metro-points-hotel-washington.jpg?w=1000&s=1", "address": "8500 Annapolis Rd, New Carrollton, MD 20784-3020", "lat": 38.958923, "lng": -76.86894, "ref_id": 93605, "rating": 3.5, "num_reviews": 0, "website": "https://www.metropointshotel.com/", "contact_phone": "+1 301-459-6700", "contact_email": "info@metropointshotel.com", "status": 1, "source_type": 1, "numberReviews": 540}, {"name": "Surf Villa Hotel", "type": "hotel", "image": "https://dynamic-media-cdn.tripadvisor.com/media/photo-o/0c/3f/04/75/photo1jpg.jpg?w=1000&s=1", "address": "705 N Baltimore Ave, Ocean City, MD 21842-3830", "lat": 38.33858, "lng": -75.08259, "ref_id": 675288, "rating": 2.5, "num_reviews": 0, "website": "http://www.surfvilla.com/", "contact_phone": "+1 410-289-9434", "contact_email": "", "status": 1, "source_type": 1, "numberReviews": 77}, {"name": "Ulysses", "type": "hotel", "image": "https://dynamic-media-cdn.tripadvisor.com/media/photo-o/28/99/91/0c/ulysses-exterior.jpg?w=1000&s=1", "address": "2 E Read St, Baltimore, MD 21202-2470", "lat": 39.299793, "lng": -76.6155, "ref_id": 24845047, "rating": 4.5, "num_reviews": 0, "website": "https://www.hotelulysses.com/", "contact_phone": "+1 443-682-8578", "contact_email": "info@hotelulysses.com", "status": 1, "source_type": 1, "numberReviews": 93}, {"name": "DoubleTree by Hilton Hotel Laurel", "type": "hotel", "image": "https://dynamic-media-cdn.tripadvisor.com/media/photo-o/09/71/a9/3f/doubletree-by-hilton.jpg?w=1000&s=1", "address": "15101 Sweitzer Lane, Laurel, MD 20707", "lat": 39.097363, "lng": -76.897545, "ref_id": 89471, "rating": 4, "num_reviews": 0, "website": "https://www.hilton.com/en/hotels/bwilmdt-doubletree-laurel/?SEO_id=YEXTN-AMER-DT-BWILMDT&y_source=1_Mjc1NDI2My03NjktbG9jYXRpb24ud2Vic2l0ZQ%3D%3D", "contact_phone": "+1 301-776-5300", "contact_email": "sales@doubletreelaurel.com", "status": 1, "source_type": 1, "numberReviews": 656}, {"name": "Bethesda Marriott", "type": "hotel", "image": "https://dynamic-media-cdn.tripadvisor.com/media/photo-o/2b/fe/9d/9c/shuttle-and-exterior.jpg?w=1000&s=1", "address": "5151 Pooks Hill Road, Bethesda, MD 20814", "lat": 39.016376, "lng": -77.10337, "ref_id": 83967, "rating": 4, "num_reviews": 0, "website": "https://www.marriott.com/en-us/hotels/wasbt-bethesda-marriott/overview/?scid=45f93f1b-bd77-45c9-8dab-83b6a417f6fe&y_source=1_MjA1MTcyOC03NjktbG9jYXRpb24ud2Vic2l0ZQ%3D%3D", "contact_phone": "+1 301-897-9400", "contact_email": "", "status": 1, "source_type": 1, "numberReviews": 339}, {"name": "Holiday Inn Express Baltimore-Bwi Airport West", "type": "hotel", "image": "https://dynamic-media-cdn.tripadvisor.com/media/photo-o/2c/00/0f/db/you-have-arrived-at-the.jpg?w=1000&s=1", "address": "7481 Ridge Rd, Hanover, MD 21076-3122", "lat": 39.16019, "lng": -76.71171, "ref_id": 93905, "rating": 4, "num_reviews": 0, "website": "https://www.ihg.com/holidayinnexpress/hotels/us/en/hanover/balhv/hoteldetail?cm_mmc=YextLocal-_-EX-_-US-_-BALHV", "contact_phone": "+1 410-684-3388", "contact_email": "hiebwi@ihmproperties.com", "status": 1, "source_type": 1, "numberReviews": 345}, {"name": "Homewood Suites by Hilton Hanover Arundel Mills Bwi Airport", "type": "hotel", "image": "https://dynamic-media-cdn.tripadvisor.com/media/photo-o/2b/92/cd/6f/exterior.jpg?w=1000&s=1", "address": "7491 New Ridge Road, Hanover, MD 21076", "lat": 39.16032, "lng": -76.711845, "ref_id": 1218852, "rating": 4, "num_reviews": 0, "website": "https://www.hilton.com/en/hotels/washahw-homewood-suites-hanover-arundel-mills/?SEO_id=YEXTN-AMER-HG-WASHAHW&y_source=1_MTc4NjMyNzYtNzY5LWxvY2F0aW9uLndlYnNpdGU%3D", "contact_phone": "+1 410-684-6880", "contact_email": "agallow@thmc.biz", "status": 1, "source_type": 1, "numberReviews": 1260}, {"name": "Homewood Suites by Hilton Hagerstown", "type": "hotel", "image": "https://dynamic-media-cdn.tripadvisor.com/media/photo-o/2b/92/92/03/exterior.jpg?w=1000&s=1", "address": "1650 Pullman Lane, Hagerstown, MD 21740-7132", "lat": 39.631065, "lng": -77.76946, "ref_id": 674322, "rating": 4.5, "num_reviews": 0, "website": "https://www.hilton.com/en/hotels/hgrhwhw-homewood-suites-hagerstown/?SEO_id=YEXTN-AMER-HG-HGRHWHW&y_source=1_MjA4MjU5My03NjktbG9jYXRpb24ud2Vic2l0ZQ%3D%3D", "contact_phone": "+1 301-665-3816", "contact_email": "", "status": 1, "source_type": 1, "numberReviews": 859}, {"name": "The Westin Baltimore Washington Airport - BWI", "type": "hotel", "image": "https://dynamic-media-cdn.tripadvisor.com/media/photo-o/2c/09/d7/9b/king-guest-room.jpg?w=1000&s=1", "address": "1110 Old Elkridge Landing Rd, Linthicum Heights, MD 21090-1003", "lat": 39.206654, "lng": -76.692986, "ref_id": 674256, "rating": 4, "num_reviews": 0, "website": "https://www.marriott.com/en-us/hotels/bwibw-the-westin-baltimore-washington-airport/overview/?scid=45f93f1b-bd77-45c9-8dab-83b6a417f6fe&y_source=1_MTUwMjgxMy03NjktbG9jYXRpb24ud2Vic2l0ZQ%3D%3D", "contact_phone": "+1 443-577-2300", "contact_email": "bill.hofmann@westinbwi.com", "status": 1, "source_type": 1, "numberReviews": 893}, {"name": "The Study at Johns Hopkins", "type": "hotel", "image": "https://dynamic-media-cdn.tripadvisor.com/media/photo-o/2a/bb/5f/26/the-study-at-johns-hopkins.jpg?w=1000&s=1", "address": "3215 North Charles Street, Baltimore, MD 21218", "lat": 39.327854, "lng": -76.61734, "ref_id": 26620453, "rating": 5, "num_reviews": 0, "website": "https://www.thestudyatjohnshopkins.com/", "contact_phone": "+1 410-243-0030", "contact_email": "info.johnshopkins@studyhotels.com", "status": 1, "source_type": 1, "numberReviews": 7}, {"name": "The Inn at Chesapeake Bay Beach Club & Spa", "type": "hotel", "image": "https://dynamic-media-cdn.tripadvisor.com/media/photo-o/1a/e4/d4/19/the-inn-at-chesapeake.jpg?w=1000&s=1", "address": "180 Pier One Road, Stevensville, Kent Island, MD 21666-2600", "lat": 38.97907, "lng": -76.32776, "ref_id": 8763465, "rating": 4.5, "num_reviews": 0, "website": "http://www.baybeachclub.com/the-inn", "contact_phone": "+1 410-604-5900", "contact_email": null, "status": 1, "source_type": 1, "numberReviews": 206}, {"name": "Hampton Inn & Suites Camp Springs/Andrews AFB", "type": "hotel", "image": "https://dynamic-media-cdn.tripadvisor.com/media/photo-o/2a/ef/2b/8b/exterior.jpg?w=1000&s=1", "address": "5000 Mercedes Blvd, Camp Springs, MD 20746-4337", "lat": 38.821404, "lng": -76.91496, "ref_id": 6833946, "rating": 4, "num_reviews": 0, "website": "https://www.hilton.com/en/hotels/adwcshx-hampton-suites-camp-springs-andrews-afb/?SEO_id=YEXTN-AMER-HX-ADWCSHX&y_source=1_MjA4NDM0Ny03NjktbG9jYXRpb24ud2Vic2l0ZQ%3D%3D", "contact_phone": "+1 240-532-5510", "contact_email": null, "status": 1, "source_type": 1, "numberReviews": 592}, {"name": "Home2 Suites by Hilton Lexington Park Patuxent River NAS, MD", "type": "hotel", "image": "https://dynamic-media-cdn.tripadvisor.com/media/photo-o/2b/6b/1c/c9/exterior.jpg?w=1000&s=1", "address": "46058 Valley Drive, Lexington Park, MD 20653", "lat": 38.272583, "lng": -76.46404, "ref_id": 2443657, "rating": 4.5, "num_reviews": 0, "website": "https://www.hilton.com/en/hotels/dcalpht-home2-suites-lexington-park-patuxent-river-nas-md/?SEO_id=YEXTN-AMER-HT-DCALPHT&y_source=1_MjA4NDIyNS03NjktbG9jYXRpb24ud2Vic2l0ZQ%3D%3D", "contact_phone": "+1 301-866-1416", "contact_email": "dcalp_gm@hilton.com", "status": 1, "source_type": 1, "numberReviews": 389}, {"name": "Comfort Suites Ocean City", "type": "hotel", "image": "https://dynamic-media-cdn.tripadvisor.com/media/photo-o/2a/c8/57/c3/hotel-exterior.jpg?w=1000&s=1", "address": "12718 Ocean Gateway, Ocean City, MD 21842", "lat": 38.336124, "lng": -75.10992, "ref_id": 481470, "rating": 4, "num_reviews": 0, "website": "https://www.choicehotels.com/maryland/ocean-city/comfort-suites-hotels/md138?mc=llgoxxpx", "contact_phone": "+1 410-213-7171", "contact_email": "", "status": 1, "source_type": 1, "numberReviews": 376}, {"name": "Embassy Suites by Hilton Baltimore at BWI Airport", "type": "hotel", "image": "https://dynamic-media-cdn.tripadvisor.com/media/photo-o/0b/c7/df/bb/exterior.jpg?w=1000&s=1", "address": "1300 Concourse Drive, Linthicum Heights, MD 21090", "lat": 39.206425, "lng": -76.69062, "ref_id": 120928, "rating": 4, "num_reviews": 0, "website": "https://www.hilton.com/en/hotels/baliaes-embassy-suites-baltimore-at-bwi-airport/?SEO_id=YEXTN-AMER-ES-BALIAES&y_source=1_MTEwOTkwMi03NjktbG9jYXRpb24ud2Vic2l0ZQ%3D%3D", "contact_phone": "+1 410-850-0747", "contact_email": "", "status": 1, "source_type": 1, "numberReviews": 1667}, {"name": "Castle in the Sand Hotel", "type": "hotel", "image": "https://dynamic-media-cdn.tripadvisor.com/media/photo-o/0f/37/65/f1/castle-in-the-sand-hotel.jpg?w=1000&s=1", "address": "3701 Atlantic Ave 37th Street & Oceanfront, Ocean City, MD 21842-3338", "lat": 38.364826, "lng": -75.0707, "ref_id": 252007, "rating": 4, "num_reviews": 0, "website": "https://castleinthesand.com/", "contact_phone": "+1 410-289-6846", "contact_email": "info@castleinthesand.com", "status": 1, "source_type": 1, "numberReviews": 983}, {"name": "Holiday Inn Express & Suites Hagerstown, an IHG Hotel", "type": "hotel", "image": "https://dynamic-media-cdn.tripadvisor.com/media/photo-o/2c/02/d8/04/hotel-entrance-of-the.jpg?w=1000&s=1", "address": "241 Railway Lane, Hagerstown, MD 21740", "lat": 39.62903, "lng": -77.771645, "ref_id": 223412, "rating": 4, "num_reviews": 0, "website": "https://www.ihg.com/holidayinnexpress/hotels/us/en/hagerstown/hgrtw/hoteldetail?cm_mmc=YextLocal-_-EX-_-US-_-HGRTW", "contact_phone": "+1 301-745-5644", "contact_email": "HIEHagerstown@DMBowman.com", "status": 1, "source_type": 1, "numberReviews": 320}, {"name": "Ramada by Wyndham Cumberland Downtown", "type": "hotel", "image": "https://dynamic-media-cdn.tripadvisor.com/media/photo-o/2a/a4/51/d0/exterior.jpg?w=1000&s=1", "address": "100 South George Street, Cumberland, MD 21502-3044", "lat": 39.651085, "lng": -78.758965, "ref_id": 89408, "rating": 3.5, "num_reviews": 0, "website": "http://www.wyndhamhotels.com/hotels/48067?tel=18009465338&iata=00065402&cid=fe:ra:20161215:tabl:pp:raus:48067&checkin_date={{ci:MM/dd/yyyy}}&checkout_date={{co:MM/dd/yyyy}}&children={{nc}}&adults={{na}}&rooms={{nr}}&checkin_date={{ci:MM/dd/yyyy}}&checkout_date={{co:MM/dd/yyyy}}&children={{nc}}&adults={{na}}&rooms={{nr}}", "contact_phone": "+1 301-724-8800", "contact_email": "richard.brode@ramadacumberland.com", "status": 1, "source_type": 1, "numberReviews": 874}, {"name": "Wylder Hotel Tilghman Island", "type": "hotel", "image": "https://dynamic-media-cdn.tripadvisor.com/media/photo-o/1b/85/d3/dc/wylder-hotel-tilghman.jpg?w=1000&s=1", "address": "21551 Chesapeake Acc Dr, Tilghman, MD 21671", "lat": 38.710567, "lng": -76.33581, "ref_id": 13570381, "rating": 4, "num_reviews": 0, "website": "https://www.wylderhotels.com/tilghman-island/?utm_source=local-listings&utm_medium=organic&utm_campaign=local-listings", "contact_phone": "+1 410-886-2121", "contact_email": "GuestservicesTI@wylderhotels.com", "status": 1, "source_type": 1, "numberReviews": 230}, {"name": "Holiday Inn Express & Suites Annapolis, an IHG Hotel", "type": "hotel", "image": "https://dynamic-media-cdn.tripadvisor.com/media/photo-o/2b/fe/b5/1a/dusk-exterioir.jpg?w=1000&s=1", "address": "2451 Riva Road Hwy.50, Exit 22, Annapolis, MD 21401", "lat": 38.98309, "lng": -76.54075, "ref_id": 89316, "rating": 4, "num_reviews": 0, "website": "https://www.ihg.com/holidayinnexpress/hotels/us/en/annapolis/anprr/hoteldetail?cm_mmc=YextLocal-_-EX-_-US-_-ANPRR", "contact_phone": "+1 410-224-4317", "contact_email": "gmhieannapolis@gmail.com", "status": 1, "source_type": 1, "numberReviews": 427}, {"name": "Extended Stay America - Baltimore - Bel Air - Aberdeen", "type": "hotel", "image": "https://dynamic-media-cdn.tripadvisor.com/media/photo-o/23/e3/35/6a/exterior.jpg?w=1000&s=1", "address": "1361 James Way, Bel Air, MD 21015-2043", "lat": 39.483124, "lng": -76.24888, "ref_id": 530607, "rating": 4, "num_reviews": 0, "website": null, "contact_phone": "+1 410-273-0194", "contact_email": "blb@extendedstay.com", "status": 1, "source_type": 1, "numberReviews": 105}, {"name": "Holiday Inn Express & Suites Columbia East - Elkridge, an IHG Hotel", "type": "hotel", "image": "https://dynamic-media-cdn.tripadvisor.com/media/photo-o/2c/1c/d3/e4/hotel-lobby.jpg?w=1000&s=1", "address": "6064 Marshalee Dr Behind Exxon Station, Elkridge, MD 21075-5935", "lat": 39.207912, "lng": -76.77861, "ref_id": 1236938, "rating": 4.5, "num_reviews": 0, "website": "https://www.ihg.com/holidayinnexpress/hotels/us/en/elkridge/baler/hoteldetail?cm_mmc=YextLocal-_-EX-_-US-_-BALER", "contact_phone": "+1 410-579-8888", "contact_email": null, "status": 1, "source_type": 1, "numberReviews": 352}, {"name": "Hilton Garden Inn Rockville-Gaithersburg", "type": "hotel", "image": "https://dynamic-media-cdn.tripadvisor.com/media/photo-o/2a/ed/59/c3/exterior.jpg?w=1000&s=1", "address": "14975 Shady Grove Rd, Rockville, MD 20850", "lat": 39.10026, "lng": -77.19171, "ref_id": 1687500, "rating": 4.5, "num_reviews": 0, "website": "https://www.hilton.com/en/hotels/dcarvgi-hilton-garden-inn-rockville-gaithersburg/?SEO_id=YEXTN-AMER-GI-DCARVGI&y_source=1_MjA4MjQxNS03NjktbG9jYXRpb24ud2Vic2l0ZQ%3D%3D", "contact_phone": "+1 240-507-1800", "contact_email": null, "status": 1, "source_type": 1, "numberReviews": 753}, {"name": "George Brooks House B&B", "type": "hotel", "image": "https://dynamic-media-cdn.tripadvisor.com/media/photo-o/1b/b7/8f/b5/photo2jpg.jpg?w=1000&s=1", "address": "24500 Rolles Range Rd, St. Michaels, MD 21663-2112", "lat": 38.79709, "lng": -76.22762, "ref_id": 278381, "rating": 4.5, "num_reviews": 0, "website": "http://www.georgebrookshouse.com/", "contact_phone": "+1 410-745-8381", "contact_email": "georgebrookshouse@atlanticbb.net", "status": 1, "source_type": 1, "numberReviews": 546}, {"name": "The Tilghman Island Inn", "type": "hotel", "image": "https://dynamic-media-cdn.tripadvisor.com/media/photo-o/1c/f9/a0/ce/waterfront-outdoor-covered.jpg?w=1000&s=1", "address": "21384 Coopertown Rd, Tilghman, MD 21671-1225", "lat": 38.719715, "lng": -76.33689, "ref_id": 23247060, "rating": 5, "num_reviews": 0, "website": "https://www.facebook.com/tilghmanrelax", "contact_phone": "+1 410-886-1170", "contact_email": "info@tilghmanislandinn.com", "status": 1, "source_type": 1, "numberReviews": 26}, {"name": "Spark by Hilton Germantown Washington DC North", "type": "hotel", "image": "https://dynamic-media-cdn.tripadvisor.com/media/photo-o/2c/71/1e/ad/exterior.jpg?w=1000&s=1", "address": "20260 Goldenrod Lane, Germantown, MD 20876", "lat": 39.186592, "lng": -77.2522, "ref_id": 89430, "rating": 4.5, "num_reviews": 0, "website": "https://www.hilton.com/en/hotels/wasgtpe-spark-germantown-washington-dc-north/?SEO_id=YEXTN-AMER-PE-WASGTPE&y_source=1_MTAwOTAyODM2MS03NjktbG9jYXRpb24ud2Vic2l0ZQ%3D%3D", "contact_phone": "+1 301-428-1300", "contact_email": null, "status": 1, "source_type": 1, "numberReviews": 3}, {"name": "Home2 Suites by Hilton Owings Mills", "type": "hotel", "image": "https://dynamic-media-cdn.tripadvisor.com/media/photo-o/1b/ef/c7/2b/home2-suites-by-hilton.jpg?w=1000&s=1", "address": "4514 Painters Mill Rd, Owings Mills, MD 21117-4905", "lat": 39.396206, "lng": -76.78793, "ref_id": 20020807, "rating": 3.5, "num_reviews": 0, "website": "https://www.hilton.com/en/hotels/bwimiht-home2-suites-owings-mills/?SEO_id=YEXTN-AMER-HT-BWIMIHT&y_source=1_MTYwNjIwMDItNzY5LWxvY2F0aW9uLndlYnNpdGU%3D", "contact_phone": "+1 410-363-0272", "contact_email": null, "status": 1, "source_type": 1, "numberReviews": 58}, {"name": "Wyndham Garden Washington DC Area", "type": "hotel", "image": "https://dynamic-media-cdn.tripadvisor.com/media/photo-o/1d/1d/2d/e5/exterior.jpg?w=1000&s=1", "address": "5811 Annapolis Rd, Cheverly, MD 20784-1201", "lat": 38.937176, "lng": -76.91728, "ref_id": 83978, "rating": 3.5, "num_reviews": 0, "website": "https://www.wyndhamhotels.com/wyndham-garden/cheverly-maryland/wyndham-garden-washington-dc-area/overview", "contact_phone": "+1 301-276-7822", "contact_email": null, "status": 1, "source_type": 1, "numberReviews": 937}, {"name": "Island Inn & Suites, Ascend Hotel Collection", "type": "hotel", "image": "https://dynamic-media-cdn.tripadvisor.com/media/photo-o/23/e1/e8/e6/island-inn-suites-an.jpg?w=1000&s=1", "address": "16810 Piney Point Rd, Piney Point, MD 20674-3419", "lat": 38.130775, "lng": -76.494705, "ref_id": 1490697, "rating": 4, "num_reviews": 0, "website": "https://www.choicehotels.com/maryland/piney-point/ascend-hotels/md275?mc=llgoxxpx", "contact_phone": "+1 301-994-1234", "contact_email": null, "status": 1, "source_type": 1, "numberReviews": 252}, {"name": "Surf Inn Suites", "type": "hotel", "image": "https://dynamic-media-cdn.tripadvisor.com/media/photo-o/17/ce/43/ee/surf-inn-suites.jpg?w=1000&s=1", "address": "7100 Coastal Hwy, Ocean City, MD 21842-2930", "lat": 38.39229, "lng": -75.06345, "ref_id": 1111267, "rating": 3, "num_reviews": 0, "website": "https://surfinnoc.com/", "contact_phone": "+1 410-524-7100", "contact_email": "surfinnsuites@gmail.com", "status": 1, "source_type": 1, "numberReviews": 33}, {"name": "Extended Stay America - Baltimore - Glen Burnie", "type": "hotel", "image": "https://dynamic-media-cdn.tripadvisor.com/media/photo-o/23/e3/33/d9/exterior.jpg?w=1000&s=1", "address": "104 Chesapeake Center Ct, Glen Burnie, MD 21060-6529", "lat": 39.192303, "lng": -76.60669, "ref_id": 534710, "rating": 4, "num_reviews": 0, "website": "https://www.extendedstayamerica.com/hotels/md/baltimore/glen-burnie", "contact_phone": "+1 410-761-2708", "contact_email": "bgb@extendedstay.com", "status": 1, "source_type": 1, "numberReviews": 157}, {"name": "Comfort Inn Grantsville-Deep Creek Lake", "type": "hotel", "image": "https://dynamic-media-cdn.tripadvisor.com/media/photo-o/2a/c2/fe/64/hotel-exterior.jpg?w=1000&s=1", "address": "2541 Chestnut Ridge Rd, Grantsville, MD 21536-2034", "lat": 39.68862, "lng": -79.10742, "ref_id": 89436, "rating": 3.5, "num_reviews": 0, "website": "https://www.choicehotels.com/maryland/grantsville/comfort-inn-hotels/md185", "contact_phone": "+1 301-895-5993", "contact_email": "hotelhelp@choicehotels.com", "status": 1, "source_type": 1, "numberReviews": 139}, {"name": "Residence Inn Annapolis", "type": "hotel", "image": "https://dynamic-media-cdn.tripadvisor.com/media/photo-o/2c/70/9e/33/caption.jpg?w=1000&s=1", "address": "200 Taylor Ave, Annapolis, MD 21401", "lat": 38.979645, "lng": -76.50537, "ref_id": 26787610, "rating": -1, "num_reviews": 0, "website": "https://www.marriott.com/en-us/hotels/bwiar-residence-inn-annapolis/overview/", "contact_phone": "+1 443-598-8260", "contact_email": null, "status": 1, "source_type": 1, "numberReviews": 0}, {"name": "Salisbury Riverfront Lofts", "type": "hotel", "image": null, "address": "501 West Main Street, Salisbury, MD 21801", "lat": 38.36528, "lng": -75.60537, "ref_id": 26822545, "rating": -1, "num_reviews": 0, "website": "www.sby-lofts.com", "contact_phone": "+1 720-364-8642", "contact_email": "wmainstreet@outlook.com", "status": 1, "source_type": 1, "numberReviews": 0}, {"name": "The Haven at Charity House", "type": "hotel", "image": "https://dynamic-media-cdn.tripadvisor.com/media/partner/bookingcom/photo-o/2c/77/f8/3e/caption.jpg?w=1000&s=1", "address": "1210 Adams Rd, Waldorf, MD 20602-2980", "lat": 38.600063, "lng": -76.923454, "ref_id": 23251830, "rating": -1, "num_reviews": 0, "website": null, "contact_phone": null, "contact_email": null, "status": 1, "source_type": 1, "numberReviews": 0}, {"name": "BridgeStreet Henrietta Square", "type": "hotel", "image": null, "address": "911 S Charles St, Baltimore, MD 21230-4064", "lat": 39.27876, "lng": -76.61439, "ref_id": 252461, "rating": -1, "num_reviews": 0, "website": null, "contact_phone": "+1 410-296-0900", "contact_email": "", "status": 1, "source_type": 1, "numberReviews": 0}, {"name": "Twin Gates Bed and Breakfast", "type": "hotel", "image": null, "address": "308 Morris Ave, Lutherville, MD 21093-5326", "lat": 39.42366, "lng": -76.6267, "ref_id": 77517, "rating": -1, "num_reviews": 0, "website": null, "contact_phone": "+1 410-252-3131", "contact_email": null, "status": 1, "source_type": 1, "numberReviews": 0}, {"name": "Global Luxury Suites at Town Center", "type": "hotel", "image": null, "address": "10665 Gramercy Pl, Columbia, MD 21044-4544", "lat": 39.21418, "lng": -76.8671, "ref_id": 16812842, "rating": -1, "num_reviews": 0, "website": null, "contact_phone": null, "contact_email": null, "status": 1, "source_type": 1, "numberReviews": 0}, {"name": "Park Inn International Rockville", "type": "hotel", "image": null, "address": "11410 Rockville Pike, Rockville, MD 20852-3001", "lat": 39.043015, "lng": -77.11121, "ref_id": 89515, "rating": -1, "num_reviews": 0, "website": "http://www.parkinn.com/hoteldirectory/hotelbio.jsp?hotelCode=ROCKVILL", "contact_phone": "+1 301-881-5200", "contact_email": "parkinnrockville@aol.com", "status": 1, "source_type": 1, "numberReviews": 0}, {"name": "Oak Mar Motel", "type": "hotel", "image": null, "address": "208 N 3rd St, Oakland, MD 21550", "lat": 39.413155, "lng": -79.404755, "ref_id": 26785422, "rating": -1, "num_reviews": 0, "website": "http://www.oakmarmoteloakland.us", "contact_phone": "+1 301-334-3965", "contact_email": null, "status": 1, "source_type": 1, "numberReviews": 0}, {"name": "Satisfaction Fixation", "type": "hotel", "image": null, "address": "6915 Storch Cir, Lanham, MD 20706-2181", "lat": 38.98584, "lng": -76.82781, "ref_id": 13083052, "rating": -1, "num_reviews": 0, "website": null, "contact_phone": null, "contact_email": null, "status": 1, "source_type": 1, "numberReviews": 0}, {"name": "BridgeStreet Lighthouse Landing", "type": "hotel", "image": null, "address": "2700 Lighthouse Pt E, Baltimore, MD 21224-4777", "lat": 39.27885, "lng": -76.57797, "ref_id": 252460, "rating": -1, "num_reviews": 0, "website": null, "contact_phone": "+1 410-296-0900", "contact_email": "", "status": 1, "source_type": 1, "numberReviews": 0}, {"name": "National Pike Inn Bed and Breakfast", "type": "hotel", "image": null, "address": "9 W Main St, New Market, MD 21774-6202", "lat": 39.3835, "lng": -77.27037, "ref_id": 77520, "rating": -1, "num_reviews": 0, "website": null, "contact_phone": "+1 301-865-5055", "contact_email": null, "status": 1, "source_type": 1, "numberReviews": 0}, {"name": "Global Luxury Suites at Bethesda Metro", "type": "hotel", "image": "https://dynamic-media-cdn.tripadvisor.com/media/partner/bookingcom/photo-o/2a/00/f9/7e/caption.jpg?w=1000&s=1", "address": "4901 Montgomery Ln, Bethesda, MD 20814", "lat": 38.983566, "lng": -77.09766, "ref_id": 25385077, "rating": -1, "num_reviews": 0, "website": null, "contact_phone": null, "contact_email": null, "status": 1, "source_type": 1, "numberReviews": 0}, {"name": "Comfort Inn Northwest", "type": "hotel", "image": null, "address": "10 Wooded Way, Pikesville, MD 21208", "lat": 39.38297, "lng": -76.73163, "ref_id": 89501, "rating": -1, "num_reviews": 0, "website": null, "contact_phone": "+1 410-484-7700", "contact_email": null, "status": 1, "source_type": 1, "numberReviews": 0}, {"name": "Knights Inn Baltimore South Jessup", "type": "hotel", "image": null, "address": "7541 Assateague Dr, Jessup, MD 20794-3204", "lat": 39.16535, "lng": -76.78241, "ref_id": 14199071, "rating": -1, "num_reviews": 0, "website": null, "contact_phone": null, "contact_email": null, "status": 1, "source_type": 1, "numberReviews": 0}, {"name": "Global Luxury Suites At Friendship Village", "type": "hotel", "image": null, "address": "4440 Willard Ave, Chevy Chase, MD 20815-3611", "lat": 38.961823, "lng": -77.087875, "ref_id": 23031500, "rating": -1, "num_reviews": 0, "website": null, "contact_phone": null, "contact_email": null, "status": 1, "source_type": 1, "numberReviews": 0}, {"name": "Davis Warner Inn", "type": "hotel", "image": null, "address": "8114 Carroll Ave, Takoma Park, MD 20912-7348", "lat": 38.99036, "lng": -76.99386, "ref_id": 77553, "rating": -1, "num_reviews": 0, "website": null, "contact_phone": "+1 301-408-3989", "contact_email": "reservations@daviswarnerinn.com", "status": 1, "source_type": 1, "numberReviews": 0}, {"name": "Potomac View Farm Bed and Breakfast", "type": "hotel", "image": null, "address": "44477 Tall Timbers Rd, Tall Timbers, MD 20690-2032", "lat": 38.16021, "lng": -76.5413, "ref_id": 77555, "rating": -1, "num_reviews": 0, "website": null, "contact_phone": "+1 301-994-2311", "contact_email": "wrodman@csci-va.com", "status": 1, "source_type": 1, "numberReviews": 0}, {"name": "Senator Apartments", "type": "hotel", "image": null, "address": "12th Street & Philadelphia Ave, Ocean City, MD 21842", "lat": 38.34211, "lng": -75.079994, "ref_id": 5893584, "rating": -1, "num_reviews": 0, "website": null, "contact_phone": "+1 410-289-7145", "contact_email": null, "status": 1, "source_type": 1, "numberReviews": 0}, {"name": "Budget Inn", "type": "hotel", "image": null, "address": "1804 N Salisbury Blvd, Salisbury, MD 21801, Salisbury, MD", "lat": 38.38676, "lng": -75.58123, "ref_id": 26832541, "rating": -1, "num_reviews": 0, "website": "http://www.budgetinnsalisbury.us", "contact_phone": "+1 410-546-2238", "contact_email": "businesslisting@countrysideinnsealy.us", "status": 1, "source_type": 1, "numberReviews": 0}, {"name": "Sea Sands Apartments", "type": "hotel", "image": null, "address": "608 N Baltimore Ave, Ocean City, MD 21842-3829", "lat": 38.33763, "lng": -75.08256, "ref_id": 5893575, "rating": -1, "num_reviews": 0, "website": "http://www.seasandsapartments.com/", "contact_phone": "+1 443-497-1353", "contact_email": null, "status": 1, "source_type": 1, "numberReviews": 0}, {"name": "Terra Angelica", "type": "hotel", "image": null, "address": "14701 Smouses Mill Rd NE, Cumberland, MD 21502-6716", "lat": 39.71044, "lng": -78.69351, "ref_id": 1643850, "rating": -1, "num_reviews": 0, "website": null, "contact_phone": "+1 301-724-9110", "contact_email": "info@terra-agnelica.com", "status": 1, "source_type": 1, "numberReviews": 0}, {"name": "Apartment", "type": "hotel", "image": null, "address": "7709 Grace Ave, Pasadena, MD 21122-1680", "lat": 39.14353, "lng": -76.5427, "ref_id": 23236273, "rating": -1, "num_reviews": 0, "website": null, "contact_phone": null, "contact_email": null, "status": 1, "source_type": 1, "numberReviews": 0}, {"name": "Union Avenue Guest Nest", "type": "hotel", "image": null, "address": "308 S Union Ave, Havre de Grace, MD 21078-3202", "lat": 39.54518, "lng": -76.09197, "ref_id": 1632715, "rating": -1, "num_reviews": 0, "website": "http://www.guestnests.com/", "contact_phone": "+1 410-939-7023", "contact_email": "", "status": 1, "source_type": 1, "numberReviews": 0}, {"name": "Wingate Manor Bed and Breakfast", "type": "hotel", "image": null, "address": "2335 Wingate Bishops Head Rd, Wingate, MD 21675-2010", "lat": 38.30533, "lng": -76.10472, "ref_id": 77565, "rating": -1, "num_reviews": 0, "website": null, "contact_phone": "+1 410-397-8717", "contact_email": "WingateBB@aol.com", "status": 1, "source_type": 1, "numberReviews": 0}, {"name": "Inn at Christmas Farm", "type": "hotel", "image": null, "address": "8873 Tilghman Island Rd, Wittman, MD 21676-1330", "lat": 38.79211, "lng": -76.30285, "ref_id": 77566, "rating": -1, "num_reviews": 0, "website": null, "contact_phone": "+1 410-745-5312", "contact_email": null, "status": 1, "source_type": 1, "numberReviews": 0}, {"name": "Potomac View Farm", "type": "hotel", "image": null, "address": "Rte. 249, Tall Timbers, MD 20690", "lat": 38.159, "lng": -76.52388, "ref_id": 113032, "rating": -1, "num_reviews": 0, "website": null, "contact_phone": "+1 301-994-0419", "contact_email": null, "status": 1, "source_type": 1, "numberReviews": 0}, {"name": "Wiltshire Plains Bed and Breakfast", "type": "hotel", "image": null, "address": "Bryantown Rd., Bryantown, MD 20617", "lat": 38.54697, "lng": -76.86154, "ref_id": 113031, "rating": -1, "num_reviews": 0, "website": null, "contact_phone": "+1 301-638-7773", "contact_email": "", "status": 1, "source_type": 1, "numberReviews": 0}, {"name": "Clarion Inn", "type": "hotel", "image": null, "address": "931 Dual Highway, Building A, Hagerstown, MD 21740-5912", "lat": 39.63348, "lng": -77.7034, "ref_id": 21307180, "rating": -1, "num_reviews": 0, "website": null, "contact_phone": null, "contact_email": null, "status": 1, "source_type": 1, "numberReviews": 0}, {"name": "Bridgestreet at Camden Court", "type": "hotel", "image": null, "address": "300 W Lombard St, Baltimore, MD 21201-2520", "lat": 39.2876, "lng": -76.6195, "ref_id": 25044404, "rating": -1, "num_reviews": 0, "website": null, "contact_phone": "+1 410-296-0900", "contact_email": null, "status": 1, "source_type": 1, "numberReviews": 0}, {"name": "Oakwood At The Munsey", "type": "hotel", "image": null, "address": "7 N Calvert St, Baltimore, MD 21202-1940", "lat": 39.289673, "lng": -76.61215, "ref_id": 1156515, "rating": -1, "num_reviews": 0, "website": null, "contact_phone": "", "contact_email": "", "status": 1, "source_type": 1, "numberReviews": 0}, {"name": "Gaithersburg Marriott Washingtonian Center", "type": "hotel", "image": "https://dynamic-media-cdn.tripadvisor.com/media/photo-o/2b/fe/a5/53/exterior.jpg?w=1000&s=1", "address": "9751 Washingtonian Boulevard, Gaithersburg, MD 20878", "lat": 39.115692, "lng": -77.195366, "ref_id": 89428, "rating": 4, "num_reviews": 0, "website": "https://www.marriott.com/en-us/hotels/waswg-gaithersburg-marriott-washingtonian-center/overview/?scid=45f93f1b-bd77-45c9-8dab-83b6a417f6fe&y_source=1_NjQ3NzEzLTc2OS1sb2NhdGlvbi53ZWJzaXRl", "contact_phone": "+1 301-590-0044", "contact_email": "", "status": 1, "source_type": 1, "numberReviews": 455}, {"name": "Ocean 1 Hotel and Suites", "type": "hotel", "image": "https://dynamic-media-cdn.tripadvisor.com/media/photo-o/06/17/55/76/two-queen-beds.jpg?w=1000&s=1", "address": "101 1st St, Ocean City, MD 21842-4003", "lat": 38.332493, "lng": -75.0846, "ref_id": 582112, "rating": 3.5, "num_reviews": 0, "website": "http://ocean1hotel.com", "contact_phone": "+1 410-289-6881", "contact_email": "Mmcvay@ocean1hotel.com", "status": 1, "source_type": 1, "numberReviews": 328}, {"name": "Residence Inn by Marriott Columbia", "type": "hotel", "image": "https://dynamic-media-cdn.tripadvisor.com/media/photo-o/2c/0a/8d/97/outdoor-fire-pit.jpg?w=1000&s=1", "address": "4950 Beaver Run, Ellicott City, MD 21043", "lat": 39.236977, "lng": -76.815216, "ref_id": 93677, "rating": 4, "num_reviews": 0, "website": "https://www.marriott.com/en-us/hotels/bwicb-residence-inn-columbia/overview/?scid=45f93f1b-bd77-45c9-8dab-83b6a417f6fe&y_source=1_MjA1OTc0MS03NjktbG9jYXRpb24ud2Vic2l0ZQ%3D%3D", "contact_phone": "+1 410-997-7200", "contact_email": "", "status": 1, "source_type": 1, "numberReviews": 167}, {"name": "Hummingbird Inn", "type": "hotel", "image": "https://dynamic-media-cdn.tripadvisor.com/media/photo-o/2b/ac/66/d5/front-of-inn.jpg?w=1000&s=1", "address": "14 N Aurora Street, Easton, MD 21601", "lat": 38.774868, "lng": -76.07125, "ref_id": 12805965, "rating": 5, "num_reviews": 0, "website": "http://www.HummingbirdInnEaston.com", "contact_phone": "+1 410-822-0605", "contact_email": "info@hummingbirdinneaston.com", "status": 1, "source_type": 1, "numberReviews": 253}, {"name": "The Yellow Rose of Talbot Bed and Breakfast", "type": "hotel", "image": "https://dynamic-media-cdn.tripadvisor.com/media/partner/bookingcom/photo-o/29/e8/b8/0a/caption.jpg?w=1000&s=1", "address": "8280 Gannon Circle, Easton, MD 21601", "lat": 38.77931, "lng": -76.04755, "ref_id": 25799457, "rating": 5, "num_reviews": 0, "website": null, "contact_phone": "+1 410-200-8143", "contact_email": null, "status": 1, "source_type": 1, "numberReviews": 5}, {"name": "Swanendele Inn at St. Mary's, Maryland", "type": "hotel", "image": "https://dynamic-media-cdn.tripadvisor.com/media/photo-o/19/40/b9/f2/breakfast.jpg?w=1000&s=1", "address": "49946 Airedele Rd St. Mary's County, Ridge, MD 20680-3308", "lat": 38.119976, "lng": -76.348145, "ref_id": 18891716, "rating": 5, "num_reviews": 0, "website": "http://www.SwanendeleInn.com", "contact_phone": "+1 301-576-9910", "contact_email": "info@swanendele.com", "status": 1, "source_type": 1, "numberReviews": 79}, {"name": "TownePlace Suites by Marriott Gaithersburg", "type": "hotel", "image": "https://dynamic-media-cdn.tripadvisor.com/media/photo-o/2c/09/69/84/exterior.jpg?w=1000&s=1", "address": "212 Perry Parkway, Gaithersburg, MD 20877-2100", "lat": 39.14313, "lng": -77.21155, "ref_id": 93663, "rating": 3.5, "num_reviews": 0, "website": "https://www.marriott.com/en-us/hotels/wastg-towneplace-suites-gaithersburg/overview/?scid=45f93f1b-bd77-45c9-8dab-83b6a417f6fe&y_source=1_Mzg5MDAyMi03NjktbG9jYXRpb24ud2Vic2l0ZQ%3D%3D", "contact_phone": "+1 301-590-2300", "contact_email": "", "status": 1, "source_type": 1, "numberReviews": 118}, {"name": "Antietam Overlook Farm", "type": "hotel", "image": "https://dynamic-media-cdn.tripadvisor.com/media/photo-o/07/d2/7c/05/antietam-overlook-farm.jpg?w=1000&s=1", "address": "4770 Horizon Ln, Keedysville, MD 21756-1658", "lat": 39.44528, "lng": -77.705315, "ref_id": 77512, "rating": 4.5, "num_reviews": 0, "website": "http://www.antietamoverlook.com/", "contact_phone": "+1 301-432-4200", "contact_email": "reservations@antietamoverlook.com", "status": 1, "source_type": 1, "numberReviews": 275}, {"name": "Hampton Inn Lexington Park", "type": "hotel", "image": "https://dynamic-media-cdn.tripadvisor.com/media/photo-o/2a/ef/8c/99/exterior.jpg?w=1000&s=1", "address": "22211 Three Notch Road, Lexington Park, MD 20653", "lat": 38.277103, "lng": -76.46606, "ref_id": 93608, "rating": 3.5, "num_reviews": 0, "website": "https://www.hilton.com/en/hotels/lpkmdhx-hampton-lexington-park/?SEO_id=YEXTN-AMER-HX-LPKMDHX&y_source=1_MjA4MzEzMy03NjktbG9jYXRpb24ud2Vic2l0ZQ%3D%3D", "contact_phone": "+1 301-863-3200", "contact_email": "lex.guestservices@hilton.com", "status": 1, "source_type": 1, "numberReviews": 107}, {"name": "Extended Stay America Columbia - Laurel - Ft. Meade", "type": "hotel", "image": "https://dynamic-media-cdn.tripadvisor.com/media/photo-o/23/e3/34/71/exterior.jpg?w=1000&s=1", "address": "8550 Washington Blvd, Jessup, MD 20794-9619", "lat": 39.14752, "lng": -76.8077, "ref_id": 543296, "rating": 3, "num_reviews": 0, "website": "https://www.extendedstayamerica.com/hotels/md/columbia/laurel-ft-meade?", "contact_phone": "+1 301-725-3877", "contact_email": null, "status": 1, "source_type": 1, "numberReviews": 59}, {"name": "Brampton 1860", "type": "hotel", "image": "https://dynamic-media-cdn.tripadvisor.com/media/photo-o/08/c7/9c/4d/brampton-bed-and-breakfast.jpg?w=1000&s=1", "address": "25227 Chestertown Rd, Chestertown, MD 21620-3944", "lat": 39.211823, "lng": -76.09476, "ref_id": 77477, "rating": 5, "num_reviews": 0, "website": "https://bramptoninn.com/", "contact_phone": "+1 410-778-1860", "contact_email": "innkeeper@bramptoninn.com", "status": 1, "source_type": 1, "numberReviews": 883}, {"name": "Crowne Plaza College Park - Washington DC, an IHG Hotel", "type": "hotel", "image": "https://dynamic-media-cdn.tripadvisor.com/media/photo-o/2c/00/96/e3/grand-ballroom-theatre.jpg?w=1000&s=1", "address": "6400 Ivy Lane, Greenbelt, MD 20770", "lat": 39.006485, "lng": -76.896324, "ref_id": 83999, "rating": 3.5, "num_reviews": 0, "website": "https://www.ihg.com/crowneplaza/hotels/us/en/greenbelt/wasgm/hoteldetail?cm_mmc=YextLocal-_-CP-_-US-_-WASGM", "contact_phone": "+1 301-441-3700", "contact_email": "sales@crowneplazagreenbelt.com", "status": 1, "source_type": 1, "numberReviews": 49}, {"name": "Extended Stay America Washington D.C. - Landover", "type": "hotel", "image": "https://dynamic-media-cdn.tripadvisor.com/media/photo-o/2a/6a/de/f1/exterior.jpg?w=1000&s=1", "address": "9401 Largo Dr W, Landover, MD 20774-4758", "lat": 38.894047, "lng": -76.843346, "ref_id": 93636, "rating": 3, "num_reviews": 0, "website": "http://www.extendedstayamerica.com/hotels/dc/washington-dc/landover", "contact_phone": "+1 301-333-9139", "contact_email": null, "status": 1, "source_type": 1, "numberReviews": 136}, {"name": "Sonesta ES Suites Baltimore BWI Airport", "type": "hotel", "image": "https://dynamic-media-cdn.tripadvisor.com/media/photo-o/2a/9c/79/82/exterior.jpg?w=1000&s=1", "address": "1160 Winterson Road, Linthicum Heights, MD 21090", "lat": 39.203773, "lng": -76.67803, "ref_id": 93900, "rating": 4, "num_reviews": 0, "website": "https://www.sonesta.com/sonesta-es-suites/md/linthicum-heights/sonesta-es-suites-baltimore-bwi-airport", "contact_phone": "+1 410-691-0255", "contact_email": "reservations@sonesta.com", "status": 1, "source_type": 1, "numberReviews": 288}, {"name": "Roomza Inner Harbor At Lord Baltimore", "type": "hotel", "image": "https://dynamic-media-cdn.tripadvisor.com/media/photo-o/2b/f0/e2/fe/room-king-corner.jpg?w=1000&s=1", "address": "20 W Baltimore St 16th Floor, Baltimore, MD 21201-3203", "lat": 39.289635, "lng": -76.61597, "ref_id": 27698092, "rating": 4, "num_reviews": 0, "website": "https://www.roomza.com", "contact_phone": "+1 844-476-6692", "contact_email": "support@roomza.com", "status": 1, "source_type": 1, "numberReviews": 3}, {"name": "Laurel Grove Inn on the South River", "type": "hotel", "image": "https://dynamic-media-cdn.tripadvisor.com/media/photo-o/16/76/35/e8/getting-ready-for-breakfast.jpg?w=1000&s=1", "address": "2881 Southaven Rd, Annapolis, MD 21401-7128", "lat": 38.962406, "lng": -76.58379, "ref_id": 1466726, "rating": 4.5, "num_reviews": 0, "website": "www.laurelgroveinn.net", "contact_phone": "+1 443-370-2394", "contact_email": "laurelgroveinn@comcast.net", "status": 1, "source_type": 1, "numberReviews": 86}, {"name": "Red Roof Inn Washington, DC - Laurel", "type": "hotel", "image": "https://dynamic-media-cdn.tripadvisor.com/media/photo-o/2c/0d/33/f0/exterior.jpg?w=1000&s=1", "address": "12525 Laurel Bowie Rd, Laurel, MD 20708-2635", "lat": 39.06293, "lng": -76.837425, "ref_id": 89477, "rating": 3.5, "num_reviews": 0, "website": "https://www.redroof.com/property/Laurel/MD/20708/Hotels-close-to-Bowie-State-University-I-295/RRI160/", "contact_phone": "+1 301-498-8811", "contact_email": "i0160@redroof.com", "status": 1, "source_type": 1, "numberReviews": 214}, {"name": "Home2 Suites by Hilton Baltimore/White Marsh, MD", "type": "hotel", "image": "https://dynamic-media-cdn.tripadvisor.com/media/photo-o/2b/cc/03/bd/exterior.jpg?w=1000&s=1", "address": "10465 Philadelphia Road, White Marsh, MD 21162", "lat": 39.375465, "lng": -76.43861, "ref_id": 3869802, "rating": 4, "num_reviews": 0, "website": "https://www.hilton.com/en/hotels/balwhht-home2-suites-baltimore-white-marsh-md/?SEO_id=YEXTN-AMER-HT-BALWHHT&y_source=1_MjA4MTg5My03NjktbG9jYXRpb24ud2Vic2l0ZQ%3D%3D", "contact_phone": "+1 410-933-1010", "contact_email": null, "status": 1, "source_type": 1, "numberReviews": 796}, {"name": "Comfort Inn", "type": "hotel", "image": "https://dynamic-media-cdn.tripadvisor.com/media/photo-o/22/9b/25/6c/hotel-exterior.jpg?w=1000&s=1", "address": "9421 Largo Dr W, Upper Marlboro, MD 20774-4758", "lat": 38.89454, "lng": -76.84226, "ref_id": 5524274, "rating": 3, "num_reviews": 0, "website": "https://www.choicehotels.com/maryland/upper-marlboro/comfort-inn-hotels/md318", "contact_phone": "+1 301-499-4600", "contact_email": null, "status": 1, "source_type": 1, "numberReviews": 223},