[{"name": "Boston Marriott Cambridge", "type": "hotel", "image": "https://dynamic-media-cdn.tripadvisor.com/media/photo-o/2b/fe/a1/9e/exterior.jpg?w=1000&s=1", "address": "50 Broadway, Cambridge, MA 02142", "lat": 42.363304, "lng": -71.086395, "ref_id": 89639, "rating": 4, "num_reviews": 0, "website": "https://www.marriott.com/en-us/hotels/boscb-boston-marriott-cambridge/overview/?scid=45f93f1b-bd77-45c9-8dab-83b6a417f6fe&y_source=1_MjE1MDgzMS03NjktbG9jYXRpb24ud2Vic2l0ZQ%3D%3D", "contact_phone": "+1 617-494-6600", "contact_email": null, "status": 1, "source_type": 1, "numberReviews": 1215}, {"name": "Compass Rose Inn", "type": "hotel", "image": "https://dynamic-media-cdn.tripadvisor.com/media/photo-o/10/8e/00/84/suite-4.jpg?w=1000&s=1", "address": "5 1/2 Center St, Newburyport, MA 01950-2722", "lat": 42.811058, "lng": -70.86773, "ref_id": 618169, "rating": 5, "num_reviews": 0, "website": "http://www.compassrosenewburyport.com/", "contact_phone": "+1 978-675-6660", "contact_email": "info@compassrosenewburyport.com", "status": 1, "source_type": 1, "numberReviews": 485}, {"name": "Nantucket Resort Collection", "type": "hotel", "image": "https://dynamic-media-cdn.tripadvisor.com/media/photo-o/29/25/95/21/king-deluxe-second-level.jpg?w=1000&s=1", "address": "78 Center Street, Nantucket, MA 02554", "lat": 41.286243, "lng": -70.10064, "ref_id": 144520, "rating": 5, "num_reviews": 0, "website": "http://www.nantucketresortcollection.com", "contact_phone": "+1 508-901-5740", "contact_email": "hello@nantucketresortcollection.com", "status": 1, "source_type": 1, "numberReviews": 479}, {"name": "Williamstown Motel", "type": "hotel", "image": "https://dynamic-media-cdn.tripadvisor.com/media/photo-o/05/cc/6f/bf/williamstown-motel.jpg?w=1000&s=1", "address": "295 Main St, Williamstown, MA 01267-2610", "lat": 42.702873, "lng": -73.18666, "ref_id": 1422251, "rating": 4.5, "num_reviews": 0, "website": "http://www.williamstownmotel.com", "contact_phone": "+1 413-458-5202", "contact_email": "info@williamstownmotel.com", "status": 1, "source_type": 1, "numberReviews": 803}, {"name": "Hyatt Place Marlborough/Apex Center", "type": "hotel", "image": "https://dynamic-media-cdn.tripadvisor.com/media/photo-o/2b/98/02/40/guest-room.jpg?w=1000&s=1", "address": "169 Apex Dr, Marlborough, MA 01752-1856", "lat": 42.33783, "lng": -71.59103, "ref_id": 12907502, "rating": 4.5, "num_reviews": 0, "website": "http://marlboroughapexcenter.place.hyatt.com/en/hotel/home.html?src=vanity_hyattplacemarlboroughapexcenter.com", "contact_phone": "+1 508-506-8100", "contact_email": "HP-Marlborough-GM@hyatt.com", "status": 1, "source_type": 1, "numberReviews": 459}, {"name": "Palmer House Inn", "type": "hotel", "image": "https://dynamic-media-cdn.tripadvisor.com/media/photo-o/1a/24/11/da/at-dusk-our-setting-becomes.jpg?w=1000&s=1", "address": "81 Palmer Ave, Falmouth, MA 02540-2857", "lat": 41.555584, "lng": -70.620125, "ref_id": 115014, "rating": 5, "num_reviews": 0, "website": "https://www.palmerhouseinn.com/", "contact_phone": "+1 508-548-1230", "contact_email": "innkeepers@palmerhouseinn.com", "status": 1, "source_type": 1, "numberReviews": 452}, {"name": "21 Broad", "type": "hotel", "image": "https://dynamic-media-cdn.tripadvisor.com/media/photo-o/06/39/b9/81/21-broad-hotel.jpg?w=1000&s=1", "address": "21 Broad St, Nantucket, MA 02554-3502", "lat": 41.285316, "lng": -70.099945, "ref_id": 226445, "rating": 4.5, "num_reviews": 0, "website": "http://www.21broadhotel.com/", "contact_phone": "+1 508-228-4749", "contact_email": "stay@21broadhotel.com", "status": 1, "source_type": 1, "numberReviews": 293}, {"name": "Irving House At Harvard", "type": "hotel", "image": "https://dynamic-media-cdn.tripadvisor.com/media/photo-o/13/07/75/da/spring-garden.jpg?w=1000&s=1", "address": "24 Irving St, Cambridge, MA 02138-3007", "lat": 42.375523, "lng": -71.11076, "ref_id": 114148, "rating": 4, "num_reviews": 0, "website": "https://www.irvinghouse.com", "contact_phone": "+1 617-547-4600", "contact_email": "briana@irvinghouse.com", "status": 1, "source_type": 1, "numberReviews": 351}, {"name": "Edgewater Beach Resort", "type": "hotel", "image": "https://dynamic-media-cdn.tripadvisor.com/media/photo-o/23/3f/ba/f3/beach-access-at-edgewater.jpg?w=1000&s=1", "address": "95 Chase Ave, Dennis Port, Dennis, MA 02639-2627", "lat": 41.65676, "lng": -70.118866, "ref_id": 278990, "rating": 4, "num_reviews": 0, "website": "http://www.edgewatercapecodma.com/", "contact_phone": "+1 508-398-6922", "contact_email": "john@edgewatercapecodma.com", "status": 1, "source_type": 1, "numberReviews": 288}, {"name": "Sonder at Pierce Boston", "type": "hotel", "image": "https://dynamic-media-cdn.tripadvisor.com/media/photo-o/2b/18/e5/a6/caption.jpg?w=1000&s=1", "address": "200 Brookline Ave, Boston, MA 02215-3912", "lat": 42.34366, "lng": -71.10202, "ref_id": 20355890, "rating": 4.5, "num_reviews": 0, "website": "https://www.sonder.com", "contact_phone": "+1 617-300-0956", "contact_email": "reservations@sonder.com", "status": 1, "source_type": 1, "numberReviews": 157}, {"name": "Hilton Boston/Dedham", "type": "hotel", "image": "https://dynamic-media-cdn.tripadvisor.com/media/photo-o/2b/64/38/9c/exterior.jpg?w=1000&s=1", "address": "25 Allied Dr, Dedham, MA 02026-6147", "lat": 42.22589, "lng": -71.169914, "ref_id": 89671, "rating": 3.5, "num_reviews": 0, "website": "https://www.hilton.com/en/hotels/ddhdhhf-hilton-boston-dedham/?SEO_id=YEXTN-AMER-HH-DDHDHHF&y_source=1_MTIyMDg0OC03NjktbG9jYXRpb24ud2Vic2l0ZQ%3D%3D", "contact_phone": "+1 781-329-7900", "contact_email": "", "status": 1, "source_type": 1, "numberReviews": 1410}, {"name": "Hampton Inn Boston Woburn", "type": "hotel", "image": "https://dynamic-media-cdn.tripadvisor.com/media/photo-o/2b/30/e1/6e/exterior.jpg?w=1000&s=1", "address": "371 Washington Street, Woburn, MA 01801", "lat": 42.50012, "lng": -71.12335, "ref_id": 17822589, "rating": 4, "num_reviews": 0, "website": "https://www.hilton.com/en/hotels/boswuhx-hampton-boston-woburn/?SEO_id=YEXTN-AMER-HX-BOSWUHX&y_source=1_MTQxMzQ3MTItNzY5LWxvY2F0aW9uLndlYnNpdGU%3D", "contact_phone": "+1 781-935-1110", "contact_email": null, "status": 1, "source_type": 1, "numberReviews": 103}, {"name": "Liberty Hill Inn", "type": "hotel", "image": "https://dynamic-media-cdn.tripadvisor.com/media/photo-o/0f/1f/49/24/liberty-hill-inn.jpg?w=1000&s=1", "address": "77 Main Street Rte 6A, Yarmouth Port, Yarmouth, MA 02675", "lat": 41.70264, "lng": -70.255974, "ref_id": 118464, "rating": 5, "num_reviews": 0, "website": "http://www.libertyhillinn.com", "contact_phone": "+1 508-362-3976", "contact_email": "libertyh@capecod.net", "status": 1, "source_type": 1, "numberReviews": 1165}, {"name": "Blue - Inn on the Beach", "type": "hotel", "image": "https://dynamic-media-cdn.tripadvisor.com/media/photo-o/0b/dd/6a/43/enjoy-the-beach-sunrise.jpg?w=1000&s=1", "address": "20 Fordham Way Newbury, Plum Island, MA 01951-2101", "lat": 42.792973, "lng": -70.80745, "ref_id": 647655, "rating": 4.5, "num_reviews": 0, "website": "http://www.blueinn.com/", "contact_phone": "+1 978-463-6128", "contact_email": "reservations@blueinn.com", "status": 1, "source_type": 1, "numberReviews": 301}, {"name": "Hotel Veritas", "type": "hotel", "image": "https://dynamic-media-cdn.tripadvisor.com/media/photo-o/05/9f/45/60/queen-balcony-room--v1981970-12.jpg?w=1000&s=1", "address": "1 Remington St, Cambridge, MA 02138-5202", "lat": 42.370956, "lng": -71.113884, "ref_id": 1550301, "rating": 4.5, "num_reviews": 0, "website": "http://www.thehotelveritas.com", "contact_phone": "+1 617-520-5000", "contact_email": "concierge@thehotelveritas.com", "status": 1, "source_type": 1, "numberReviews": 620}, {"name": "Allen Harbor Breeze Inn", "type": "hotel", "image": "https://dynamic-media-cdn.tripadvisor.com/media/photo-o/0b/0d/fb/96/allen-harbor-breeze-inn.jpg?w=1000&s=1", "address": "326 Lower County Rd, Harwich Port, Harwich, MA 02646-1625", "lat": 41.66796, "lng": -70.09176, "ref_id": 1163575, "rating": 4.5, "num_reviews": 0, "website": "http://www.allenharborbreeze.com", "contact_phone": "+1 508-432-0337", "contact_email": "harborbreeze@yahoo.com", "status": 1, "source_type": 1, "numberReviews": 156}, {"name": "Harborview Inn", "type": "hotel", "image": "https://dynamic-media-cdn.tripadvisor.com/media/photo-o/15/25/d6/a4/looking-out-at-water.jpg?w=1000&s=1", "address": "Stacey Boulevard - 71 Western Avenue, Gloucester, MA 01930", "lat": 42.61038, "lng": -70.671104, "ref_id": 586959, "rating": 4.5, "num_reviews": 0, "website": "http://www.harborviewinn.com/", "contact_phone": "+1 978-283-2277", "contact_email": "", "status": 1, "source_type": 1, "numberReviews": 129}, {"name": "Residence Inn Boston Burlington", "type": "hotel", "image": "https://dynamic-media-cdn.tripadvisor.com/media/photo-o/2c/16/98/fc/exterior-daytime.jpg?w=1000&s=1", "address": "400 District Avenue, Burlington, MA 01803-5245", "lat": 42.483803, "lng": -71.21089, "ref_id": 12806213, "rating": 4.5, "num_reviews": 0, "website": "https://www.marriott.com/en-us/hotels/bosxr-residence-inn-boston-burlington/overview/?scid=45f93f1b-bd77-45c9-8dab-83b6a417f6fe&y_source=1_NzM3Mjg5MC03NjktbG9jYXRpb24ud2Vic2l0ZQ%3D%3D", "contact_phone": "+1 781-272-3331", "contact_email": null, "status": 1, "source_type": 1, "numberReviews": 151}, {"name": "Courtyard Boston Waltham", "type": "hotel", "image": "https://dynamic-media-cdn.tripadvisor.com/media/photo-o/2c/0a/08/a1/exterior.jpg?w=1000&s=1", "address": "387 Winter St, Waltham, MA 02451-8714", "lat": 42.39815, "lng": -71.25931, "ref_id": 254772, "rating": 4.5, "num_reviews": 0, "website": "https://www.marriott.com/en-us/hotels/boswm-courtyard-boston-waltham/overview/?scid=45f93f1b-bd77-45c9-8dab-83b6a417f6fe&y_source=1_MjgxOTI4NC03NjktbG9jYXRpb24ud2Vic2l0ZQ%3D%3D", "contact_phone": "+1 781-419-0900", "contact_email": "cy.boswm.gm@marriott.com", "status": 1, "source_type": 1, "numberReviews": 430}, {"name": "Element Lexington", "type": "hotel", "image": "https://dynamic-media-cdn.tripadvisor.com/media/photo-o/2b/ff/a7/0c/guest-room.jpg?w=1000&s=1", "address": "727 Marrett Rd # B, Lexington, MA 02421-7311", "lat": 42.445263, "lng": -71.25953, "ref_id": 1027461, "rating": 4, "num_reviews": 0, "website": "https://www.marriott.com/en-us/hotels/bosex-element-lexington/overview/?scid=45f93f1b-bd77-45c9-8dab-83b6a417f6fe&y_source=1_MTUwMjk4MS03NjktbG9jYXRpb24ud2Vic2l0ZQ%3D%3D", "contact_phone": "+1 781-761-1750", "contact_email": null, "status": 1, "source_type": 1, "numberReviews": 577}, {"name": "La Quinta Inn & Suites by Wyndham Sturbridge", "type": "hotel", "image": "https://dynamic-media-cdn.tripadvisor.com/media/photo-o/2b/0b/d5/32/exterior.jpg?w=1000&s=1", "address": "478 Main St, Sturbridge, MA 01518-1290", "lat": 42.114487, "lng": -72.10536, "ref_id": 94040, "rating": 3.5, "num_reviews": 0, "website": "https://www.wyndhamhotels.com/laquinta/sturbridge-massachusetts/la-quinta-sturbridge/overview?CID=LC:LQ::GGL:RIO:National:52912&iata=00093796", "contact_phone": "+1 508-347-5141", "contact_email": "", "status": 1, "source_type": 1, "numberReviews": 323}, {"name": "Springhill Suites Boston Andover", "type": "hotel", "image": "https://dynamic-media-cdn.tripadvisor.com/media/photo-o/2a/1e/b5/e0/springhill-suites-boston.jpg?w=1000&s=1", "address": "550 Minuteman Road, Andover, MA 01810", "lat": 42.698055, "lng": -71.21329, "ref_id": 223989, "rating": 4, "num_reviews": 0, "website": "https://www.marriott.com/en-us/hotels/bosav-springhill-suites-boston-andover/overview/?scid=45f93f1b-bd77-45c9-8dab-83b6a417f6fe&y_source=1_NjUwNDY2LTc2OS1sb2NhdGlvbi53ZWJzaXRl", "contact_phone": "+1 978-688-8200", "contact_email": "", "status": 1, "source_type": 1, "numberReviews": 297}, {"name": "Cape Ann Motor Inn", "type": "hotel", "image": "https://dynamic-media-cdn.tripadvisor.com/media/photo-o/10/02/0e/c8/long-beach-stretches.jpg?w=1000&s=1", "address": "33 Rockport Rd, Gloucester, MA 01930-1917", "lat": 42.62638, "lng": -70.62017, "ref_id": 115978, "rating": 3.5, "num_reviews": 0, "website": "http://capeannmotorinn.com/", "contact_phone": "+1 978-281-2900", "contact_email": "info@capeannmotorinn.com", "status": 1, "source_type": 1, "numberReviews": 273}, {"name": "TownePlace Suites by Marriott Westport", "type": "hotel", "image": "https://dynamic-media-cdn.tripadvisor.com/media/photo-o/2c/17/23/d0/exterior.jpg?w=1000&s=1", "address": "41 Old Bedford Road, Westport, MA 02790", "lat": 41.678986, "lng": -71.11276, "ref_id": 21059704, "rating": 4, "num_reviews": 0, "website": "https://www.marriott.com/hotels/fact-sheet/travel/bostp-towneplace-suites-westport/", "contact_phone": "+1 774-520-1700", "contact_email": null, "status": 1, "source_type": 1, "numberReviews": 80}, {"name": "Mirbeau Inn & Spa Plymouth", "type": "hotel", "image": "https://dynamic-media-cdn.tripadvisor.com/media/photo-o/10/65/d6/30/mirbeau-inn-spa-at-the.jpg?w=1000&s=1", "address": "35 Landmark Dr off Rt 3, exit 7 , to Clark Road, Plymouth, MA 02360-7719", "lat": 41.88108, "lng": -70.598145, "ref_id": 6847426, "rating": 4.5, "num_reviews": 0, "website": "http://plymouth.mirbeau.com/", "contact_phone": "+1 877-647-2328", "contact_email": "info@mirbeau.com", "status": 1, "source_type": 1, "numberReviews": 921}, {"name": "Comfort Inn Randolph - Boston", "type": "hotel", "image": "https://dynamic-media-cdn.tripadvisor.com/media/photo-o/1c/cb/a5/64/hotel-exterior.jpg?w=1000&s=1", "address": "1374 N Main St, Randolph, MA 02368-1731", "lat": 42.201744, "lng": -71.063576, "ref_id": 89827, "rating": 3.5, "num_reviews": 0, "website": "http://www.comfortinn.com/hotel-randolph-massachusetts-MA193", "contact_phone": "+1 781-961-1000", "contact_email": "bwilkinson@jitenhm.com", "status": 1, "source_type": 1, "numberReviews": 200}, {"name": "Hilton Garden Inn Boston Canton", "type": "hotel", "image": "https://dynamic-media-cdn.tripadvisor.com/media/photo-o/2a/8d/b0/e6/exterior.jpg?w=1000&s=1", "address": "110 Royall St, Canton, MA 02021-1010", "lat": 42.206932, "lng": -71.127464, "ref_id": 23006803, "rating": 4.5, "num_reviews": 0, "website": "http://www.hilton.com/en/hotels/bosctgi-hilton-garden-inn-boston-canton/", "contact_phone": "+1 781-828-3600", "contact_email": null, "status": 1, "source_type": 1, "numberReviews": 74}, {"name": "Residence Inn Boston Logan Airport/Chelsea", "type": "hotel", "image": "https://dynamic-media-cdn.tripadvisor.com/media/photo-o/2c/15/ce/9d/lobby.jpg?w=1000&s=1", "address": "200 Maple Street, Chelsea, MA 02150", "lat": 42.39808, "lng": -71.03896, "ref_id": 3369742, "rating": 4.5, "num_reviews": 0, "website": "https://www.marriott.com/en-us/hotels/boscr-residence-inn-boston-logan-airport-chelsea/overview/?scid=45f93f1b-bd77-45c9-8dab-83b6a417f6fe&y_source=1_Mzg4OTk5MC03NjktbG9jYXRpb24ud2Vic2l0ZQ%3D%3D", "contact_phone": "+1 617-889-9990", "contact_email": null, "status": 1, "source_type": 1, "numberReviews": 706}, {"name": "Boston Dorchester", "type": "hotel", "image": "https://dynamic-media-cdn.tripadvisor.com/media/partner/bookingcom/photo-o/2b/9f/df/12/caption.jpg?w=1000&s=1", "address": "60 Ridgewood Street, Boston, MA 02122", "lat": 42.302456, "lng": -71.06494, "ref_id": 27170499, "rating": -1, "num_reviews": 0, "website": null, "contact_phone": null, "contact_email": null, "status": 1, "source_type": 1, "numberReviews": 0}, {"name": "Mount Holyoke Inn", "type": "hotel", "image": "https://dynamic-media-cdn.tripadvisor.com/media/partner/bookingcom/photo-o/2c/3d/75/1f/caption.jpg?w=1000&s=1", "address": "671 Northampton Street, South Hadley, MA 01040", "lat": 42.254005, "lng": -72.61678, "ref_id": 27700456, "rating": -1, "num_reviews": 0, "website": null, "contact_phone": "+1 413-536-3377", "contact_email": null, "status": 1, "source_type": 1, "numberReviews": 0}, {"name": "White Elephant Village", "type": "hotel", "image": null, "address": "19 N Water St Nantucket Downtown Historic District, Nantucket, MA 2554", "lat": 41.2875, "lng": -70.09897, "ref_id": 26628647, "rating": -1, "num_reviews": 0, "website": "https://www.facebook.com/WhiteElephantResidences/", "contact_phone": "+1 508-228-1500", "contact_email": "inquiries@whiteelephantnantucket.com", "status": 1, "source_type": 1, "numberReviews": 0}, {"name": "Bay Village Suites", "type": "hotel", "image": null, "address": "5 Cortes Street, Boston, MA 2116", "lat": 42.34829, "lng": -71.07045, "ref_id": 27157046, "rating": -1, "num_reviews": 0, "website": null, "contact_phone": null, "contact_email": null, "status": 1, "source_type": 1, "numberReviews": 0}, {"name": "Cambridge Smart House", "type": "hotel", "image": null, "address": "281 Rindge Ave Unit 1, Cambridge, MA 02140-3213", "lat": 42.39373, "lng": -71.13549, "ref_id": 16639087, "rating": -1, "num_reviews": 0, "website": null, "contact_phone": null, "contact_email": null, "status": 1, "source_type": 1, "numberReviews": 0}, {"name": "Foolhardy Hill", "type": "hotel", "image": "https://dynamic-media-cdn.tripadvisor.com/media/photo-o/2a/8f/d9/f1/the-absolute-perfect.jpg?w=1000&s=1", "address": "232 Zoar Rd, Charlemont, MA", "lat": 42.62762, "lng": -72.87663, "ref_id": 26727077, "rating": -1, "num_reviews": 0, "website": "https://www.foolhardyhill.com/", "contact_phone": null, "contact_email": null, "status": 1, "source_type": 1, "numberReviews": 0}, {"name": "The Buoy House Bed & Breakfast", "type": "hotel", "image": null, "address": "106 Cottontail Rd, Wellfleet, MA 02667-8015", "lat": 41.91894, "lng": -70.00091, "ref_id": 3332200, "rating": -1, "num_reviews": 0, "website": "http://www.thebuoyhouse.com", "contact_phone": "+1 508-349-2113", "contact_email": null, "status": 1, "source_type": 1, "numberReviews": 0}, {"name": "Pine Oak Village Cottages", "type": "hotel", "image": null, "address": "Cockle Cove Road, South Chatham, Chatham, MA 02659", "lat": 41.67792, "lng": -70.0151, "ref_id": 293658, "rating": -1, "num_reviews": 0, "website": null, "contact_phone": "+1 508-432-0892", "contact_email": "", "status": 1, "source_type": 1, "numberReviews": 0}, {"name": "Bluebird Suites at West End", "type": "hotel", "image": null, "address": "4 Emerson Pl, Boston, MA 02114-2275", "lat": 42.36417, "lng": -71.0685, "ref_id": 15685587, "rating": -1, "num_reviews": 0, "website": null, "contact_phone": null, "contact_email": null, "status": 1, "source_type": 1, "numberReviews": 0}, {"name": "Kendall Square Apartments by Next Star", "type": "hotel", "image": "https://dynamic-media-cdn.tripadvisor.com/media/partner/bookingcom/photo-o/1c/94/e6/93/2174648.jpg?w=1000&s=1", "address": "175 3rd St, Cambridge, MA 02141-2165", "lat": 42.36812, "lng": -71.08085, "ref_id": 17757473, "rating": -1, "num_reviews": 0, "website": null, "contact_phone": null, "contact_email": null, "status": 1, "source_type": 1, "numberReviews": 0}, {"name": "Global Luxury Suites at The Financial District", "type": "hotel", "image": "https://dynamic-media-cdn.tripadvisor.com/media/photo-o/15/c4/dc/69/getlstd-property-photo.jpg?w=1000&s=1", "address": "120 Kingston St, Boston, MA 02111-2157", "lat": 42.35221, "lng": -71.05905, "ref_id": 15641127, "rating": -1, "num_reviews": 0, "website": "http://www.globalluxurysuites.com/accommodation/massachusetts/boston-massachusetts/global-luxury-suites-at-the-financial-district/", "contact_phone": "+1 844-893-3465", "contact_email": null, "status": 1, "source_type": 1, "numberReviews": 0}, {"name": "Capeway Motel", "type": "hotel", "image": null, "address": "149 Washington St, Norwell, MA 02061-1711", "lat": 42.16966, "lng": -70.87542, "ref_id": 1007888, "rating": -1, "num_reviews": 0, "website": "http://capewaymotel.com/", "contact_phone": "", "contact_email": "", "status": 1, "source_type": 1, "numberReviews": 0}, {"name": "Wildflower Inn", "type": "hotel", "image": "https://dynamic-media-cdn.tripadvisor.com/media/partner/bookingcom/photo-o/2c/76/f3/db/caption.jpg?w=1000&s=1", "address": "7 Cushing Drive, Plymouth, MA 02360", "lat": 41.9186, "lng": -70.55454, "ref_id": 26862600, "rating": -1, "num_reviews": 0, "website": "https://www.facebook.com/wildflowerinnplymouth", "contact_phone": "+1 508-591-5150", "contact_email": null, "status": 1, "source_type": 1, "numberReviews": 0}, {"name": "Kiss Flower Farm", "type": "hotel", "image": null, "address": "11 Norwell Ave, Norwell, MA 02061-1215", "lat": 42.17373, "lng": -70.81726, "ref_id": 19090010, "rating": -1, "num_reviews": 0, "website": "https://www.kissflowerfarm.com/", "contact_phone": "+1 781-659-1838", "contact_email": "kissflowerfarm@gmail.com", "status": 1, "source_type": 1, "numberReviews": 0}, {"name": "Sumner House", "type": "hotel", "image": null, "address": "5 Church Rd, Shrewsbury, MA 01545-1836", "lat": 42.29679, "lng": -71.71437, "ref_id": 1634201, "rating": -1, "num_reviews": 0, "website": "http://www.sumnerhouse.com/", "contact_phone": "+1 508-845-6446", "contact_email": "info@sumnerhouse.com", "status": 1, "source_type": 1, "numberReviews": 0}, {"name": "Global Luxury Suites at The Theatre District", "type": "hotel", "image": "https://dynamic-media-cdn.tripadvisor.com/media/photo-o/15/c4/e1/cd/getlstd-property-photo.jpg?w=1000&s=1", "address": "99 Kneeland St, Boston, MA 02111-2431", "lat": 42.34994, "lng": -71.06011, "ref_id": 15641102, "rating": -1, "num_reviews": 0, "website": "http://www.globalluxurysuites.com/accommodation/massachusetts/boston-massachusetts/global-luxury-suites-at-the-theatre-district/", "contact_phone": "+1 844-893-3465", "contact_email": null, "status": 1, "source_type": 1, "numberReviews": 0}, {"name": "Elegant Suites in Westland Avenue", "type": "hotel", "image": null, "address": "43 Westland Ave, Boston, MA", "lat": 42.343895, "lng": -71.08799, "ref_id": 26578356, "rating": -1, "num_reviews": 0, "website": null, "contact_phone": null, "contact_email": null, "status": 1, "source_type": 1, "numberReviews": 0}, {"name": "Churchill at Watermark Kendall West", "type": "hotel", "image": null, "address": "350 3rd St 5th Floor, Cambridge, MA 02142-1136", "lat": 42.36363, "lng": -71.08305, "ref_id": 23292841, "rating": -1, "num_reviews": 0, "website": null, "contact_phone": null, "contact_email": null, "status": 1, "source_type": 1, "numberReviews": 0}, {"name": "Gordon's 1841 House Bed and Breakfast", "type": "hotel", "image": null, "address": "15 Washington St, Beverly, MA 01915-5819", "lat": 42.54603, "lng": -70.87878, "ref_id": 1206632, "rating": -1, "num_reviews": 0, "website": "http://www.gordonfabrics.com/BB.htm", "contact_phone": "+1 978-921-2612", "contact_email": "gordons@theothreads.com", "status": 1, "source_type": 1, "numberReviews": 0}, {"name": "Red Fox Motel", "type": "hotel", "image": null, "address": "96 Washington St, Foxborough, MA 02035", "lat": 42.083893, "lng": -71.27677, "ref_id": 26787139, "rating": -1, "num_reviews": 0, "website": "http://www.redfoxmotelfoxborough.us", "contact_phone": "+1 508-543-5000", "contact_email": null, "status": 1, "source_type": 1, "numberReviews": 0}, {"name": "Lake Dean Campground", "type": "hotel", "image": null, "address": "717 N Brookfield Rd, Oakham, MA 01068-9680", "lat": 42.34992, "lng": -72.02784, "ref_id": 1636401, "rating": -1, "num_reviews": 0, "website": null, "contact_phone": "+1 508-882-3125", "contact_email": "", "status": 1, "source_type": 1, "numberReviews": 0}, {"name": "Ocean Spray Inn", "type": "hotel", "image": null, "address": "48 Winthrop Shore Dr, Winthrop, MA 02152-1302", "lat": 42.37231, "lng": -70.96894, "ref_id": 272359, "rating": -1, "num_reviews": 0, "website": null, "contact_phone": "+1 617-539-3487", "contact_email": "", "status": 1, "source_type": 1, "numberReviews": 0}, {"name": "The Dexter", "type": "hotel", "image": null, "address": "92 Main St, Vineyard Haven, Martha&#39;s Vineyard, MA 02568-5413", "lat": 41.45624, "lng": -70.60334, "ref_id": 21292379, "rating": -1, "num_reviews": 0, "website": "https://www.facebook.com/thedextermv/", "contact_phone": "+1 978-771-7133", "contact_email": null, "status": 1, "source_type": 1, "numberReviews": 0}, {"name": "Country View Motel", "type": "hotel", "image": null, "address": "1344 Main Rd, Westport, MA 02790-4401", "lat": 41.55167, "lng": -71.09276, "ref_id": 272347, "rating": -1, "num_reviews": 0, "website": null, "contact_phone": "+1 508-636-2281", "contact_email": "", "status": 1, "source_type": 1, "numberReviews": 0}, {"name": "Rio68", "type": "hotel", "image": null, "address": "68 Beacon St # 2, Somerville, MA 02143-4322", "lat": 42.376286, "lng": -71.10413, "ref_id": 19976560, "rating": -1, "num_reviews": 0, "website": null, "contact_phone": null, "contact_email": null, "status": 1, "source_type": 1, "numberReviews": 0}, {"name": "Noah's Ark B&B", "type": "hotel", "image": "https://dynamic-media-cdn.tripadvisor.com/media/photo-o/1b/4f/49/c6/front-of-house.jpg?w=1000&s=1", "address": "1070 State Rd, Westminster, MA 01473", "lat": 41.37995, "lng": -70.6742, "ref_id": 272336, "rating": -1, "num_reviews": 0, "website": "", "contact_phone": "+1 978-874-6334", "contact_email": "", "status": 1, "source_type": 1, "numberReviews": 0}, {"name": "The Secret Garden", "type": "hotel", "image": null, "address": "17 Waushacum St, West Boylston, MA 01583-1137", "lat": 42.39224, "lng": -71.7925, "ref_id": 272320, "rating": -1, "num_reviews": 0, "website": null, "contact_phone": "+1 508-835-9036", "contact_email": "", "status": 1, "source_type": 1, "numberReviews": 0}, {"name": "Global Luxury Suites at the Commonwealth", "type": "hotel", "image": "https://dynamic-media-cdn.tripadvisor.com/media/photo-o/15/c7/5b/3e/getlstd-property-photo.jpg?w=1000&s=1", "address": "1 Longfellow Pl, Boston, MA 02114-2438", "lat": 42.36391, "lng": -71.0647, "ref_id": 15647517, "rating": -1, "num_reviews": 0, "website": "http://www.globalluxurysuites.com/accommodation/massachusetts/boston-massachusetts/global-luxury-suites-at-the-commonwealth/", "contact_phone": "+1 855-410-0065", "contact_email": null, "status": 1, "source_type": 1, "numberReviews": 0}, {"name": "Appleton House Bed & Breakfast", "type": "hotel", "image": null, "address": "455 Chapel St, Lee, MA 01238-9490", "lat": 42.29654, "lng": -73.22603, "ref_id": 1206226, "rating": -1, "num_reviews": 0, "website": null, "contact_phone": "", "contact_email": "", "status": 1, "source_type": 1, "numberReviews": 0}, {"name": "Amazing New Apartment Near Boston", "type": "hotel", "image": null, "address": "953 Western Ave # 301, Lynn, MA 01905-2640", "lat": 42.4565, "lng": -70.97293, "ref_id": 15660954, "rating": -1, "num_reviews": 0, "website": null, "contact_phone": null, "contact_email": null, "status": 1, "source_type": 1, "numberReviews": 0}, {"name": "Greyfinch Chatham Inn", "type": "hotel", "image": "https://dynamic-media-cdn.tripadvisor.com/media/photo-o/29/79/c3/38/greyfinch-chatham-inn.jpg?w=1000&s=1", "address": "946 Main St, Chatham, MA 02633-1865", "lat": 41.68722, "lng": -69.97017, "ref_id": 226540, "rating": 4, "num_reviews": 0, "website": "www.greyfinchchatham.com", "contact_phone": "+1 508-945-9038", "contact_email": "hello@greyfinchchatham.com", "status": 1, "source_type": 1, "numberReviews": 18}, {"name": "Fairfield by Marriott Inn & Suites Boston Medford", "type": "hotel", "image": "https://dynamic-media-cdn.tripadvisor.com/media/photo-o/1d/79/ad/ec/fairfield-inn-suites.jpg?w=1000&s=1", "address": "85 Station Landing, Medford, MA 02155", "lat": 42.40261, "lng": -71.08172, "ref_id": 23341221, "rating": 4, "num_reviews": 0, "website": "https://www.marriott.com/en-us/hotels/bosfo-fairfield-boston-medford/overview/?scid=45f93f1b-bd77-45c9-8dab-83b6a417f6fe&y_source=1_MjAxODY1NjYtNzY5LWxvY2F0aW9uLndlYnNpdGU%3D", "contact_phone": "+1 339-707-0203", "contact_email": null, "status": 1, "source_type": 1, "numberReviews": 18}, {"name": "Fairfield Inn & Suites Boston Waltham", "type": "hotel", "image": "https://dynamic-media-cdn.tripadvisor.com/media/photo-o/2c/16/be/f5/exterior.jpg?w=1000&s=1", "address": "250 Second Avenue, Waltham, MA 02451", "lat": 42.389156, "lng": -71.26243, "ref_id": 14915222, "rating": 4, "num_reviews": 0, "website": "https://www.marriott.com/en-us/hotels/boswl-fairfield-inn-and-suites-boston-waltham/overview/?scid=45f93f1b-bd77-45c9-8dab-83b6a417f6fe&y_source=1_OTkzMDYzNy03NjktbG9jYXRpb24ud2Vic2l0ZQ%3D%3D", "contact_phone": "+1 781-202-5150", "contact_email": null, "status": 1, "source_type": 1, "numberReviews": 54}, {"name": "Green Harbor Hotel", "type": "hotel", "image": "https://dynamic-media-cdn.tripadvisor.com/media/photo-o/2b/ec/db/12/caption.jpg?w=1000&s=1", "address": "7 Old Plain St, Marshfield, MA 02050-2826", "lat": 42.09578, "lng": -70.71857, "ref_id": 1119251, "rating": 5, "num_reviews": 0, "website": "https://www.facebook.com/profile.php?id=61558140002458&mibextid=LQQJ4d", "contact_phone": "+1 781-733-1327", "contact_email": "Marshfieldhotel@gmail.com", "status": 1, "source_type": 1, "numberReviews": 6}, {"name": "Howard Johnson by Wyndham Lenox", "type": "hotel", "image": "https://dynamic-media-cdn.tripadvisor.com/media/photo-o/25/2d/41/a1/welcome-to-the-howard.jpg?w=1000&s=1", "address": "462 Pittsfield Rd, Lenox, MA 01240-2902", "lat": 42.40242, "lng": -73.26552, "ref_id": 94154, "rating": 3.5, "num_reviews": 0, "website": "http://www.wyndhamhotels.com/hotels/06966?tel=18004674600&iata=00065402&cid=fe:hj:20180128:tabl:pp:hjus:06966&checkin_date={{ci:MM/dd/yyyy}}&checkout_date={{co:MM/dd/yyyy}}&children={{nc}}&adults={{na}}&rooms={{nr}}&checkin_date={{ci:MM/dd/yyyy}}&checkout_date={{co:MM/dd/yyyy}}&children={{nc}}&adults={{na}}&rooms={{nr}}", "contact_phone": "+1 413-442-4000", "contact_email": null, "status": 1, "source_type": 1, "numberReviews": 485}, {"name": "The Walker Center", "type": "hotel", "image": "https://dynamic-media-cdn.tripadvisor.com/media/photo-o/10/1e/28/d9/the-walker-center.jpg?w=1000&s=1", "address": "144 Hancock St Auburndale, Newton, MA 02466-2256", "lat": 42.341526, "lng": -71.250916, "ref_id": 6216528, "rating": 4, "num_reviews": 0, "website": "http://www.walkerctr.org", "contact_phone": "+1 617-447-1417", "contact_email": "reservations@walkerctr.org", "status": 1, "source_type": 1, "numberReviews": 25}, {"name": "Fairview Inn", "type": "hotel", "image": "https://dynamic-media-cdn.tripadvisor.com/media/photo-o/06/87/96/95/fairview-inn.jpg?w=1000&s=1", "address": "133 Ocean St, Marshfield, MA 02050-5213", "lat": 42.087482, "lng": -70.64016, "ref_id": 3197976, "rating": 4, "num_reviews": 0, "website": "http://thefairviewinn.com", "contact_phone": "+1 781-834-9144", "contact_email": null, "status": 1, "source_type": 1, "numberReviews": 60}, {"name": "Prospect Mountain Campground", "type": "hotel", "image": "https://dynamic-media-cdn.tripadvisor.com/media/photo-o/04/59/4e/3b/cabin-2-on-peter-s-pond.jpg?w=1000&s=1", "address": "1349 Main Rd Route 57, Granville, MA 01034-9707", "lat": 42.07706, "lng": -72.92247, "ref_id": 2258675, "rating": 4, "num_reviews": 0, "website": "http://www.prospectmtncampground.com", "contact_phone": "+1 888-550-4762", "contact_email": "info@prospectmtncampground.com", "status": 1, "source_type": 1, "numberReviews": 68}, {"name": "Parkers River Resort", "type": "hotel", "image": "https://dynamic-media-cdn.tripadvisor.com/media/photo-s/02/cb/08/4c/parkers-river-resort.jpg?w=1000&s=1", "address": "759 Route 28, South Yarmouth, Yarmouth, MA 02664-5101", "lat": 41.650173, "lng": -70.21942, "ref_id": 1488675, "rating": 4, "num_reviews": 0, "website": "http://www.parkersriverresort.com/", "contact_phone": "+1 508-398-2880", "contact_email": "parkersriverresort@comcast.net", "status": 1, "source_type": 1, "numberReviews": 55}, {"name": "Adventure Bound Camping Resort - Cape Cod", "type": "hotel", "image": "https://dynamic-media-cdn.tripadvisor.com/media/photo-s/02/ab/2a/31/filename-dscn5465-jpg.jpg?w=1000&s=1", "address": "46 Highland Road, North Truro, MA 02652", "lat": 42.037865, "lng": -70.075386, "ref_id": 1486446, "rating": 3.5, "num_reviews": 0, "website": "http://www.abcamping.com/abcapecod/", "contact_phone": "+1 508-487-1847", "contact_email": "info@abcamping.com", "status": 1, "source_type": 1, "numberReviews": 108}, {"name": "Colonel Blackinton Inn", "type": "hotel", "image": "https://dynamic-media-cdn.tripadvisor.com/media/photo-o/0f/2f/e6/41/breakfast-sandwich-bagel.jpg?w=1000&s=1", "address": "203 N Main St, Attleboro, MA 02703-1749", "lat": 41.95043, "lng": -71.28975, "ref_id": 655037, "rating": 4.5, "num_reviews": 0, "website": "http://www.colblackintoninn.com/", "contact_phone": "+1 508-222-6022", "contact_email": "", "status": 1, "source_type": 1, "numberReviews": 31}, {"name": "Holiday Inn Express & Suites Norwood-Boston Area, an IHG Hotel", "type": "hotel", "image": "https://dynamic-media-cdn.tripadvisor.com/media/photo-o/2c/1c/e4/4a/welcome-to-the-holiday.jpg?w=1000&s=1", "address": "225 Norwood Park S, Norwood, MA 02062-7625", "lat": 42.168987, "lng": -71.199455, "ref_id": 8300974, "rating": 3.5, "num_reviews": 0, "website": "https://www.ihg.com/holidayinnexpress/hotels/us/en/norwood/owdes/hoteldetail?cm_mmc=YextLocal-_-EX-_-US-_-OWDES", "contact_phone": "+1 781-769-0060", "contact_email": "fd@hiexnorwood.com", "status": 1, "source_type": 1, "numberReviews": 140}, {"name": "Bluegreen The Breakers Resort", "type": "hotel", "image": "https://dynamic-media-cdn.tripadvisor.com/media/photo-o/2b/89/1e/5b/hotel-exterior.jpg?w=1000&s=1", "address": "61 Chase Ave, Dennis Port, Dennis, MA 02639-2627", "lat": 41.655937, "lng": -70.12083, "ref_id": 289612, "rating": 3.5, "num_reviews": 0, "website": "https://www.bluegreenvacations.com/resorts/massachusetts/breakers-resort/?y_source=1_OTAwMDM0MS03NjktbG9jYXRpb24ud2Vic2l0ZQ%3D%3D", "contact_phone": "+1 508-398-6905", "contact_email": "ihelp@choicehotels.com", "status": 1, "source_type": 1, "numberReviews": 152}, {"name": "Bourke Shire Farm Bed and Breakfast", "type": "hotel", "image": "https://dynamic-media-cdn.tripadvisor.com/media/photo-o/08/d4/8c/35/bourke-shire-farm-bed.jpg?w=1000&s=1", "address": "15 South Rd, Heath, MA 01346-9708", "lat": 42.67061, "lng": -72.82189, "ref_id": 8278196, "rating": 5, "num_reviews": 0, "website": "http://www.bourkeshirefarm.com", "contact_phone": "+1 413-339-4015", "contact_email": "info@bourkeshirefarm.com", "status": 1, "source_type": 1, "numberReviews": 16}, {"name": "Blue Sea Motor Inn", "type": "hotel", "image": "https://dynamic-media-cdn.tripadvisor.com/media/photo-o/0c/ba/15/2b/bbq-disponible.jpg?w=1000&s=1", "address": "696 Shore Road Route 6A, North Truro, MA 02652", "lat": 42.062904, "lng": -70.146194, "ref_id": 1138160, "rating": 3.5, "num_reviews": 0, "website": "http://www.blueseamotorinn.com/", "contact_phone": "+1 508-487-1041", "contact_email": "BlueSeaMotorInn@gmail.com", "status": 1, "source_type": 1, "numberReviews": 153}, {"name": "Cape Cod Wishing Well", "type": "hotel", "image": "https://dynamic-media-cdn.tripadvisor.com/media/photo-s/02/3a/fa/eb/enjoy-the-pool.jpg?w=1000&s=1", "address": "212 Route 28, West Harwich, Harwich, MA 02671-1220", "lat": 41.66936, "lng": -70.1033, "ref_id": 89723, "rating": 4, "num_reviews": 0, "website": null, "contact_phone": "+1 508-432-2150", "contact_email": "info@capecodwishingwell.com", "status": 1, "source_type": 1, "numberReviews": 59}, {"name": "Quality Inn", "type": "hotel", "image": "https://dynamic-media-cdn.tripadvisor.com/media/photo-o/1d/f2/7f/fc/hotel-exterior.jpg?w=1000&s=1", "address": "170 Housatonic St, Lee, MA 01238-1328", "lat": 42.30034, "lng": -73.24312, "ref_id": 23165169, "rating": 4, "num_reviews": 0, "website": "https://www.choicehotels.com/massachusetts/lee/quality-inn-hotels/ma209", "contact_phone": "+1 413-243-0143", "contact_email": null, "status": 1, "source_type": 1, "numberReviews": 19}, {"name": "The Inn at Newburyport", "type": "hotel", "image": "https://dynamic-media-cdn.tripadvisor.com/media/photo-o/04/8b/e4/06/the-inn-at-newburyport.jpg?w=1000&s=1", "address": "32 Market St, Newburyport, MA 01950-2526", "lat": 42.81125, "lng": -70.87538, "ref_id": 4263138, "rating": 4.5, "num_reviews": 0, "website": "http://www.theinnatnewburyport.com/wp", "contact_phone": "+1 978-961-1690", "contact_email": "theinnatnew@yahoo.com", "status": 1, "source_type": 1, "numberReviews": 22}, {"name": "Joy House Bed and Breakfast", "type": "hotel", "image": "https://dynamic-media-cdn.tripadvisor.com/media/photo-o/07/9e/9f/36/joy-house-inc-bed-and.jpg?w=1000&s=1", "address": "181 Depot St, Dennis Port, Dennis, MA 02639-1705", "lat": 41.66556, "lng": -70.12653, "ref_id": 77682, "rating": 4.5, "num_reviews": 0, "website": "http://www.joyhousecapecod.com/", "contact_phone": "+1 877-569-4687", "contact_email": "sales@joyhousecapecod.com", "status": 1, "source_type": 1, "numberReviews": 21}, {"name": "Annabelle Bed and Breakfast", "type": "hotel", "image": "https://dynamic-media-cdn.tripadvisor.com/media/photo-o/04/a2/c7/e4/annabelle-bed-and-breakfast.jpg?w=1000&s=1", "address": "4 Grove St, Sandwich, MA 02563-2124", "lat": 41.75777, "lng": -70.50098, "ref_id": 2587771, "rating": 4.5, "num_reviews": 0, "website": "http://www.annabellebedandbreakfast.com/", "contact_phone": "+1 561-222-1318", "contact_email": "information@annabellebedandbreakfast.com", "status": 1, "source_type": 1, "numberReviews": 27}, {"name": "Bayshore/Chandler House", "type": "hotel", "image": "https://dynamic-media-cdn.tripadvisor.com/media/photo-s/02/6d/1b/bd/filename-2012-04-07-11.jpg?w=1000&s=1", "address": "493 Commercial St, Provincetown, MA 02657-2449", "lat": 42.057144, "lng": -70.17742, "ref_id": 115024, "rating": 4.5, "num_reviews": 0, "website": "http://www.bayshorechandler.com/", "contact_phone": "+1 508-487-9133", "contact_email": "Info@BayshoreChandler.Com", "status": 1, "source_type": 1, "numberReviews": 50}, {"name": "Courtyard Resort", "type": "hotel", "image": "https://dynamic-media-cdn.tripadvisor.com/media/photo-o/28/ef/c1/0f/courtyard-resort.jpg?w=1000&s=1", "address": "125 North St Rear of parking lot enters onto Main street, Hyannis, MA 02601-3807", "lat": 41.652737, "lng": -70.28726, "ref_id": 1500270, "rating": 3.5, "num_reviews": 0, "website": "http://cyrhyannis.com/", "contact_phone": "+1 877-867-6504", "contact_email": "frontdesk@cyrhyannis.com", "status": 1, "source_type": 1, "numberReviews": 138}, {"name": "Harwichport Resort Club", "type": "hotel", "image": "https://dynamic-media-cdn.tripadvisor.com/media/photo-o/2b/90/66/b3/caption.jpg?w=1000&s=1", "address": "558 Massachusetts 28, Harwich Port, Harwich, MA 02646", "lat": 41.66877, "lng": -70.0739, "ref_id": 25729800, "rating": 5, "num_reviews": 0, "website": "https://www.harwichportresort.com/", "contact_phone": "+1 508-432-2424", "contact_email": "harwichportresort@comcast.net", "status": 1, "source_type": 1, "numberReviews": 5}, {"name": "Bow Roof House", "type": "hotel", "image": "https://dynamic-media-cdn.tripadvisor.com/media/photo-o/06/39/32/21/room-with-twin-beds.jpg?w=1000&s=1", "address": "59 Queen Anne Rd, Chatham, MA 02633-1832", "lat": 41.683952, "lng": -69.96589, "ref_id": 1643577, "rating": 4.5, "num_reviews": 0, "website": null, "contact_phone": "+1 508-945-1346", "contact_email": "", "status": 1, "source_type": 1, "numberReviews": 21}, {"name": "The Yachtsman Condominium Rentals", "type": "hotel", "image": "https://dynamic-media-cdn.tripadvisor.com/media/photo-o/0e/2a/ce/e4/the-yachtsman-condominium.jpg?w=1000&s=1", "address": "500 Ocean St Unit 14, Hyannis, MA 02601-4763", "lat": 41.638866, "lng": -70.27978, "ref_id": 1227328, "rating": 4.5, "num_reviews": 0, "website": null, "contact_phone": "+1 508-771-5454", "contact_email": "caperent@comcast.net", "status": 1, "source_type": 1, "numberReviews": 23}, {"name": "Marblehead Summer House", "type": "hotel", "image": "https://dynamic-media-cdn.tripadvisor.com/media/photo-o/06/8c/e0/8b/hershoff-castle-backyard.jpg?w=1000&s=1", "address": "27 Front St, Marblehead, MA 01945-3261", "lat": 42.503353, "lng": -70.84942, "ref_id": 896813, "rating": 4.5, "num_reviews": 0, "website": "http://www.marbleheadsummerhouse.com/", "contact_phone": "+1 803-840-6252", "contact_email": "themarbleheadsummerhouse@yahoo.com", "status": 1, "source_type": 1, "numberReviews": 24}, {"name": "Lorraine Park Campground", "type": "hotel", "image": "https://dynamic-media-cdn.tripadvisor.com/media/photo-o/04/67/6b/d7/the-lake-from-the-end.jpg?w=1000&s=1", "address": "133 Jenkins Rd, Andover, MA 01810-2303", "lat": 42.61028, "lng": -71.09077, "ref_id": 3371315, "rating": 4.5, "num_reviews": 0, "website": "http://www.mass.gov/dcr/parks/northeast/harp.htm", "contact_phone": "+1 978-475-7972", "contact_email": null, "status": 1, "source_type": 1, "numberReviews": 17}, {"name": "Watermark Inn", "type": "hotel", "image": "https://dynamic-media-cdn.tripadvisor.com/media/photo-s/00/12/43/b8/the-watermark-inn.jpg?w=1000&s=1", "address": "603 Commercial St, Provincetown, MA 02657-1723", "lat": 42.059734, "lng": -70.16975, "ref_id": 252023, "rating": 4, "num_reviews": 0, "website": null, "contact_phone": "+1 508-487-0165", "contact_email": "info@watermark-inn.com", "status": 1, "source_type": 1, "numberReviews": 42}, {"name": "Harbor Village", "type": "hotel", "image": "https://dynamic-media-cdn.tripadvisor.com/media/photo-o/08/1f/74/36/harbor-village.jpg?w=1000&s=1", "address": "160 Marston Avenue, Hyannis Port, MA 02647", "lat": 41.63717, "lng": -70.29822, "ref_id": 1227352, "rating": 4.5, "num_reviews": 0, "website": "http://harborvillage.com/reservations.html", "contact_phone": "+1 508-775-7581", "contact_email": "info@harborvillagecapecod.com", "status": 1, "source_type": 1, "numberReviews": 25}, {"name": "Lis Sur Mer", "type": "hotel", "image": "https://dynamic-media-cdn.tripadvisor.com/media/photo-o/15/a2/47/16/lis-sur-mer.jpg?w=1000&s=1", "address": "25 Knowles Heights Road, North Truro, MA 02657", "lat": 42.03974, "lng": -70.10215, "ref_id": 1126644, "rating": 5, "num_reviews": 0, "website": "http://lissurmer.com", "contact_phone": "+1 774-538-9344", "contact_email": "lissurmer@gmail.com", "status": 1, "source_type": 1, "numberReviews": 20}, {"name": "Oceanside Condos", "type": "hotel", "image": "https://dynamic-media-cdn.tripadvisor.com/media/partner/bookingcom/photo-o/2b/d6/a8/b0/caption.jpg?w=1000&s=1", "address": "154 Old Wharf Rd, Dennis Port, Dennis, MA 02639-2304", "lat": 41.65116, "lng": -70.14378, "ref_id": 13442730, "rating": 5, "num_reviews": 0, "website": null, "contact_phone": null, "contact_email": null, "status": 1, "source_type": 1, "numberReviews": 2}, {"name": "The Henley House", "type": "hotel", "image": "https://dynamic-media-cdn.tripadvisor.com/media/photo-o/03/f8/a6/e4/the-henley-house.jpg?w=1000&s=1", "address": "194 Rockland St, Dartmouth, MA 02748-2331", "lat": 41.60014, "lng": -70.95001, "ref_id": 272211, "rating": 5, "num_reviews": 0, "website": null, "contact_phone": "+1 508-991-7210", "contact_email": "", "status": 1, "source_type": 1, "numberReviews": 7}, {"name": "Quality Inn & Suites", "type": "hotel", "image": "https://dynamic-media-cdn.tripadvisor.com/media/photo-o/13/13/79/02/quality-inn-suites-lexington.jpg?w=1000&s=1", "address": "440 Bedford St, Lexington, MA 02420-1547", "lat": 42.473522, "lng": -71.25014, "ref_id": 557053, "rating": 3, "num_reviews": 0, "website": "https://www.choicehotels.com/massachusetts/lexington/quality-inn-hotels/ma147", "contact_phone": "+1 781-861-0850", "contact_email": "hotelhelp@choicehotels.com", "status": 1, "source_type": 1, "numberReviews": 562}, {"name": "Pepper House Inn", "type": "hotel", "image": "https://dynamic-media-cdn.tripadvisor.com/media/photo-s/02/d4/3d/a4/pepper-house-inn.jpg?w=1000&s=1", "address": "2062 Main St Route 6A, Brewster, MA 02631-1899", "lat": 41.7627, "lng": -70.07871, "ref_id": 253002, "rating": 3.5, "num_reviews": 0, "website": "http://www.pepperhouseinn.com/", "contact_phone": "+1 508-896-2062", "contact_email": "info@pepperhouseinn.com", "status": 1, "source_type": 1, "numberReviews": 77}, {"name": "Extended Stay America - Boston - Peabody", "type": "hotel", "image": "https://dynamic-media-cdn.tripadvisor.com/media/photo-o/2a/6a/e3/df/exterior.jpg?w=1000&s=1", "address": "200 Jubilee Dr, Peabody, MA 01960-4007", "lat": 42.524677, "lng": -70.96555, "ref_id": 280378, "rating": 3, "num_reviews": 0, "website": "https://www.extendedstayamerica.com/hotels/ma/boston/peabody", "contact_phone": "+1 978-531-6632", "contact_email": null, "status": 1, "source_type": 1, "numberReviews": 142}, {"name": "Quality Inn", "type": "hotel", "image": "https://dynamic-media-cdn.tripadvisor.com/media/photo-o/0e/ec/9c/38/quality-inn.jpg?w=1000&s=1", "address": "880 Donald Lynch Blvd, Marlborough, MA 01752-4700", "lat": 42.349594, "lng": -71.62194, "ref_id": 89771, "rating": 3, "num_reviews": 0, "website": "http://www.qualityinn.com/hotel-marlborough-massachusetts-MA140?promo=yapici", "contact_phone": "+1 508-460-1000", "contact_email": "hotelhelp@choicehotels.com", "status": 1, "source_type": 1, "numberReviews": 91}, {"name": "Pine Grove Cottages", "type": "hotel", "image": "https://dynamic-media-cdn.tripadvisor.com/media/photo-s/01/1d/44/7e/ma-femme-et-mes-filles.jpg?w=1000&s=1", "address": "358 Route 6a P.O. Box 74, East Sandwich, Sandwich, MA 02537-1442", "lat": 41.74188, "lng": -70.45408, "ref_id": 293661, "rating": 3.5, "num_reviews": 0, "website": "http://www.pinegrovecottages.com/", "contact_phone": "+1 508-888-8179", "contact_email": "", "status": 1, "source_type": 1, "numberReviews": 14}, {"name": "Lamb City Campground", "type": "hotel", "image": "https://dynamic-media-cdn.tripadvisor.com/media/photo-o/04/51/01/3f/playground.jpg?w=1000&s=1", "address": "85 Royalston Rd, Phillipston, MA 01331-9401", "lat": 42.57668, "lng": -72.13128, "ref_id": 1640002, "rating": 3.5, "num_reviews": 0, "website": "http://www.lambcity.com/", "contact_phone": "+1 978-249-2049", "contact_email": "Lambcity@Comcast.net", "status": 1, "source_type": 1, "numberReviews": 43}, {"name": "Howard Johnson by Wyndham Springfield", "type": "hotel", "image": "https://dynamic-media-cdn.tripadvisor.com/media/photo-o/21/9c/c0/77/welcome-to-the-howard.jpg?w=1000&s=1", "address": "1356 Boston Rd, Springfield, MA 01119-1334", "lat": 42.14096, "lng": -72.4987, "ref_id": 94307, "rating": 3, "num_reviews": 0, "website": "http://www.wyndhamhotels.com/hotels/10654?tel=18004674600&iata=00065402&cid=fe:hj:20180128:tabl:pp:hjus:10654&checkin_date={{ci:MM/dd/yyyy}}&checkout_date={{co:MM/dd/yyyy}}&children={{nc}}&adults={{na}}&rooms={{nr}}&checkin_date={{ci:MM/dd/yyyy}}&checkout_date={{co:MM/dd/yyyy}}&children={{nc}}&adults={{na}}&rooms={{nr}}", "contact_phone": "+1 413-783-2111", "contact_email": "", "status": 1, "source_type": 1, "numberReviews": 271}, {"name": "Willits Hallowell Conference Center and Hotel", "type": "hotel", "image": "https://dynamic-media-cdn.tripadvisor.com/media/photo-o/13/7a/74/ae/table-settings.jpg?w=1000&s=1", "address": "50 College St Mount Holyoke College, South Hadley, MA 01075-1423", "lat": 42.25314, "lng": -72.57848, "ref_id": 13165573, "rating": 4.5, "num_reviews": 0, "website": "https://www.mtholyoke.edu/willits/hotel_rooms", "contact_phone": "+1 413-538-2217", "contact_email": null, "status": 1, "source_type": 1, "numberReviews": 3}, {"name": "Colony of Wellfleet", "type": "hotel", "image": "https://dynamic-media-cdn.tripadvisor.com/media/photo-o/17/e9/ba/68/colony-of-wellfleet.jpg?w=1000&s=1", "address": "640 Chequessett Neck Rd, Wellfleet, MA 02667-7325", "lat": 41.93037, "lng": -70.05162, "ref_id": 677148, "rating": 4, "num_reviews": 0, "website": "http://thecolonyofwellfleet.com/index.html", "contact_phone": "+1 508-349-3761", "contact_email": "", "status": 1, "source_type": 1, "numberReviews": 5}, {"name": "Home2 Suites By Hilton Raynham Taunton", "type": "hotel", "image": "https://dynamic-media-cdn.tripadvisor.com/media/photo-o/2b/b4/88/6b/exterior.jpg?w=1000&s=1", "address": "5 Commerce Way, Raynham, MA 02767-1090", "lat": 41.90436, "lng": -71.030106, "ref_id": 19866244, "rating": 3, "num_reviews": 0, "website": "https://www.hilton.com/en/hotels/ewbroht-home2-suites-raynham-taunton/?SEO_id=YEXTN-AMER-HT-EWBROHT&y_source=1_MTUwNjQyNDktNzY5LWxvY2F0aW9uLndlYnNpdGU%3D", "contact_phone": "+1 774-315-1700", "contact_email": null, "status": 1, "source_type": 1, "numberReviews": 36}, {"name": "Dedham Hotel", "type": "hotel", "image": "https://dynamic-media-cdn.tripadvisor.com/media/photo-s/01/15/a0/99/room.jpg?w=1000&s=1", "address": "235 Elm St, Dedham, MA 02026-4528", "lat": 42.227695, "lng": -71.178055, "ref_id": 300479, "rating": 3, "num_reviews": 0, "website": "https://www.marriott.com/en-us/hotels/bosdh-fairfield-inn-boston-dedham/overview/?scid=45f93f1b-bd77-45c9-8dab-83b6a417f6fe&y_source=1_MjgxOTE5OC03NjktbG9jYXRpb24ud2Vic2l0ZQ%3D%3D", "contact_phone": "+1 781-326-6700", "contact_email": "", "status": 1, "source_type": 1, "numberReviews": 327}, {"name": "The Beverly", "type": "hotel", "image": "https://dynamic-media-cdn.tripadvisor.com/media/photo-o/27/5d/e2/c9/the-beverly.jpg?w=1000&s=1", "address": "5 Lakeview Ave, Beverly, MA 01915-1123", "lat": 42.584663, "lng": -70.88522, "ref_id": 23721085, "rating": 3.5, "num_reviews": 0, "website": "https://www.staybeverly.com/", "contact_phone": "+1 978-296-8613", "contact_email": "info@staybeverly.com", "status": 1, "source_type": 1, "numberReviews": 13}, {"name": "UMass Lowell Inn & Conference Center", "type": "hotel", "image": "https://dynamic-media-cdn.tripadvisor.com/media/photo-s/02/ff/65/c9/umass-lowell-inn-and.jpg?w=1000&s=1", "address": "50 Warren St, Lowell, MA 01852-2224", "lat": 42.643772, "lng": -71.30678, "ref_id": 125079, "rating": 3.5, "num_reviews": 0, "website": "http://www.uml.edu/icc", "contact_phone": "+1 978-934-6920", "contact_email": "umliccfrontdesk@gmail.com", "status": 1, "source_type": 1, "numberReviews": 175}, {"name": "Fox Run Bed & Breakfast", "type": "hotel", "image": "https://dynamic-media-cdn.tripadvisor.com/media/photo-s/02/7e/0d/13/filename-fox-run-b-b.jpg?w=1000&s=1", "address": "171 Puritan Rd, Buzzards Bay, Bourne, MA 02532-5603", "lat": 41.75768, "lng": -70.60233, "ref_id": 1206434, "rating": 5, "num_reviews": 0, "website": null, "contact_phone": "", "contact_email": "", "status": 1, "source_type": 1, "numberReviews": 5}, {"name": "The Rose Cottage Bed & Breakfast", "type": "hotel", "image": "https://dynamic-media-cdn.tripadvisor.com/media/photo-o/01/60/bf/15/winter-at-the-rose-cottage.jpg?w=1000&s=1", "address": "24 Worcester St, West Boylston, MA 01583-1413", "lat": 42.3679, "lng": -71.7825, "ref_id": 272240, "rating": 4.5, "num_reviews": 0, "website": "http://therosecottage-ma.com/", "contact_phone": "+1 508-835-4034", "contact_email": "", "status": 1, "source_type": 1, "numberReviews": 7}, {"name": "King Phillip Motor Inn", "type": "hotel", "image": "https://dynamic-media-cdn.tripadvisor.com/media/partner/bookingcom/photo-o/29/3a/5c/95/caption.jpg?w=1000&s=1", "address": "35 State Rd Route 2A, Phillipston, MA 01331-9308", "lat": 42.569866, "lng": -72.13216, "ref_id": 12831363, "rating": 4, "num_reviews": 0, "website": "http://www.kingphillip.com/Motel", "contact_phone": null, "contact_email": null, "status": 1, "source_type": 1, "numberReviews": 5}, {"name": "Residences at Tewksbury", "type": "hotel", "image": "https://dynamic-media-cdn.tripadvisor.com/media/photo-o/0b/82/92/2a/photo5jpg.jpg?w=1000&s=1", "address": "20 International Place, Tewksbury, MA 01876", "lat": 42.64089, "lng": -71.24171, "ref_id": 94020, "rating": 3, "num_reviews": 0, "website": "https://www.residencesattewksbury.com/", "contact_phone": "+1 978-863-9800", "contact_email": "Tewksburyleasing@dfi.cc", "status": 1, "source_type": 1, "numberReviews": 165}, {"name": "Sea Crest Beach Resort", "type": "hotel", "image": "https://dynamic-media-cdn.tripadvisor.com/media/photo-o/28/92/04/54/scbh-exterior.jpg?w=1000&s=1", "address": "350 Quaker Road,, Falmouth, MA 02556", "lat": 41.625576, "lng": -70.63912, "ref_id": 89686, "rating": 3.5, "num_reviews": 0, "website": "https://www.seacrestbeachhotel.com/", "contact_phone": "+1 800-225-3110", "contact_email": "info@seacrestbeachhotel.com", "status": 1, "source_type": 1, "numberReviews": 1527}, {"name": "Breezy Knoll Cottages", "type": "hotel", "image": null, "address": "159 Main St, West Dennis, Dennis, MA 02670-2204", "lat": 41.66406, "lng": -70.17554, "ref_id": 1489127, "rating": 5, "num_reviews": 0, "website": "http://www.breezyknollcottages.com/", "contact_phone": "+1 508-760-4524", "contact_email": "Penbreeze@capecod.net", "status": 1, "source_type": 1, "numberReviews": 5}, {"name": "Old Red Farm Inn", "type": "hotel", "image": "https://dynamic-media-cdn.tripadvisor.com/media/photo-o/06/60/a4/28/the-pool.jpg?w=1000&s=1", "address": "20 Stockton Short Cut St, Wareham, MA 02571-2621", "lat": 41.72903, "lng": -70.66666, "ref_id": 1654511, "rating": 4, "num_reviews": 0, "website": "www.oldredfarminn.com", "contact_phone": "+1 508-295-6329", "contact_email": "", "status": 1, "source_type": 1, "numberReviews": 8}, {"name": "Liberty Hotel", "type": "hotel", "image": null, "address": "215 Charles Street, Boston, MA 02114", "lat": 42.362144, "lng": -71.070114, "ref_id": 25389746, "rating": 5, "num_reviews": 0, "website": "https://libertyhotel.com/", "contact_phone": "+1 617-224-4000", "contact_email": null, "status": 1, "source_type": 1, "numberReviews": 1}, {"name": "Nathan Goodale House B&B", "type": "hotel", "image": null, "address": "11 Warren Rd, Brimfield, MA 01010-9755", "lat": 42.12366, "lng": -72.20427, "ref_id": 1887098, "rating": 5, "num_reviews": 0, "website": "http://www.brimfield.org/", "contact_phone": "+1 413-245-9228", "contact_email": "kay@brimfield.org", "status": 1, "source_type": 1, "numberReviews": 3}, {"name": "Norse Wall House", "type": "hotel", "image": "https://dynamic-media-cdn.tripadvisor.com/media/photo-s/00/18/0d/fb/classic-cape.jpg?w=1000&s=1", "address": "7 Cottage St, Provincetown, MA 02657-1913", "lat": 42.04432, "lng": -70.19312, "ref_id": 612300, "rating": 4.5, "num_reviews": 0, "website": "http://www.norsewallhouse.com/index.html", "contact_phone": "+1 617-437-0337", "contact_email": "", "status": 1, "source_type": 1, "numberReviews": 8}, {"name": "Home Suites Inn", "type": "hotel", "image": "https://dynamic-media-cdn.tripadvisor.com/media/photo-s/02/5f/c1/4d/clean-bed-sheets.jpg?w=1000&s=1", "address": "455 Totten Pond Rd, Waltham, MA 02451-1901", "lat": 42.3977, "lng": -71.2567, "ref_id": 89893, "rating": 3.5, "num_reviews": 0, "website": "http://www.homesuitesinn.com/", "contact_phone": "+1 781-890-3000", "contact_email": "", "status": 1, "source_type": 1, "numberReviews": 37}, {"name": "Brookside House Lodging", "type": "hotel", "image": "https://dynamic-media-cdn.tripadvisor.com/media/partner/bookingcom/photo-o/1c/8e/b9/62/bedroom.jpg?w=1000&s=1", "address": "29 Miller Stile Rd, Quincy, MA 02169-5422", "lat": 42.24802, "lng": -70.9984, "ref_id": 4606802, "rating": 4.5, "num_reviews": 0, "website": "http://www.brooksidehouselodging.com", "contact_phone": "+1 617-471-0112", "contact_email": "rooms@brooksidehouselodging.com", "status": 1, "source_type": 1, "numberReviews": 2}, {"name": "Stay Alfred on A Street", "type": "hotel", "image": "https://dynamic-media-cdn.tripadvisor.com/media/photo-o/17/f9/aa/11/stay-alfred-on-a-street.jpg?w=1000&s=1", "address": "315 A St Ste A, Boston, MA 02210-1660", "lat": 42.34877, "lng": -71.04862, "ref_id": 15750391, "rating": 4.5, "num_reviews": 0, "website": null, "contact_phone": null, "contact_email": null, "status": 1, "source_type": 1, "numberReviews": 3}, {"name": "Captain Otis Thacher B&B", "type": "hotel", "image": "https://dynamic-media-cdn.tripadvisor.com/media/photo-o/15/04/ab/13/beautiful-tea-set-in.jpg?w=1000&s=1", "address": "32 Old Westport Rd, Dartmouth, MA 02747-2512", "lat": 41.63765, "lng": -70.98796, "ref_id": 3317169, "rating": 4.5, "num_reviews": 0, "website": "http://www.captainthacher.com/", "contact_phone": "+1 508-994-1418", "contact_email": "pauline@captainthacher.com", "status": 1, "source_type": 1, "numberReviews": 3}, {"name": "1886 House", "type": "hotel", "image": "https://dynamic-media-cdn.tripadvisor.com/media/photo-s/01/2b/06/8e/swinging-in-front-of.jpg?w=1000&s=1", "address": "202 East Street, Chesterfield, MA 01012", "lat": 42.36945, "lng": -72.79775, "ref_id": 271626, "rating": 4.5, "num_reviews": 0, "website": null, "contact_phone": "+1 413-296-0223", "contact_email": "Innkeepers@1886House.Com", "status": 1, "source_type": 1, "numberReviews": 6}, {"name": "Extended Stay America - Boston - Marlborough", "type": "hotel", "image": "https://dynamic-media-cdn.tripadvisor.com/media/photo-o/2a/2d/80/ae/exterior.jpg?w=1000&s=1", "address": "19 Northboro Road East, Marlborough, MA 01752-1818", "lat": 42.3415, "lng": -71.582, "ref_id": 121068, "rating": 3, "num_reviews": 0, "website": "https://www.extendedstayamerica.com/hotels/ma/boston/marlborough", "contact_phone": "+1 508-490-9911", "contact_email": null, "status": 1, "source_type": 1, "numberReviews": 157}, {"name": "Collins Guest House", "type": "hotel", "image": "https://dynamic-media-cdn.tripadvisor.com/media/photo-s/01/18/7c/38/relax-a-while.jpg?w=1000&s=1", "address": "25 Stockbridge Rd, Lee, MA 01238-9308", "lat": 42.30051, "lng": -73.26202, "ref_id": 1147902, "rating": 4.5, "num_reviews": 0, "website": null, "contact_phone": "+1 413-243-1075", "contact_email": "collinshouse25@verizon.net", "status": 1, "source_type": 1, "numberReviews": 5}, {"name": "Four Points by Sheraton Eastham Cape Cod", "type": "hotel", "image": "https://dynamic-media-cdn.tripadvisor.com/media/photo-o/2c/15/2c/78/lobby.jpg?w=1000&s=1", "address": "3800 State Hwy, Eastham, MA 02642-2163", "lat": 41.846813, "lng": -69.984924, "ref_id": 126262, "rating": 3, "num_reviews": 0, "website": "https://www.marriott.com/en-us/hotels/cymfp-four-points-by-sheraton-eastham-cape-cod/overview/?scid=45f93f1b-bd77-45c9-8dab-83b6a417f6fe&y_source=1_MTUwMjgzOC03NjktbG9jYXRpb24ud2Vic2l0ZQ%3D%3D", "contact_phone": "+1 508-255-5000", "contact_email": "gm.eastham@jnrhotels.com", "status": 1, "source_type": 1, "numberReviews": 60}, {"name": "Brookfield Inn Bed & Breakfast", "type": "hotel", "image": null, "address": "8 Main St, Brookfield, MA 01506-1500", "lat": 42.2164, "lng": -72.10312, "ref_id": 1603616, "rating": 4, "num_reviews": 0, "website": "http://www.thebrookfieldinn.com/", "contact_phone": "+1 508-867-3111", "contact_email": "info@thebrookfieldinn.com", "status": 1, "source_type": 1, "numberReviews": 6}, {"name": "Captain's Quarters Bed and Breakfast Inn", "type": "hotel", "image": "https://dynamic-media-cdn.tripadvisor.com/media/photo-o/04/80/21/8d/captain-s-quarters-bed.jpg?w=1000&s=1", "address": "85 Bank St, Harwich Port, Harwich, MA 02646-1903", "lat": 41.66881, "lng": -70.06953, "ref_id": 121083, "rating": 4, "num_reviews": 0, "website": null, "contact_phone": "+1 508-432-1991", "contact_email": "info@cqbb.com", "status": 1, "source_type": 1, "numberReviews": 7}, {"name": "Wells State Park", "type": "hotel", "image": "https://dynamic-media-cdn.tripadvisor.com/media/photo-o/10/95/d3/0e/hiking-in-wells-state.jpg?w=1000&s=1", "address": "159 Walker Pond Rd Rte 49, Sturbridge, MA 01566-1072", "lat": 42.14605, "lng": -72.05605, "ref_id": 3436567, "rating": 4, "num_reviews": 0, "website": "http://www.mass.gov/dcr/parks/central/well.htm", "contact_phone": "+1 508-347-9257", "contact_email": null, "status": 1, "source_type": 1, "numberReviews": 7}, {"name": "Beachfront Inn on Martha's Vineyard", "type": "hotel", "image": "https://dynamic-media-cdn.tripadvisor.com/media/photo-o/14/b7/16/22/sunrise-beach.jpg?w=1000&s=1", "address": "65 Sea View Avenue Corner of Samoset & Seaview Avenues, Oak Bluffs, Martha&#39;s Vineyard, MA 02557", "lat": 41.45388, "lng": -70.55448, "ref_id": 2247526, "rating": 3.5, "num_reviews": 0, "website": "http://www.beachfrontinnmv.com/", "contact_phone": "+1 917-309-1222", "contact_email": "beachfrontinnmv@comcast.net", "status": 1, "source_type": 1, "numberReviews": 18}, {"name": "Harbor Landing Condominium", "type": "hotel", "image": "https://dynamic-media-cdn.tripadvisor.com/media/photo-o/2a/9c/d6/72/caption.jpg?w=1000&s=1", "address": "15 Beach St, West Tisbury, Martha&#39;s Vineyard, MA 02568", "lat": 41.380497, "lng": -70.64547, "ref_id": 26771368, "rating": 5, "num_reviews": 0, "website": "https://harbor-landing.com/", "contact_phone": "+1 508-693-2600", "contact_email": "Sandra.Melkonian@harbor-landing.com", "status": 1, "source_type": 1, "numberReviews": 1}, {"name": "The Ginger Bed", "type": "hotel", "image": "https://dynamic-media-cdn.tripadvisor.com/media/photo-o/18/5d/4b/ec/the-ginger-bed.jpg?w=1000&s=1", "address": "3 Ginger Bread Ln, Ashburnham, MA 01430-1272", "lat": 42.63723, "lng": -71.90742, "ref_id": 11878466, "rating": 4.5, "num_reviews": 0, "website": "http://www.thegingerbed.com", "contact_phone": "+1 978-252-5121", "contact_email": "laura@thegingerbed.com", "status": 1, "source_type": 1, "numberReviews": 3}, {"name": "The 1684 John Burnham House", "type": "hotel", "image": "https://dynamic-media-cdn.tripadvisor.com/media/photo-o/0b/75/6a/68/canopy-bed.jpg?w=1000&s=1", "address": "Essex, MA 01929-1155", "lat": 42.61554, "lng": -70.80202, "ref_id": 10354620, "rating": 5, "num_reviews": 0, "website": null, "contact_phone": "+1 978-768-6356", "contact_email": null, "status": 1, "source_type": 1, "numberReviews": 2}, {"name": "Parker's Bed and Breakfast and Sugar House", "type": "hotel", "image": "https://dynamic-media-cdn.tripadvisor.com/media/photo-o/04/16/d9/3c/parker-s-bed-and-breakfast.jpg?w=1000&s=1", "address": "310 Amherst St, Granby, MA 01033-9720", "lat": 42.28723, "lng": -72.53079, "ref_id": 2257596, "rating": 4.5, "num_reviews": 0, "website": null, "contact_phone": "+1 413-467-7751", "contact_email": "", "status": 1, "source_type": 1, "numberReviews": 5}, {"name": "Ellis Haven Campground", "type": "hotel", "image": "https://dynamic-media-cdn.tripadvisor.com/media/photo-s/01/17/1e/ff/pond.jpg?w=1000&s=1", "address": "531 Federal Furnace Rd, Plymouth, MA 02360-4788", "lat": 41.91322, "lng": -70.71109, "ref_id": 1108497, "rating": 3, "num_reviews": 0, "website": "http://ellishaven.com/", "contact_phone": "+1 508-746-0803", "contact_email": "", "status": 1, "source_type": 1, "numberReviews": 77}, {"name": "Home Suite Home", "type": "hotel", "image": null, "address": "57 Berkshire Ter, Amherst, MA 01002-1342", "lat": 42.39853, "lng": -72.53097, "ref_id": 2345916, "rating": 5, "num_reviews": 0, "website": null, "contact_phone": "+1 413-230-3014", "contact_email": "innkeepers@homesuitehomeamherst.com", "status": 1, "source_type": 1, "numberReviews": 5}, {"name": "The Mains'l", "type": "hotel", "image": "https://dynamic-media-cdn.tripadvisor.com/media/photo-s/02/23/86/5f/grounds-of-the-mains.jpg?w=1000&s=1", "address": "535 Ocean St, Hyannis, MA 02601-4746", "lat": 41.6392, "lng": -70.28019, "ref_id": 655300, "rating": 4.5, "num_reviews": 0, "website": "https://www.facebook.com/The-Mainsl-209715755741829/", "contact_phone": "+1 774-275-4100", "contact_email": "feltham535@gmail.com", "status": 1, "source_type": 1, "numberReviews": 4}, {"name": "Enzo", "type": "hotel", "image": "https://dynamic-media-cdn.tripadvisor.com/media/photo-s/02/8a/fe/47/filename-enzo-bed-jpg.jpg?w=1000&s=1", "address": "186 Commercial St, Provincetown, MA 02657-2117", "lat": 42.0485, "lng": -70.18966, "ref_id": 310232, "rating": 3.5, "num_reviews": 0, "website": "http://www.enzolives.com/", "contact_phone": "+1 508-487-7555", "contact_email": "enzo@enzolives.com", "status": 1, "source_type": 1, "numberReviews": 29}, {"name": "Mariner House", "type": "hotel", "image": "https://dynamic-media-cdn.tripadvisor.com/media/photo-o/17/4f/e2/a1/photo5jpg.jpg?w=1000&s=1", "address": "30 Center St, Nantucket, MA 02554-3660", "lat": 41.28399, "lng": -70.10028, "ref_id": 17392362, "rating": 4.5, "num_reviews": 0, "website": "http://Www.themarinerhouse.com", "contact_phone": "+1 508-680-1082", "contact_email": "themarinerhouse@comcast.net", "status": 1, "source_type": 1, "numberReviews": 2}, {"name": "Village Escape Accommodation", "type": "hotel", "image": "https://dynamic-media-cdn.tripadvisor.com/media/photo-o/04/5f/70/b6/kitchen.jpg?w=1000&s=1", "address": "Walnut St at Cypress St, Brookline, MA 02445", "lat": 42.32851, "lng": -71.12592, "ref_id": 1641567, "rating": 5, "num_reviews": 0, "website": null, "contact_phone": "+1 617-720-0522", "contact_email": "bnb@bnbboston.com", "status": 1, "source_type": 1, "numberReviews": 5}, {"name": "Fairfield Inn By Marriott Boston Tewksbury/andover", "type": "hotel", "image": "https://dynamic-media-cdn.tripadvisor.com/media/photo-o/2c/15/24/c4/exterior.jpg?w=1000&s=1", "address": "1695 Andover St, Tewksbury, MA 01876", "lat": 42.642033, "lng": -71.24036, "ref_id": 126074, "rating": 3, "num_reviews": 0, "website": "https://www.marriott.com/en-us/hotels/bosft-fairfield-inn-boston-tewksbury-andover/overview/?scid=45f93f1b-bd77-45c9-8dab-83b6a417f6fe&y_source=1_MjgxOTMyMy03NjktbG9jYXRpb24ud2Vic2l0ZQ%3D%3D", "contact_phone": "+1 978-640-0700", "contact_email": null, "status": 1, "source_type": 1, "numberReviews": 74}, {"name": "Grouse House", "type": "hotel", "image": "https://dynamic-media-cdn.tripadvisor.com/media/photo-o/14/dc/f5/d6/photo0jpg.jpg?w=1000&s=1", "address": "Route 23, Otis, MA 01253", "lat": 42.19514, "lng": -73.09319, "ref_id": 121072, "rating": 4, "num_reviews": 0, "website": null, "contact_phone": "+1 413-269-0115", "contact_email": "", "status": 1, "source_type": 1, "numberReviews": 4}, {"name": "The Nauset Guesthouse", "type": "hotel", "image": "https://dynamic-media-cdn.tripadvisor.com/media/photo-o/09/89/bd/54/the-nauset-house-guesthouse.jpg?w=1000&s=1", "address": "1815 Nauset Rd, North Eastham, MA 02651", "lat": 41.85622, "lng": -69.97043, "ref_id": 3354942, "rating": 4.5, "num_reviews": 0, "website": null, "contact_phone": "+1 508-255-2327", "contact_email": "delfinol@comcast.net", "status": 1, "source_type": 1, "numberReviews": 3}, {"name": "Sunbird Annex Resort", "type": "hotel", "image": "https://dynamic-media-cdn.tripadvisor.com/media/photo-o/25/a9/57/a9/sunbird-annex-resort.jpg?w=1000&s=1", "address": "226 Main St, West Yarmouth, Yarmouth, MA 02673-4659", "lat": 41.655415, "lng": -70.255646, "ref_id": 24149103, "rating": 5, "num_reviews": 0, "website": "https://www.sunbirdannexresort.com/", "contact_phone": "+1 508-827-4370", "contact_email": "//info@sunbirdcapecodresort.com", "status": 1, "source_type": 1, "numberReviews": 1}, {"name": "Pine Shore Cottages", "type": "hotel", "image": "https://dynamic-media-cdn.tripadvisor.com/media/photo-s/01/d8/2f/48/overlooking-white-pond.jpg?w=1000&s=1", "address": "1402 Main St, Chatham, MA 02633-1860", "lat": 41.68371, "lng": -69.98576, "ref_id": 2092176, "rating": 5, "num_reviews": 0, "website": "http://www.chathamhomerentals.com/index.cfm?site=pineshorecottages", "contact_phone": "+1 508-945-9444", "contact_email": "", "status": 1, "source_type": 1, "numberReviews": 3}, {"name": "Wildflower B & B", "type": "hotel", "image": "https://dynamic-media-cdn.tripadvisor.com/media/photo-o/06/5b/ba/df/yummy-home-made-muffins.jpg?w=1000&s=1", "address": "157 Brick Hill Rd, Orleans, MA 02653-2747", "lat": 41.79442, "lng": -69.95961, "ref_id": 3393379, "rating": 5, "num_reviews": 0, "website": null, "contact_phone": "+1 508-255-3824", "contact_email": null, "status": 1, "source_type": 1, "numberReviews": 3}, {"name": "Amory Guest House", "type": "hotel", "image": "https://dynamic-media-cdn.tripadvisor.com/media/photo-o/0a/0c/db/dd/amory-guest-house.jpg?w=1000&s=1", "address": "62 Amory St, Cambridge, MA 02139-1202", "lat": 42.37092, "lng": -71.10094, "ref_id": 8035401, "rating": 3.5, "num_reviews": 0, "website": "http://www.theamoryhouse.com/?page_id=118", "contact_phone": "+1 857-247-0742", "contact_email": null, "status": 1, "source_type": 1, "numberReviews": 19}, {"name": "Chestnut Lodge", "type": "hotel", "image": "https://dynamic-media-cdn.tripadvisor.com/media/photo-o/08/c1/7b/ed/there-is-also-a-barn.jpg?w=1000&s=1", "address": "75 Chestnut Street, Lee, MA 01238", "lat": 42.30412, "lng": -73.20398, "ref_id": 6734044, "rating": 4, "num_reviews": 0, "website": "http://www.chestnutlodge.biz", "contact_phone": "+1 413-281-2746", "contact_email": "lodgemail@aol.com", "status": 1, "source_type": 1, "numberReviews": 8}, {"name": "Captain Lysander Inn", "type": "hotel", "image": "https://dynamic-media-cdn.tripadvisor.com/media/photo-o/24/85/75/06/captain-lysander-inn.jpg?w=1000&s=1", "address": "96 Commercial St, Provincetown, MA 02657-2016", "lat": 42.04444, "lng": -70.19214, "ref_id": 252018, "rating": 5, "num_reviews": 0, "website": null, "contact_phone": "+1 508-487-2253", "contact_email": "", "status": 1, "source_type": 1, "numberReviews": 1}, {"name": "Jersey Hill Bed & Breakfast", "type": "hotel", "image": "https://dynamic-media-cdn.tripadvisor.com/media/photo-o/01/89/21/87/marblehead.jpg?w=1000&s=1", "address": "63 Jersey St, Marblehead, MA 01945-2463", "lat": 42.50541, "lng": -70.86181, "ref_id": 1206455, "rating": 3.5, "num_reviews": 0, "website": null, "contact_phone": "", "contact_email": "", "status": 1, "source_type": 1, "numberReviews": 9}, {"name": "Safe Harbor Bed & Breakfast", "type": "hotel", "image": "https://dynamic-media-cdn.tripadvisor.com/media/photo-s/02/79/ce/d1/getlstd-property-photo.jpg?w=1000&s=1", "address": "647 Main St, Harwich, MA 02645-2629", "lat": 41.68592, "lng": -70.08076, "ref_id": 3176706, "rating": 4.5, "num_reviews": 0, "website": "http://www.facebook.com/pages/Safe-Harbor-Bed-Breakfast-Harwich/285083091507560", "contact_phone": "+1 774-237-0738", "contact_email": "safeharbor.paul@comcast.net", "status": 1, "source_type": 1, "numberReviews": 3}, {"name": "Thomas Sea Suites at Harbourtown", "type": "hotel", "image": null, "address": "150 Water St, Plymouth, MA 02360-2269", "lat": 41.96185, "lng": -70.668274, "ref_id": 23913066, "rating": 4, "num_reviews": 0, "website": "http://thomasseasuites.com/", "contact_phone": null, "contact_email": "info@thomasseasuites.com", "status": 1, "source_type": 1, "numberReviews": 2}, {"name": "Baldwin Hill Farm Bed and Breakfast", "type": "hotel", "image": "https://dynamic-media-cdn.tripadvisor.com/media/photo-s/02/4c/54/56/bay-window-room.jpg?w=1000&s=1", "address": "121 Baldwin Hill Rd # N/S, Great Barrington, MA 01230-9061", "lat": 42.18316, "lng": -73.43843, "ref_id": 77724, "rating": 4.5, "num_reviews": 0, "website": null, "contact_phone": "+1 413-528-4092", "contact_email": "rpburds@aol.com", "status": 1, "source_type": 1, "numberReviews": 6}, {"name": "Beacon Townhouse Inn 1023", "type": "hotel", "image": null, "address": "1023 Beacon St, Brookline, MA 02446-5609", "lat": 42.3455, "lng": -71.10767, "ref_id": 258730, "rating": 3, "num_reviews": 0, "website": "http://www.beacontownhouseinn.com/", "contact_phone": "+1 617-232-2422", "contact_email": "innemail@aol.com", "status": 1, "source_type": 1, "numberReviews": 3}, {"name": "Whaleback Hill Cottages", "type": "hotel", "image": null, "address": "376 Route 6a P.O. Box 482, East Sandwich, Sandwich, MA 02537-1442", "lat": 41.74047, "lng": -70.45225, "ref_id": 293660, "rating": 5, "num_reviews": 0, "website": null, "contact_phone": "+1 508-888-0338", "contact_email": "info@whalebackhillcottages.com", "status": 1, "source_type": 1, "numberReviews": 1}, {"name": "Rusnik Family Campground", "type": "hotel", "image": "https://dynamic-media-cdn.tripadvisor.com/media/photo-o/04/57/88/d9/rusnik-family-campground.jpg?w=1000&s=1", "address": "115 Lafayette Rd, Salisbury, MA 01952-1514", "lat": 42.85521, "lng": -70.87134, "ref_id": 1643602, "rating": 3, "num_reviews": 0, "website": "http://rusnikcampground.com", "contact_phone": "+1 978-462-9551", "contact_email": "Rusnik2001@aol.com", "status": 1, "source_type": 1, "numberReviews": 32}, {"name": "Admiral's House", "type": "hotel", "image": null, "address": "28 Pearl St, Marblehead, MA 01945-3489", "lat": 42.50684, "lng": -70.84983, "ref_id": 77797, "rating": 5, "num_reviews": 0, "website": null, "contact_phone": "+1 781-631-7087", "contact_email": "hli@shore.net", "status": 1, "source_type": 1, "numberReviews": 1}, {"name": "Penuel Parker B&B", "type": "hotel", "image": "https://dynamic-media-cdn.tripadvisor.com/media/photo-o/02/1b/39/5c/lovely-18th-century-home.jpg?w=1000&s=1", "address": "30 Haynes Hill Rd, Brimfield, MA 01010-9750", "lat": 42.11364, "lng": -72.20387, "ref_id": 2266759, "rating": 4, "num_reviews": 0, "website": null, "contact_phone": "+1 413-245-9204", "contact_email": "susieladams@charter.net", "status": 1, "source_type": 1, "numberReviews": 1}, {"name": "Powder Point Bed & Breakfast", "type": "hotel", "image": null, "address": "182 Powder Point Ave, Duxbury, MA 02332-3935", "lat": 42.04799, "lng": -70.66202, "ref_id": 271641, "rating": 4, "num_reviews": 0, "website": "http://www.facebook.com/pages/Powder-Point-Bed-Breakfast/104978336211826", "contact_phone": "+1 781-934-7727", "contact_email": "quigley@ppbab.com", "status": 1, "source_type": 1, "numberReviews": 1}, {"name": "Cape Cod Ocean Resorts", "type": "hotel", "image": null, "address": "416 Main St, West Dennis, Dennis, MA 02670-2209", "lat": 41.66594, "lng": -70.16634, "ref_id": 1175315, "rating": 4, "num_reviews": 0, "website": null, "contact_phone": "", "contact_email": "", "status": 1, "source_type": 1, "numberReviews": 1}, {"name": "Seawinds II", "type": "hotel", "image": "https://dynamic-media-cdn.tripadvisor.com/media/photo-o/17/a4/16/ee/small-bedroom-tiny-dresser.jpg?w=1000&s=1", "address": "124 Old Wharf Rd, Dennis Port, Dennis, MA 02639-2201", "lat": 41.65111, "lng": -70.14538, "ref_id": 15851119, "rating": 3, "num_reviews": 0, "website": "http://www.seawinds2resort.com/", "contact_phone": "+1 508-398-6922", "contact_email": "info@SeaWinds2resort.com", "status": 1, "source_type": 1, "numberReviews": 4}, {"name": "Hedges By-The-Sea", "type": "hotel", "image": null, "address": "165 Granite St, Rockport, MA 01966-1356", "lat": 42.67553, "lng": -70.62369, "ref_id": 582266, "rating": 5, "num_reviews": 0, "website": null, "contact_phone": "+1 978-546-0158", "contact_email": "", "status": 1, "source_type": 1, "numberReviews": 1}, {"name": "Pine Cove Inn", "type": "hotel", "image": null, "address": "5 Old Main St, West Dennis, Dennis, MA 02670-2224", "lat": 41.66742, "lng": -70.16087, "ref_id": 77955, "rating": 5, "num_reviews": 0, "website": null, "contact_phone": "+1 508-760-6690", "contact_email": "reservations@pinecoveinn.com", "status": 1, "source_type": 1, "numberReviews": 1}, {"name": "Pout and Trout Campground", "type": "hotel", "image": "https://dynamic-media-cdn.tripadvisor.com/media/photo-o/0b/9e/8e/83/pout-and-trout-campground.jpg?w=1000&s=1", "address": "94 River Rd, Rutland, MA 01543-1100", "lat": 42.43936, "lng": -71.96559, "ref_id": 272203, "rating": 3, "num_reviews": 0, "website": null, "contact_phone": "+1 508-886-6677", "contact_email": "", "status": 1, "source_type": 1, "numberReviews": 34}, {"name": "Martha's Vineyard Inn", "type": "hotel", "image": "https://dynamic-media-cdn.tripadvisor.com/media/photo-o/07/31/3f/6f/martha-s-vineyard-inn.jpg?w=1000&s=1", "address": "209 Franklin St, Vineyard Haven, Martha&#39;s Vineyard, MA 02568-5424", "lat": 41.46058, "lng": -70.60544, "ref_id": 121015, "rating": 5, "num_reviews": 0, "website": null, "contact_phone": "+1 508-693-0001", "contact_email": "info@marthasvineyardinn.com", "status": 1, "source_type": 1, "numberReviews": 1}, {"name": "University Lodge in Amherst", "type": "hotel", "image": "https://dynamic-media-cdn.tripadvisor.com/media/photo-o/07/da/90/f4/typical-room.jpg?w=1000&s=1", "address": "345 N Pleasant St, Amherst, MA 01002-1709", "lat": 42.3826, "lng": -72.51971, "ref_id": 268301, "rating": 3, "num_reviews": 0, "website": "http://www.hampshirehospitality.com", "contact_phone": "+1 413-256-8111", "contact_email": "ul@hhgmail.com", "status": 1, "source_type": 1, "numberReviews": 83}, {"name": "Mabbett House", "type": "hotel", "image": "https://dynamic-media-cdn.tripadvisor.com/media/photo-s/01/0a/78/e3/fireplace-in-the-living.jpg?w=1000&s=1", "address": "7 Cushman St, Plymouth, MA 02360-4147", "lat": 41.9603, "lng": -70.67271, "ref_id": 126062, "rating": 5, "num_reviews": 0, "website": null, "contact_phone": "+1 508-830-1911", "contact_email": "judyhanim@aol.com", "status": 1, "source_type": 1, "numberReviews": 1}, {"name": "Lilac Inn", "type": "hotel", "image": null, "address": "33 Main St, Lenox, MA 01240-2311", "lat": 42.35807, "lng": -73.28518, "ref_id": 77778, "rating": 5, "num_reviews": 0, "website": null, "contact_phone": "+1 413-637-2172", "contact_email": "aliceatlilacinn@msn.com", "status": 1, "source_type": 1, "numberReviews": 1}, {"name": "Henry Crocker House", "type": "hotel", "image": null, "address": "3026 Main St, Barnstable, MA 02630-1108", "lat": 41.70482, "lng": -70.30854, "ref_id": 77578, "rating": 5, "num_reviews": 0, "website": null, "contact_phone": "+1 508-375-0902", "contact_email": "", "status": 1, "source_type": 1, "numberReviews": 1}, {"name": "1873 House Bed and Breakfast", "type": "hotel", "image": null, "address": "621 2nd St, Fall River, MA 02721-1787", "lat": 41.69419, "lng": -71.15942, "ref_id": 126078, "rating": 4, "num_reviews": 0, "website": null, "contact_phone": "+1 508-679-8990", "contact_email": "house1873@mediaone.net", "status": 1, "source_type": 1, "numberReviews": 2}, {"name": "Weathervane Motel", "type": "hotel", "image": "https://dynamic-media-cdn.tripadvisor.com/media/photo-o/09/9e/48/fc/motel-side-view.jpg?w=1000&s=1", "address": "475 S Main St Route 7, Lanesborough, MA 01237-9728", "lat": 42.50298, "lng": -73.23641, "ref_id": 2657982, "rating": 3, "num_reviews": 0, "website": "http://www.theweathervanemotel.com", "contact_phone": "+1 413-443-3230", "contact_email": "info@theweathervanemotel.com", "status": 1, "source_type": 1, "numberReviews": 32}, {"name": "Commonwealth Cottage", "type": "hotel", "image": null, "address": "11 Summit Ave, Sturbridge, MA 01518-1236", "lat": 42.11323, "lng": -72.11775, "ref_id": 77928, "rating": 5, "num_reviews": 0, "website": "http://www.commonwealthcottage.com/", "contact_phone": "+1 508-347-7708", "contact_email": null, "status": 1, "source_type": 1, "numberReviews": 1}, {"name": "Rose Petal Bed and Breakfast", "type": "hotel", "image": null, "address": "152 Sea St, Dennis Port, Dennis, MA 02639-2404", "lat": 41.6595, "lng": -70.12853, "ref_id": 77684, "rating": 5, "num_reviews": 0, "website": null, "contact_phone": "+1 508-398-8470", "contact_email": "", "status": 1, "source_type": 1, "numberReviews": 1}, {"name": "Cliffwood Inn", "type": "hotel", "image": null, "address": "25 Cliffwood St, Lenox, MA 01240-2026", "lat": 42.36105, "lng": -73.28571, "ref_id": 115828, "rating": 3.5, "num_reviews": 0, "website": null, "contact_phone": "+1 800-789-3331", "contact_email": null, "status": 1, "source_type": 1, "numberReviews": 4}, {"name": "Stonegate Mansion", "type": "hotel", "image": "https://dynamic-media-cdn.tripadvisor.com/media/photo-s/01/39/d9/d1/exterior-needs-serious.jpg?w=1000&s=1", "address": "111 West Ave, Great Barrington, MA 01230-1811", "lat": 42.18941, "lng": -73.36882, "ref_id": 639144, "rating": 3, "num_reviews": 0, "website": "http://www.stonegatemansion.com/index.htm", "contact_phone": "+1 413-528-9554", "contact_email": "e.longo@verizon.net", "status": 1, "source_type": 1, "numberReviews": 17}, {"name": "Captains Choice", "type": "hotel", "image": null, "address": "212 Greenwood Ave., Hyannis Port, MA 02647", "lat": 41.63941, "lng": -70.29865, "ref_id": 77743, "rating": 4, "num_reviews": 0, "website": null, "contact_phone": "+1 508-775-0101", "contact_email": "BandB@captchoice.com", "status": 1, "source_type": 1, "numberReviews": 1}, {"name": "Old Tavern Farm", "type": "hotel", "image": null, "address": "817 Colrain Rd, Greenfield, MA 01301-9763", "lat": 42.6223, "lng": -72.63615, "ref_id": 126080, "rating": 3, "num_reviews": 0, "website": "http://www.oldtavernfarm.com/", "contact_phone": "+1 413-772-0474", "contact_email": "", "status": 1, "source_type": 1, "numberReviews": 2}, {"name": "Tatin House", "type": "hotel", "image": "https://dynamic-media-cdn.tripadvisor.com/media/photo-o/13/f1/7d/b9/photo7jpg.jpg?w=1000&s=1", "address": "11 Nichols Ave, Watertown, MA 02472-4125", "lat": 42.36807, "lng": -71.15644, "ref_id": 13361039, "rating": 3, "num_reviews": 0, "website": null, "contact_phone": null, "contact_email": null, "status": 1, "source_type": 1, "numberReviews": 5}, {"name": "The Cotuit Inn", "type": "hotel", "image": null, "address": "451 Main St, Cotuit, MA 02635-3114", "lat": 41.62767, "lng": -70.44173, "ref_id": 271632, "rating": 3, "num_reviews": 0, "website": "http://cotuitfiredistrict.org/about-cotuit/", "contact_phone": "+1 508-420-1907", "contact_email": "cotuitin@attbi.com", "status": 1, "source_type": 1, "numberReviews": 2}, {"name": "Temple Place Suites 2+3", "type": "hotel", "image": null, "address": "29 Temple Place 2nd And 3rd Floor, Boston, MA 02111-1307", "lat": 42.35509, "lng": -71.06215, "ref_id": 21393311, "rating": 3, "num_reviews": 0, "website": null, "contact_phone": null, "contact_email": null, "status": 1, "source_type": 1, "numberReviews": 1}, {"name": "Sunsetview Campground", "type": "hotel", "image": "https://dynamic-media-cdn.tripadvisor.com/media/photo-o/11/28/7e/db/sunsetview-campground.jpg?w=1000&s=1", "address": "57 Town Farm Rd, Monson, MA 01057-9585", "lat": 42.12267, "lng": -72.28974, "ref_id": 10747068, "rating": 3, "num_reviews": 0, "website": "http://www.sunsetview.com/index.asp", "contact_phone": "+1 413-267-9269", "contact_email": null, "status": 1, "source_type": 1, "numberReviews": 2}, {"name": "The Goldenrod Country Inn", "type": "hotel", "image": null, "address": "144 Huntington Rd, Worthington, MA 01098-9505", "lat": 42.40073, "lng": -72.93759, "ref_id": 25112946, "rating": 3, "num_reviews": 0, "website": "https://www.goldenrodcountryinn.com/rooms/", "contact_phone": "+1 413-238-0144", "contact_email": "info@goldenrodcountryinn.com", "status": 1, "source_type": 1, "numberReviews": 1}, {"name": "Red Maple Bed and Breakfast", "type": "hotel", "image": null, "address": "210 Broadway, Lynn, MA 01904-1808", "lat": 42.48903, "lng": -70.95883, "ref_id": 77794, "rating": 3, "num_reviews": 0, "website": null, "contact_phone": "+1 888-697-3100", "contact_email": "redmaplebb@aol.com", "status": 1, "source_type": 1, "numberReviews": 1}, {"name": "Bournedale Village Inn", "type": "hotel", "image": "https://dynamic-media-cdn.tripadvisor.com/media/photo-o/02/25/70/8c/mismatched-beds-but-comfortabl.jpg?w=1000&s=1", "address": "854 Scenic Hwy, Buzzards Bay, Bourne, MA 02532-2216", "lat": 41.77426, "lng": -70.56035, "ref_id": 1187186, "rating": 3, "num_reviews": 0, "website": null, "contact_phone": "+1 508-888-2796", "contact_email": "", "status": 1, "source_type": 1, "numberReviews": 1}, {"name": "Burch House", "type": "hotel", "image": null, "address": "116 Bradford St, Provincetown, MA 02657-1427", "lat": 42.05183, "lng": -70.18778, "ref_id": 667871, "rating": 3, "num_reviews": 0, "website": null, "contact_phone": "+1 508-487-9170", "contact_email": "", "status": 1, "source_type": 1, "numberReviews": 2}, {"name": "Bedford Motel", "type": "hotel", "image": "https://dynamic-media-cdn.tripadvisor.com/media/photo-o/0f/f5/db/0d/lits.jpg?w=1000&s=1", "address": "30 North Rd, Bedford, MA 01730-1091", "lat": 42.49469, "lng": -71.28647, "ref_id": 500658, "rating": 3.5, "num_reviews": 0, "website": "https://www.bedfordmotelma.com/", "contact_phone": "+1 781-275-6300", "contact_email": "", "status": 1, "source_type": 1, "numberReviews": 137}, {"name": "STR Boston", "type": "hotel", "image": "https://dynamic-media-cdn.tripadvisor.com/media/photo-o/0f/b0/e7/28/str-boston.jpg?w=1000&s=1", "address": "30 W. Broadway Street, Boston, MA 02116-5416", "lat": 42.350075, "lng": -71.06714, "ref_id": 12440618, "rating": 3, "num_reviews": 0, "website": "http://shorttermrentalsboston.com/", "contact_phone": "+1 857-263-3073", "contact_email": null, "status": 1, "source_type": 1, "numberReviews": 2}, {"name": "Bayside Club Hotel", "type": "hotel", "image": null, "address": "236 Mount Vernon St, Boston, MA 02125-3120", "lat": 42.32032, "lng": -71.04796, "ref_id": 1628775, "rating": 3.5, "num_reviews": 0, "website": null, "contact_phone": "+1 617-822-1869", "contact_email": "", "status": 1, "source_type": 1, "numberReviews": 2}, {"name": "Briarwood Resort", "type": "hotel", "image": "https://dynamic-media-cdn.tripadvisor.com/media/photo-o/13/8d/f6/1b/briarwood-resort.jpg?w=1000&s=1", "address": "30 Pine Valley Dr, Falmouth, MA 02540-2923", "lat": 41.57295, "lng": -70.60395, "ref_id": 1227286, "rating": 3, "num_reviews": 0, "website": "http://www.briarwoodresort.net/", "contact_phone": "+1 508-540-4366", "contact_email": "", "status": 1, "source_type": 1, "numberReviews": 138}, {"name": "Seekonk Pines Inn", "type": "hotel", "image": null, "address": "142 Seekonk Cross Rd, Great Barrington, MA 01230-1571", "lat": 42.17605, "lng": -73.39837, "ref_id": 77726, "rating": 3.5, "num_reviews": 0, "website": null, "contact_phone": "+1 413-528-4192", "contact_email": "", "status": 1, "source_type": 1, "numberReviews": 4}, {"name": "Jasper's Too Motel", "type": "hotel", "image": "https://dynamic-media-cdn.tripadvisor.com/media/photo-o/18/4e/7d/70/jasper-s-too-motel.jpg?w=1000&s=1", "address": "101 Maple St, Buzzards Bay, Bourne, MA 02532-3051", "lat": 41.75251, "lng": -70.59887, "ref_id": 13157581, "rating": 3, "num_reviews": 0, "website": "www.facebook.com/pages/Jaspers-Too/113501805349434", "contact_phone": null, "contact_email": null, "status": 1, "source_type": 1, "numberReviews": 3}, {"name": "Welcome to Holiday Inn & Suites Pittsfield-Berkshires", "type": "hotel", "image": "https://dynamic-media-cdn.tripadvisor.com/media/photo-o/2c/00/03/ca/holiday-inn-suites-pittsfield.jpg?w=1000&s=1", "address": "One West Street, Pittsfield, MA 01201-6298", "lat": 42.448086, "lng": -73.25514, "ref_id": 94077, "rating": 3, "num_reviews": 0, "website": "https://www.ihg.com/holidayinn/hotels/us/en/pittsfield/ptfma/hoteldetail?cm_mmc=YextLocal-_-HI-_-US-_-PTFMA", "contact_phone": "+1 413-499-2000", "contact_email": "frontdesk@hiberkshires.com", "status": 1, "source_type": 1, "numberReviews": 56}, {"name": "Sandcastle Resort", "type": "hotel", "image": "https://dynamic-media-cdn.tripadvisor.com/media/photo-o/0b/c4/17/f0/queen-suite.jpg?w=1000&s=1", "address": "929 Commercial St PO Box 576, Provincetown, MA 02657-1743", "lat": 42.062397, "lng": -70.14939, "ref_id": 257241, "rating": 3, "num_reviews": 0, "website": "http://www.sandcastlecapecod.com/", "contact_phone": "+1 508-487-9300", "contact_email": "info.sandcastleresort@gmail.com", "status": 1, "source_type": 1, "numberReviews": 359}, {"name": "Prospect Lake Park", "type": "hotel", "image": "https://dynamic-media-cdn.tripadvisor.com/media/photo-o/1b/78/41/33/prospect-lake-park.jpg?w=1000&s=1", "address": "50 Prospect Lake Road, North Egremont, MA 01252", "lat": 42.19381, "lng": -73.44879, "ref_id": 1638584, "rating": 3, "num_reviews": 0, "website": "http://www.prospectlakepark.com/", "contact_phone": "+1 413-528-4158", "contact_email": "prospectlake@prospectlakepark.com", "status": 1, "source_type": 1, "numberReviews": 49}, {"name": "Global Luxury Suites Fenway", "type": "hotel", "image": "https://dynamic-media-cdn.tripadvisor.com/media/photo-o/18/7d/07/3e/lobby.jpg?w=1000&s=1", "address": "180 Brookline Ave, Boston, MA 02215-3938", "lat": 42.34393, "lng": -71.10163, "ref_id": 12104852, "rating": 3, "num_reviews": 0, "website": null, "contact_phone": "+1 844-372-7411", "contact_email": "reservation@globalservicedapts.com", "status": 1, "source_type": 1, "numberReviews": 20}, {"name": "Cambridge Condos", "type": "hotel", "image": null, "address": "64 Amory St Inman Square, Cambridge, MA 02139-1202", "lat": 42.37092, "lng": -71.10102, "ref_id": 13172913, "rating": 3, "num_reviews": 0, "website": null, "contact_phone": "+1 857-247-0742", "contact_email": null, "status": 1, "source_type": 1, "numberReviews": 2}, {"name": "Prince Freeman Apartments", "type": "hotel", "image": null, "address": "51 Commercial St, Provincetown, MA 02657-1948", "lat": 42.04133, "lng": -70.19375, "ref_id": 1569793, "rating": 3, "num_reviews": 0, "website": "http://www.princefreeman.com/", "contact_phone": "+1 508-487-3085", "contact_email": "", "status": 1, "source_type": 1, "numberReviews": 2}, {"name": "Oceanside Motel", "type": "hotel", "image": "https://dynamic-media-cdn.tripadvisor.com/media/photo-o/06/cd/e1/a0/2-double-beds-1st-floor.jpg?w=1000&s=1", "address": "329 Main St, Dennis Port, Dennis, MA 02639-1309", "lat": 41.665478, "lng": -70.13551, "ref_id": 3296388, "rating": 3, "num_reviews": 0, "website": "http://www.osmotel.com", "contact_phone": "+1 508-619-7939", "contact_email": "info@osmotel.com", "status": 1, "source_type": 1, "numberReviews": 30}, {"name": "Atlantic Motel", "type": "hotel", "image": "https://dynamic-media-cdn.tripadvisor.com/media/photo-o/1c/fa/da/66/atlantic-motel.jpg?w=1000&s=1", "address": "7 Depot St Route 6 East & 28 South, East Wareham, MA 02538-1341", "lat": 41.76072, "lng": -70.67399, "ref_id": 267779, "rating": 3, "num_reviews": 0, "website": "http://www.atlanticmotel.net/", "contact_phone": "+1 508-295-0210", "contact_email": "aaamotel@yahoo.com", "status": 1, "source_type": 1, "numberReviews": 14}, {"name": "Sturbridge Host Hotel & Conference Center", "type": "hotel", "image": "https://dynamic-media-cdn.tripadvisor.com/media/photo-o/14/43/6d/20/sturbridge-host-hotel.jpg?w=1000&s=1", "address": "366 Main St, Sturbridge, MA 01566-1057", "lat": 42.1146, "lng": -72.09, "ref_id": 89881, "rating": 3, "num_reviews": 0, "website": "https://www.facebook.com/sturbridgehosthotel/", "contact_phone": "+1 508-347-7393", "contact_email": "Str_Sales@Fine-Hotels.com", "status": 1, "source_type": 1, "numberReviews": 1160}, {"name": "Talley's Corner Bed and Breakfast", "type": "hotel", "image": "https://dynamic-media-cdn.tripadvisor.com/media/photo-s/02/b9/d4/c4/talley-s-corner-bed-and.jpg?w=1000&s=1", "address": "14 Linden St, Whitinsville, MA 01588-2209", "lat": 42.1122, "lng": -71.67176, "ref_id": 1125578, "rating": 3, "num_reviews": 0, "website": null, "contact_phone": "+1 508-234-1757", "contact_email": "ktalleyho@yahoo.com", "status": 1, "source_type": 1, "numberReviews": 6}, {"name": "Coachman Motor Inn", "type": "hotel", "image": "https://dynamic-media-cdn.tripadvisor.com/media/photo-o/1c/0b/36/7e/coachman-motor-inn.jpg?w=1000&s=1", "address": "774 Main St , Route 28, South Harwich, Harwich, MA 02671", "lat": 41.668995, "lng": -70.12183, "ref_id": 272217, "rating": 3, "num_reviews": 0, "website": "http://www.thecoachmanmotorinn.com/", "contact_phone": "+1 508-432-0707", "contact_email": "coachmanmotorinn@prodigy.net", "status": 1, "source_type": 1, "numberReviews": 32}, {"name": "Dartmouth Motor Inn", "type": "hotel", "image": "https://dynamic-media-cdn.tripadvisor.com/media/photo-o/0a/e9/91/6f/dartmouth-motor-inn.jpg?w=1000&s=1", "address": "571 State Rd Route 6, Dartmouth, MA 02747-1804", "lat": 41.63974, "lng": -71.01299, "ref_id": 574446, "rating": 3, "num_reviews": 0, "website": "https://www.facebook.com/dartinn/", "contact_phone": "+1 508-997-0008", "contact_email": "dmi@grovelandhospitality.com", "status": 1, "source_type": 1, "numberReviews": 39}, {"name": "Olde Willow Motor Inn", "type": "hotel", "image": "https://dynamic-media-cdn.tripadvisor.com/media/photo-o/09/20/d3/75/olde-willow-motor-inn.jpg?w=1000&s=1", "address": "1463 Route 2 E, Charlemont, MA 01339-3902", "lat": 42.61812, "lng": -72.81651, "ref_id": 8072299, "rating": 3, "num_reviews": 0, "website": null, "contact_phone": "+1 413-339-4483", "contact_email": null, "status": 1, "source_type": 1, "numberReviews": 4}, {"name": "This Old House Bed & Breakfast", "type": "hotel", "image": "https://dynamic-media-cdn.tripadvisor.com/media/photo-o/05/e2/cf/49/this-old-house-bed-breakfast.jpg?w=1000&s=1", "address": "12 Plainfield St, Lexington, MA 02421-5806", "lat": 42.43369, "lng": -71.21129, "ref_id": 529315, "rating": 3, "num_reviews": 0, "website": "http://www.maryvansmyoldhouse.com/", "contact_phone": "+1 781-861-7057", "contact_email": "maryvan2@aol.com", "status": 1, "source_type": 1, "numberReviews": 31}, {"name": "Hyannis Host Inn", "type": "hotel", "image": "https://dynamic-media-cdn.tripadvisor.com/media/photo-o/22/04/98/f9/hyannis-host-inn.jpg?w=1000&s=1", "address": "614 Iyannough Rd, Hyannis, MA 02601-1910", "lat": 41.66669, "lng": -70.29042, "ref_id": 273604, "rating": 3, "num_reviews": 0, "website": "http://www.hyannishost.com/", "contact_phone": "+1 508-775-8910", "contact_email": "hyannishost@gmail.com", "status": 1, "source_type": 1, "numberReviews": 47}, {"name": "Stripers Grille &  Inn", "type": "hotel", "image": "https://dynamic-media-cdn.tripadvisor.com/media/photo-o/0c/72/df/04/clams-loaded-with-romano.jpg?w=1000&s=1", "address": "175 Bridge Rd Rings Island, Salisbury, MA 01952-2420", "lat": 42.81738, "lng": -70.87011, "ref_id": 2263564, "rating": 3, "num_reviews": 0, "website": "http://www.stripersgrille.com", "contact_phone": "+1 978-499-0400", "contact_email": "", "status": 1, "source_type": 1, "numberReviews": 27}, {"name": "Dalton House", "type": "hotel", "image": null, "address": "955 Main St, Dalton, MA 01226-2209", "lat": 42.47452, "lng": -73.15177, "ref_id": 115818, "rating": 2.5, "num_reviews": 0, "website": null, "contact_phone": "+1 413-684-3854", "contact_email": null, "status": 1, "source_type": 1, "numberReviews": 2}, {"name": "Captain's Corners", "type": "hotel", "image": "https://dynamic-media-cdn.tripadvisor.com/media/photo-s/00/14/d7/f0/captain-s-corners-bed.jpg?w=1000&s=1", "address": "89 Easton St P.O. Box 628, Nantucket, MA 02554-2201", "lat": 41.28765, "lng": -70.10167, "ref_id": 189765, "rating": 2.5, "num_reviews": 0, "website": "http://www.captainscorners.com/", "contact_phone": "+1 508-228-1692", "contact_email": "info@captainscorners.com", "status": 1, "source_type": 1, "numberReviews": 3}, {"name": "Mill House Inn", "type": "hotel", "image": null, "address": "4190 Rt. 43. PO Box 1079, Hancock, MA 01237", "lat": 42.53963, "lng": -73.3406, "ref_id": 77735, "rating": 2, "num_reviews": 0, "website": null, "contact_phone": "+1 413-738-5348", "contact_email": "fxt2@taconic.net", "status": 1, "source_type": 1, "numberReviews": 1}, {"name": "The Big House at Long Point", "type": "hotel", "image": null, "address": "20 Coffins Field Rd, Edgartown, Martha&#39;s Vineyard, MA 02539-6112", "lat": 41.38082, "lng": -70.60913, "ref_id": 252930, "rating": 1, "num_reviews": 0, "website": null, "contact_phone": "+1 508-627-3344", "contact_email": "bighousemv@earthlink.net", "status": 1, "source_type": 1, "numberReviews": 1}, {"name": "Drummer Cove Bed and Breakfast", "type": "hotel", "image": null, "address": "1100 Blackfish Ln, Wellfleet, MA 02667-8716", "lat": 41.91489, "lng": -69.99402, "ref_id": 493810, "rating": 2, "num_reviews": 0, "website": null, "contact_phone": "+1 508-349-1127", "contact_email": "", "status": 1, "source_type": 1, "numberReviews": 2}, {"name": "Casa do Zequita Bed & Breakfast", "type": "hotel", "image": null, "address": "1534 Commonwealth Ave Brighton, Boston, MA 02135-5029", "lat": 42.34512, "lng": -71.1414, "ref_id": 286508, "rating": 1, "num_reviews": 0, "website": null, "contact_phone": "+1 617-264-7535", "contact_email": "", "status": 1, "source_type": 1, "numberReviews": 1}, {"name": "Club Wyndham Bentley Brook", "type": "hotel", "image": "https://dynamic-media-cdn.tripadvisor.com/media/photo-o/2c/09/c3/df/exterior.jpg?w=1000&s=1", "address": "1 Corey Rd, Hancock, MA 01237", "lat": 42.557163, "lng": -73.28931, "ref_id": 281464, "rating": 4, "num_reviews": 0, "website": "http://www.extraholidays.com/hancock-massachusetts/wyndham-bentley-brook", "contact_phone": "+1 413-738-8600", "contact_email": "info@extraholidays.com", "status": 1, "source_type": 1, "numberReviews": 638}, {"name": "The Platinum Pebble Boutique Inn", "type": "hotel", "image": "https://dynamic-media-cdn.tripadvisor.com/media/photo-o/25/f5/60/2f/our-b-b-at-dusk.jpg?w=1000&s=1", "address": "186 Belmont Rd, West Harwich, Harwich, MA 02671-1306", "lat": 41.668575, "lng": -70.1177, "ref_id": 126267, "rating": 5, "num_reviews": 0, "website": "https://www.platinumpebble.com/", "contact_phone": "+1 508-432-7766", "contact_email": "stay@platinumpebble.com", "status": 1, "source_type": 1, "numberReviews": 890}, {"name": "The College Club of Boston", "type": "hotel", "image": "https://dynamic-media-cdn.tripadvisor.com/media/photo-o/0c/f0/eb/fb/photo2jpg.jpg?w=1000&s=1", "address": "44 Commonwealth Ave, Boston, MA 02116-3104", "lat": 42.35288, "lng": -71.073395, "ref_id": 280420, "rating": 4.5, "num_reviews": 0, "website": "http://thecollegeclubofboston.com", "contact_phone": "+1 617-536-9510", "contact_email": "accommodations@thecollegeclubofboston.com", "status": 1, "source_type": 1, "numberReviews": 329}, {"name": "Sheraton Springfield Monarch Place Hotel", "type": "hotel", "image": "https://dynamic-media-cdn.tripadvisor.com/media/photo-o/2c/15/30/b0/sheraton-club-lounge.jpg?w=1000&s=1", "address": "1 Monarch Pl, Springfield, MA 01144", "lat": 42.101517, "lng": -72.59154, "ref_id": 89871, "rating": 3.5, "num_reviews": 0, "website": "https://www.marriott.com/en-us/hotels/bdlsm-sheraton-springfield-monarch-place-hotel/overview/?scid=45f93f1b-bd77-45c9-8dab-83b6a417f6fe&y_source=1_MTUwMjc5Ni03NjktbG9jYXRpb24ud2Vic2l0ZQ%3D%3D", "contact_phone": "+1 413-781-1010", "contact_email": "info@sheratonspringfield.com", "status": 1, "source_type": 1, "numberReviews": 703}, {"name": "Dyer's Beach House", "type": "hotel", "image": "https://dynamic-media-cdn.tripadvisor.com/media/photo-o/0e/17/03/18/surround-yourself-with.jpg?w=1000&s=1", "address": "173 Commercial St, Provincetown, MA 02657-2101", "lat": 42.047684, "lng": -70.18947, "ref_id": 583373, "rating": 5, "num_reviews": 0, "website": "http://www.dyersbeachhouse.com/", "contact_phone": "+1 508-487-2061", "contact_email": "reservations@dyersbeachhouse.com", "status": 1, "source_type": 1, "numberReviews": 86}, {"name": "Devonfield Inn", "type": "hotel", "image": "https://dynamic-media-cdn.tripadvisor.com/media/photo-o/13/7b/ee/b9/devonfield-inn.jpg?w=1000&s=1", "address": "85 Stockbridge Rd, Lee, MA 01238-9308", "lat": 42.300846, "lng": -73.263794, "ref_id": 77750, "rating": 5, "num_reviews": 0, "website": "https://www.devonfield.com/", "contact_phone": "+1 413-243-3298", "contact_email": "innkeeper@devonfield.com", "status": 1, "source_type": 1, "numberReviews": 730}, {"name": "Residence Inn by Marriott Springfield Chicopee", "type": "hotel", "image": "https://dynamic-media-cdn.tripadvisor.com/media/photo-o/2c/15/e4/cb/studio-king-kitchen-living.jpg?w=1000&s=1", "address": "500 Memorial Dr, Chicopee, MA 01020", "lat": 42.172455, "lng": -72.57948, "ref_id": 4603569, "rating": 4.5, "num_reviews": 0, "website": "https://www.marriott.com/en-us/hotels/bdlcp-residence-inn-springfield-chicopee/overview/?scid=45f93f1b-bd77-45c9-8dab-83b6a417f6fe&y_source=1_MjgxODA0NC03NjktbG9jYXRpb24ud2Vic2l0ZQ%3D%3D", "contact_phone": "+1 413-331-4440", "contact_email": null, "status": 1, "source_type": 1, "numberReviews": 205}, {"name": "The Cutty Sark", "type": "hotel", "image": "https://dynamic-media-cdn.tripadvisor.com/media/photo-o/06/72/38/2f/gorgeous-pool.jpg?w=1000&s=1", "address": "396 Old Wharf Rd, Dennis Port, Dennis, MA 02639", "lat": 41.655804, "lng": -70.128456, "ref_id": 662493, "rating": 4.5, "num_reviews": 0, "website": "http://www.cuttysark.us", "contact_phone": "+1 508-398-9116", "contact_email": "inquire@cuttysark.us", "status": 1, "source_type": 1, "numberReviews": 98},