[{"name": "Le Quarteau", "type": "restaurant", "image": "https://dynamic-media-cdn.tripadvisor.com/media/photo-o/0c/8f/e4/85/photo0jpg.jpg?w=1000&s=1", "address": "33 Place du Quarteau, 57000, Metz France", "lat": 49.115303, "lng": 6.178897, "ref_id": 1330928, "rating": 4, "num_reviews": 0, "website": "https://www.facebook.com/pg/Lequarteau/about/?ref=page_internal", "contact_phone": "+33 3 87 74 46 43", "contact_email": "lequarteau@gmail.com", "status": 1, "source_type": 1, "numberReviews": 86}, {"name": "Kristal Palace", "type": "restaurant", "image": "https://dynamic-media-cdn.tripadvisor.com/media/photo-o/18/41/d3/23/photo0jpg.jpg?w=1000&s=1", "address": "3 rue Gambetta, 57000, Metz France", "lat": 49.11106, "lng": 6.173097, "ref_id": 1747315, "rating": 3.5, "num_reviews": 0, "website": "http://www.kristal-palace.fr/", "contact_phone": "+33 3 87 62 19 44", "contact_email": "", "status": 1, "source_type": 1, "numberReviews": 217}, {"name": "Carissimi Pizzas", "type": "restaurant", "image": "https://dynamic-media-cdn.tripadvisor.com/media/photo-o/14/1b/bf/0a/carissimi-pizzeria.jpg?w=1000&s=1", "address": "67 route de Plappeville, 57050, Metz France", "lat": 49.118114, "lng": 6.178333, "ref_id": 5865783, "rating": 4, "num_reviews": 0, "website": "http://www.carissimipizza.fr", "contact_phone": "+33 3 87 32 18 00", "contact_email": null, "status": 1, "source_type": 1, "numberReviews": 105}, {"name": "La Guitoune", "type": "restaurant", "image": "https://dynamic-media-cdn.tripadvisor.com/media/photo-o/29/91/ed/64/caption.jpg?w=1000&s=1", "address": "20 B rue des Jardins Metz, 57000, Metz France", "lat": 49.12156, "lng": 6.177292, "ref_id": 24001886, "rating": 4.5, "num_reviews": 0, "website": null, "contact_phone": "+33 3 87 74 48 65", "contact_email": "laguitoune-metz@gmail.com", "status": 1, "source_type": 1, "numberReviews": 12}, {"name": "Columbus Cafe & Co", "type": "restaurant", "image": "https://dynamic-media-cdn.tripadvisor.com/media/photo-o/1b/2d/8a/90/photo-de-profil.jpg?w=1000&s=1", "address": "33 Place Saint-jacques, 57000, Metz France", "lat": 49.118298, "lng": 6.176202, "ref_id": 13519353, "rating": 4, "num_reviews": 0, "website": "http://www.columbuscafe.com/boutique/metz-33-place-saint-jacques/", "contact_phone": "+33 3 87 75 06 78", "contact_email": null, "status": 1, "source_type": 1, "numberReviews": 30}, {"name": "Le Saint Marcel, Bistro Tradi", "type": "restaurant", "image": "https://dynamic-media-cdn.tripadvisor.com/media/photo-o/18/ac/54/54/outside-view.jpg?w=1000&s=1", "address": "1 rue du Pont Saint Marcel, 57000, Metz France", "lat": 49.121147, "lng": 6.171376, "ref_id": 17573913, "rating": 4, "num_reviews": 0, "website": "https://www.instagram.com/lesaintmarcelbistrotradi?igshid=NzZlODBkYWE4Ng%3D%3D&utm_source=qr", "contact_phone": "+33 6 38 96 89 24", "contact_email": "gabriel.goettman.572@gmail.com", "status": 1, "source_type": 1, "numberReviews": 46}, {"name": "Restaurant Fukushima Pasteur", "type": "restaurant", "image": "https://dynamic-media-cdn.tripadvisor.com/media/photo-o/21/51/0b/ac/nouveau-fukushima-pres.jpg?w=1000&s=1", "address": "11 rue Pasteur Quartier Imp\u00e9rial, 57000, Metz France", "lat": 49.108906, "lng": 6.17133, "ref_id": 23422307, "rating": 5, "num_reviews": 0, "website": "http://fukushimapasteur.fr", "contact_phone": "+33 9 77 56 42 67", "contact_email": "sarlfukuoka@gmail.com", "status": 1, "source_type": 1, "numberReviews": 10}, {"name": "Kefan Traiteur", "type": "restaurant", "image": "https://dynamic-media-cdn.tripadvisor.com/media/photo-o/1b/ab/37/e8/bo-bun-vegetarien.jpg?w=1000&s=1", "address": "2 rue des Messageries, 57000, Metz France", "lat": 49.105637, "lng": 6.181735, "ref_id": 13314856, "rating": 4, "num_reviews": 0, "website": "https://www.facebook.com/kefantraiteur/", "contact_phone": "+33 3 87 74 11 71", "contact_email": null, "status": 1, "source_type": 1, "numberReviews": 30}, {"name": "Nour", "type": "restaurant", "image": "https://dynamic-media-cdn.tripadvisor.com/media/photo-o/0d/90/df/01/delicieux.jpg?w=1000&s=1", "address": "3 rue Paul Bezanson, 57000, Metz France", "lat": 49.11904, "lng": 6.17479, "ref_id": 3381250, "rating": 4, "num_reviews": 0, "website": null, "contact_phone": "+33 3 87 74 38 22", "contact_email": null, "status": 1, "source_type": 1, "numberReviews": 63}, {"name": "56 Maison Chapelle", "type": "restaurant", "image": "https://dynamic-media-cdn.tripadvisor.com/media/photo-o/28/8f/73/79/caption.jpg?w=1000&s=1", "address": "56 rue de la Chapelle, 57000, Metz France", "lat": 49.099724, "lng": 6.173343, "ref_id": 25276860, "rating": 4.5, "num_reviews": 0, "website": null, "contact_phone": "+33 3 87 75 63 30", "contact_email": null, "status": 1, "source_type": 1, "numberReviews": 13}, {"name": "Brooklyn Cafe", "type": "restaurant", "image": "https://dynamic-media-cdn.tripadvisor.com/media/photo-o/0f/5e/08/48/photo0jpg.jpg?w=1000&s=1", "address": "27 rue des Roches, 57000, Metz France", "lat": 49.12055, "lng": 6.1737, "ref_id": 10818097, "rating": 4.5, "num_reviews": 0, "website": "https://www.facebook.com/Brooklyn-Caf%C3%A9-979646008823543/", "contact_phone": "+33 3 87 21 49 73", "contact_email": null, "status": 1, "source_type": 1, "numberReviews": 19}, {"name": "Frcihti Resto Mobile", "type": "restaurant", "image": "https://dynamic-media-cdn.tripadvisor.com/media/photo-o/0e/9f/90/fe/le-burger-frichti.jpg?w=1000&s=1", "address": "144 avenue des 2 Fontaines, 57050, Metz France", "lat": 49.1483, "lng": 6.17056, "ref_id": 10205760, "rating": 4.5, "num_reviews": 0, "website": "http://www.frichti-restomobile.fr/", "contact_phone": "+33 6 26 21 01 19", "contact_email": "contact@frichti-restomobile.fr", "status": 1, "source_type": 1, "numberReviews": 28}, {"name": "Le Palais Oriental", "type": "restaurant", "image": "https://dynamic-media-cdn.tripadvisor.com/media/photo-o/10/eb/9f/8d/interieur.jpg?w=1000&s=1", "address": "16 avenue Sebastopol, 57070, Metz France", "lat": 49.11085, "lng": 6.23099, "ref_id": 12950188, "rating": 4.5, "num_reviews": 0, "website": "http://www.palais-oriental.fr", "contact_phone": "+33 3 87 18 91 11", "contact_email": "lepalaisoriental.contact@gmail.com", "status": 1, "source_type": 1, "numberReviews": 15}, {"name": "Fontaine", "type": "restaurant", "image": "https://dynamic-media-cdn.tripadvisor.com/media/photo-o/29/7d/b5/44/devanture.jpg?w=1000&s=1", "address": "31 rue Taison, 57000, Metz France", "lat": 49.11945, "lng": 6.177991, "ref_id": 25064497, "rating": 5, "num_reviews": 0, "website": null, "contact_phone": "+33 6 43 71 97 53", "contact_email": null, "status": 1, "source_type": 1, "numberReviews": 7}, {"name": "Bon Samaritain", "type": "restaurant", "image": "https://dynamic-media-cdn.tripadvisor.com/media/photo-o/10/c1/77/e1/photo1jpg.jpg?w=1000&s=1", "address": "21 rue Mazelle, 57000, Metz France", "lat": 49.11727, "lng": 6.18111, "ref_id": 1542432, "rating": 3.5, "num_reviews": 0, "website": null, "contact_phone": "+33 3 87 74 42 54", "contact_email": "", "status": 1, "source_type": 1, "numberReviews": 83}, {"name": "Toki", "type": "restaurant", "image": "https://dynamic-media-cdn.tripadvisor.com/media/photo-o/1b/79/e5/89/photo1jpg.jpg?w=1000&s=1", "address": "30 rue du Coetlosquet, 57000, Metz France", "lat": 49.11505, "lng": 6.17539, "ref_id": 7784006, "rating": 3.5, "num_reviews": 0, "website": null, "contact_phone": "+33 3 87 50 74 56", "contact_email": null, "status": 1, "source_type": 1, "numberReviews": 79}, {"name": "Le Maitre Du Pain (Henri Le Boulanger)", "type": "restaurant", "image": "https://dynamic-media-cdn.tripadvisor.com/media/photo-o/16/74/55/3f/du-pain-et-des-viennoiseries.jpg?w=1000&s=1", "address": "22 avenue Leclerc de Hauteclocque, 57000, Metz France", "lat": 49.10857, "lng": 6.16985, "ref_id": 10543432, "rating": 4.5, "num_reviews": 0, "website": null, "contact_phone": null, "contact_email": null, "status": 1, "source_type": 1, "numberReviews": 16}, {"name": "Bottle Bar", "type": "restaurant", "image": "https://dynamic-media-cdn.tripadvisor.com/media/photo-o/29/27/9e/aa/planche-mixte.jpg?w=1000&s=1", "address": "11 Rue Du Faisan, 57000, Metz France", "lat": 49.11946, "lng": 6.172488, "ref_id": 25380845, "rating": 4.5, "num_reviews": 0, "website": "https://bottlebar.fr", "contact_phone": "+33 3 72 39 62 07", "contact_email": "contact@bottlebar.fr", "status": 1, "source_type": 1, "numberReviews": 9}, {"name": "Terrubi Lounge", "type": "restaurant", "image": "https://dynamic-media-cdn.tripadvisor.com/media/photo-o/1b/c4/1d/8b/terrubi-lounge.jpg?w=1000&s=1", "address": "18 B rue de l Abreuvoir, 57000, Metz France", "lat": 49.115845, "lng": 6.180947, "ref_id": 20206669, "rating": 4, "num_reviews": 0, "website": "https://www.facebook.com/Terrubi-Lounge-Metz-100744544716201/", "contact_phone": "+33 3 87 22 47 78", "contact_email": "terrubilounge@gmail.com", "status": 1, "source_type": 1, "numberReviews": 26}, {"name": "L'envol", "type": "restaurant", "image": "https://dynamic-media-cdn.tripadvisor.com/media/photo-o/1c/54/63/de/logo-l-envol.jpg?w=1000&s=1", "address": "44 en Fournirue, 57000, Metz France", "lat": 49.118603, "lng": 6.177498, "ref_id": 21389981, "rating": 4, "num_reviews": 0, "website": "http://lenvol-metz.fr/menu/", "contact_phone": "+33 3 87 75 05 12", "contact_email": null, "status": 1, "source_type": 1, "numberReviews": 44}, {"name": "l Italiano", "type": "restaurant", "image": "https://dynamic-media-cdn.tripadvisor.com/media/photo-o/14/16/c0/af/photo1jpg.jpg?w=1000&s=1", "address": "7 C Place Saint Roch 57000 Metz, 57000, Metz France", "lat": 49.078274, "lng": 6.184763, "ref_id": 3732471, "rating": 4, "num_reviews": 0, "website": "http://www.litalianometz.fr", "contact_phone": "+33 6 89 10 62 91", "contact_email": null, "status": 1, "source_type": 1, "numberReviews": 94}, {"name": "Osteria dei sapori", "type": "restaurant", "image": "https://dynamic-media-cdn.tripadvisor.com/media/photo-o/28/57/86/9f/caption.jpg?w=1000&s=1", "address": "19 Rue Dupont des Loges, 57000, Metz France", "lat": 49.115833, "lng": 6.175549, "ref_id": 25318679, "rating": 4, "num_reviews": 0, "website": "http://osteria-dei-sapori.fr/", "contact_phone": null, "contact_email": null, "status": 1, "source_type": 1, "numberReviews": 15}, {"name": "P\u00e2tisserie Sourdot", "type": "restaurant", "image": null, "address": "20 rue Gambetta, 57000, Metz France", "lat": 49.11022, "lng": 6.17594, "ref_id": 6919697, "rating": 4.5, "num_reviews": 0, "website": "https://www.facebook.com/577888135576996", "contact_phone": "+33 3 87 66 71 64", "contact_email": null, "status": 1, "source_type": 1, "numberReviews": 16}, {"name": "C\u00f4t\u00e9 Sushi", "type": "restaurant", "image": "https://dynamic-media-cdn.tripadvisor.com/media/photo-o/2b/00/88/72/d-inspiration-japonaise.jpg?w=1000&s=1", "address": "14 Rue des Clercs, 57000, Metz France", "lat": 49.117195, "lng": 6.173736, "ref_id": 16910455, "rating": 4, "num_reviews": 0, "website": null, "contact_phone": "+33 3 59 28 15 55", "contact_email": null, "status": 1, "source_type": 1, "numberReviews": 37}, {"name": "Eve", "type": "restaurant", "image": "https://dynamic-media-cdn.tripadvisor.com/media/photo-o/1b/a2/78/d2/photo0jpg.jpg?w=1000&s=1", "address": "22 Rue Taison, 57000, Metz France", "lat": 49.11921, "lng": 6.17753, "ref_id": 19432623, "rating": 5, "num_reviews": 0, "website": "http://www.epicerievegetale.fr", "contact_phone": "+33 6 19 88 53 75", "contact_email": null, "status": 1, "source_type": 1, "numberReviews": 8}, {"name": "Brasserie Rep", "type": "restaurant", "image": "https://dynamic-media-cdn.tripadvisor.com/media/photo-o/0c/d1/85/fa/un-ptit-dej-classique.jpg?w=1000&s=1", "address": "Place de la Republique, 57000, Metz France", "lat": 49.11594, "lng": 6.172963, "ref_id": 4752771, "rating": 3.5, "num_reviews": 0, "website": "http://brasserierep.fr", "contact_phone": "+33 3 87 75 11 45", "contact_email": null, "status": 1, "source_type": 1, "numberReviews": 119}, {"name": "L'Ere des Tulipes", "type": "restaurant", "image": "https://dynamic-media-cdn.tripadvisor.com/media/photo-o/09/7d/7a/ae/ta-img-20151112-121343.jpg?w=1000&s=1", "address": "10 avenue Sebastopol, 57070, Metz France", "lat": 49.11109, "lng": 6.230821, "ref_id": 3563464, "rating": 4, "num_reviews": 0, "website": "https://www.facebook.com/1519723698325736", "contact_phone": "+33 3 87 21 03 74", "contact_email": null, "status": 1, "source_type": 1, "numberReviews": 62}, {"name": "Hinalaya", "type": "restaurant", "image": "https://dynamic-media-cdn.tripadvisor.com/media/photo-o/16/c1/f0/d6/hinalaya.jpg?w=1000&s=1", "address": "66 rue du General Metman, 57070, Metz France", "lat": 49.11999, "lng": 6.21885, "ref_id": 16746209, "rating": 4.5, "num_reviews": 0, "website": "http://www.hinalaya.com", "contact_phone": "+33 3 87 79 13 24", "contact_email": null, "status": 1, "source_type": 1, "numberReviews": 9}, {"name": "Di Clara", "type": "restaurant", "image": "https://dynamic-media-cdn.tripadvisor.com/media/photo-o/0b/c5/3e/22/steak.jpg?w=1000&s=1", "address": "3 rue Dupont des Loges, 57000, Metz France", "lat": 49.117023, "lng": 6.176969, "ref_id": 1873049, "rating": 3.5, "num_reviews": 0, "website": "http://www.diclara.com", "contact_phone": "+33 3 87 76 04 54", "contact_email": "", "status": 1, "source_type": 1, "numberReviews": 507}, {"name": "The Garden Golf Restaurant", "type": "restaurant", "image": "https://dynamic-media-cdn.tripadvisor.com/media/photo-o/0e/76/53/02/un-verre-en-terrasse.jpg?w=1000&s=1", "address": "3 rue Felix Savart, 57070, Metz France", "lat": 49.09942, "lng": 6.22484, "ref_id": 10388489, "rating": 3.5, "num_reviews": 0, "website": "http://jouer.golf/metz/", "contact_phone": "+33 3 87 78 46 63", "contact_email": "restaurant@gardengolfmetz.com", "status": 1, "source_type": 1, "numberReviews": 40}, {"name": "le Shalimar", "type": "restaurant", "image": "https://dynamic-media-cdn.tripadvisor.com/media/photo-o/04/25/0e/e1/le-shalimar.jpg?w=1000&s=1", "address": "29 rue du Pont des Morts, 57000, Metz France", "lat": 49.1205, "lng": 6.16945, "ref_id": 788949, "rating": 4, "num_reviews": 0, "website": "http://restaurant-shalimar.com/", "contact_phone": "+33 3 87 30 89 60", "contact_email": "", "status": 1, "source_type": 1, "numberReviews": 138}, {"name": "Atelier Bon", "type": "restaurant", "image": "https://dynamic-media-cdn.tripadvisor.com/media/photo-o/13/71/5f/df/vitrine-au-matin-avant.jpg?w=1000&s=1", "address": "63 Place Saint Louis, 57000, Metz France", "lat": 49.11577, "lng": 6.17862, "ref_id": 14056042, "rating": 5, "num_reviews": 0, "website": "https://www.facebook.com/Atelier-Bon-356219184818617/", "contact_phone": "+33 3 87 76 03 96", "contact_email": "atelier.bon.metz@gmail.com", "status": 1, "source_type": 1, "numberReviews": 41}, {"name": "Martina Ristorante", "type": "restaurant", "image": "https://dynamic-media-cdn.tripadvisor.com/media/photo-o/2a/3e/35/b2/caption.jpg?w=1000&s=1", "address": "5 rue Francois de Curel, 57000, Metz France", "lat": 49.11079, "lng": 6.176798, "ref_id": 23844713, "rating": 4.5, "num_reviews": 0, "website": "http://www.instagram.com/martinaristorante", "contact_phone": "+33 3 87 67 06 92", "contact_email": "l.lambert@martinagroup.fr", "status": 1, "source_type": 1, "numberReviews": 36}, {"name": "La FabriK \u00e0 Fromage", "type": "restaurant", "image": "https://dynamic-media-cdn.tripadvisor.com/media/photo-o/1c/25/a6/ce/photo5jpg.jpg?w=1000&s=1", "address": "La Fabrik a Fromage, 57000, Metz France", "lat": 49.1207, "lng": 6.1735, "ref_id": 19081636, "rating": 4, "num_reviews": 0, "website": "https://www.facebook.com/profile.php?id=100090013130820", "contact_phone": "+33 3 87 15 14 66", "contact_email": "lebrook.metz@gmail.com", "status": 1, "source_type": 1, "numberReviews": 117}, {"name": "Cantino", "type": "restaurant", "image": "https://dynamic-media-cdn.tripadvisor.com/media/photo-o/03/92/a3/2c/cantino.jpg?w=1000&s=1", "address": "8 rue des Piques, 57000, Metz France", "lat": 49.12129, "lng": 6.17559, "ref_id": 2351531, "rating": 4, "num_reviews": 0, "website": "http://www.facebook.com/Cantino-210503842321661", "contact_phone": "+33 3 87 36 19 01", "contact_email": "", "status": 1, "source_type": 1, "numberReviews": 160}, {"name": "Le Madrigal", "type": "restaurant", "image": "https://dynamic-media-cdn.tripadvisor.com/media/photo-o/15/f6/0f/47/poisson-frais-un-delice.jpg?w=1000&s=1", "address": "5 Place Alexandre Monpeurt, 57000, Metz France", "lat": 49.077778, "lng": 6.184167, "ref_id": 1330922, "rating": 4.5, "num_reviews": 0, "website": "http://lemadrigalmagny.com", "contact_phone": "+33 6 72 43 96 38", "contact_email": "le.madrigal@hotmail.com", "status": 1, "source_type": 1, "numberReviews": 62}, {"name": "Le Onze", "type": "restaurant", "image": "https://dynamic-media-cdn.tripadvisor.com/media/photo-o/2b/f4/7f/79/caption.jpg?w=1000&s=1", "address": "2 Place Du Roi George, 57000, Metz France", "lat": 49.11078, "lng": 6.172137, "ref_id": 27515587, "rating": 5, "num_reviews": 0, "website": "https://www.brasserie-le11.fr/", "contact_phone": "+33 7 45 18 96 38", "contact_email": "contact@brasserie-le11.fr", "status": 1, "source_type": 1, "numberReviews": 19}, {"name": "O Paradis Ethiopien", "type": "restaurant", "image": "https://dynamic-media-cdn.tripadvisor.com/media/photo-o/0b/a2/e8/17/photo1jpg.jpg?w=1000&s=1", "address": "14 rue du Xxe Corps Americain, 57000, Metz France", "lat": 49.103878, "lng": 6.165461, "ref_id": 4327151, "rating": 4, "num_reviews": 0, "website": "http://www.restaurant-oparadisethiopien.com/", "contact_phone": "+33 3 87 63 84 72", "contact_email": null, "status": 1, "source_type": 1, "numberReviews": 101}, {"name": "Vivians Pub Fairy", "type": "restaurant", "image": "https://dynamic-media-cdn.tripadvisor.com/media/photo-o/11/07/97/1c/fete.jpg?w=1000&s=1", "address": "15 Place Saint Louis, 57000, Metz France", "lat": 49.116898, "lng": 6.179075, "ref_id": 6958617, "rating": 4.5, "num_reviews": 0, "website": "https://www.facebook.com/vivians.pub", "contact_phone": "+33 3 87 18 95 01", "contact_email": "contact@vivianspub.fr", "status": 1, "source_type": 1, "numberReviews": 123}, {"name": "Fresh Burritos Metz Muse", "type": "restaurant", "image": "https://dynamic-media-cdn.tripadvisor.com/media/photo-o/17/a6/38/ef/burritos-tacos-salades.jpg?w=1000&s=1", "address": "2 rue des Messageries Centre Commercial Muse, 57000, Metz France", "lat": 49.106384, "lng": 6.181881, "ref_id": 13456093, "rating": 4.5, "num_reviews": 0, "website": "https://restaurants.freshburritos.fr/metz-muse/", "contact_phone": "+33 3 87 79 05 75", "contact_email": "freshburritos.muse@gmail.com", "status": 1, "source_type": 1, "numberReviews": 51}, {"name": "Oriental Kebab", "type": "restaurant", "image": "https://dynamic-media-cdn.tripadvisor.com/media/photo-o/09/07/4a/ee/oriental-kebab.jpg?w=1000&s=1", "address": "32 rue Saint Livier, 57000, Metz France", "lat": 49.100384, "lng": 6.174371, "ref_id": 8508683, "rating": 4.5, "num_reviews": 0, "website": "https://www.facebook.com/orientalkebabsablon.fr/", "contact_phone": "+33 3 87 63 77 39", "contact_email": null, "status": 1, "source_type": 1, "numberReviews": 84}, {"name": "Auberge du Mini Golf", "type": "restaurant", "image": "https://dynamic-media-cdn.tripadvisor.com/media/photo-o/11/f9/31/a8/salle.jpg?w=1000&s=1", "address": "5 Ile du Saulcy, 57000, Metz France", "lat": 49.117867, "lng": 6.167068, "ref_id": 1330158, "rating": 4, "num_reviews": 0, "website": "http://www.aubergeduminigolf.fr", "contact_phone": "+33 3 87 30 74 02", "contact_email": "", "status": 1, "source_type": 1, "numberReviews": 121}, {"name": "L'Escalier", "type": "restaurant", "image": "https://dynamic-media-cdn.tripadvisor.com/media/photo-o/11/66/2c/2f/l-escalier.jpg?w=1000&s=1", "address": "12 rue du Faisan, 57000, Metz France", "lat": 49.11933, "lng": 6.172555, "ref_id": 3689188, "rating": 3.5, "num_reviews": 0, "website": "http://www.facebook.com/lescaliermetz/", "contact_phone": "+33 9 83 39 77 07", "contact_email": "lescalier.metz@gmail.com", "status": 1, "source_type": 1, "numberReviews": 786}, {"name": "Le Comptoir", "type": "restaurant", "image": "https://dynamic-media-cdn.tripadvisor.com/media/photo-o/16/ab/16/95/img-20190301-125942-largejpg.jpg?w=1000&s=1", "address": "20 rue Sainte Marie, 57000, Metz France", "lat": 49.11899, "lng": 6.171826, "ref_id": 2180876, "rating": 4, "num_reviews": 0, "website": "http://www.facebook.com/comptoirmetz/", "contact_phone": "+33 3 87 36 58 97", "contact_email": "lecomptoir.metz@gmail.com", "status": 1, "source_type": 1, "numberReviews": 310}, {"name": "Cr\u00eaperie Le St Malo", "type": "restaurant", "image": "https://dynamic-media-cdn.tripadvisor.com/media/photo-o/2b/d8/14/5f/salle-du-restaurant.jpg?w=1000&s=1", "address": "14 rue des Clercs, 57000, Metz France", "lat": 49.11724, "lng": 6.173878, "ref_id": 1647591, "rating": 3.5, "num_reviews": 0, "website": "http://www.creperie-metz.com", "contact_phone": "+33 3 87 74 56 85", "contact_email": "contact@creperie-metz.com", "status": 1, "source_type": 1, "numberReviews": 361}, {"name": "L'Assiette et le Verre", "type": "restaurant", "image": "https://dynamic-media-cdn.tripadvisor.com/media/photo-o/0e/48/cb/d5/pour-y-etre-alle-plusieurs.jpg?w=1000&s=1", "address": "29 Place de Chambre, 57000, Metz France", "lat": 49.12037, "lng": 6.173992, "ref_id": 1402721, "rating": 3.5, "num_reviews": 0, "website": "https://www.facebook.com/lassietteetleverre/", "contact_phone": "+33 3 87 36 65 77", "contact_email": "", "status": 1, "source_type": 1, "numberReviews": 233}, {"name": "Verdura", "type": "restaurant", "image": "https://dynamic-media-cdn.tripadvisor.com/media/photo-o/1a/92/70/80/photo2jpg.jpg?w=1000&s=1", "address": "27 en Chaplerue, 57000, Metz France", "lat": 49.116043, "lng": 6.177442, "ref_id": 15060165, "rating": 4.5, "num_reviews": 0, "website": "https://www.facebook.com/verdura.store/", "contact_phone": "+33 3 87 74 24 43", "contact_email": null, "status": 1, "source_type": 1, "numberReviews": 40}, {"name": "La Goulue", "type": "restaurant", "image": "https://dynamic-media-cdn.tripadvisor.com/media/photo-o/17/95/6d/74/photo0jpg.jpg?w=1000&s=1", "address": "24 Place Saint Simplice, 57000, Metz France", "lat": 49.11667, "lng": 6.179735, "ref_id": 3682229, "rating": 4, "num_reviews": 0, "website": "http://www.cartesurtables.com/les-restaurants/metz/restaurant_la-goulue-337.htm&lng=fr&stndln=true", "contact_phone": "+33 3 87 75 10 69", "contact_email": null, "status": 1, "source_type": 1, "numberReviews": 143}, {"name": "Terroirs de Lorraine", "type": "restaurant", "image": "https://dynamic-media-cdn.tripadvisor.com/media/photo-o/12/23/6e/e3/bienvenue.jpg?w=1000&s=1", "address": "3 Place du G\u00e9n\u00e9ral de Gaulle, 57000, Metz France", "lat": 49.109653, "lng": 6.176544, "ref_id": 13336654, "rating": 3.5, "num_reviews": 0, "website": "https://www.terroirsdelorraine.com/#chef", "contact_phone": "+33 3 87 66 64 03", "contact_email": "terroirs.lorraine@ssp.fr", "status": 1, "source_type": 1, "numberReviews": 350}, {"name": "Vinodurum", "type": "restaurant", "image": "https://dynamic-media-cdn.tripadvisor.com/media/photo-o/18/b4/bd/b3/decoration-tendance-pour.jpg?w=1000&s=1", "address": "19 En Fournirue, 57000, Metz France", "lat": 49.118893, "lng": 6.176683, "ref_id": 13149394, "rating": 4.5, "num_reviews": 0, "website": "https://www.facebook.com/laficelle57/", "contact_phone": "+33 3 87 63 28 71", "contact_email": null, "status": 1, "source_type": 1, "numberReviews": 42}, {"name": "Chez Franceska", "type": "restaurant", "image": "https://dynamic-media-cdn.tripadvisor.com/media/photo-o/1c/0c/c9/48/photo0jpg.jpg?w=1000&s=1", "address": "25 rue de la Chevre, 57000, Metz France", "lat": 49.11623, "lng": 6.177539, "ref_id": 11831904, "rating": 4.5, "num_reviews": 0, "website": "https://www.facebook.com/chezfranceska/", "contact_phone": "+33 3 87 20 94 61", "contact_email": null, "status": 1, "source_type": 1, "numberReviews": 71}, {"name": "Les Moulins Bleus - Metz", "type": "restaurant", "image": "https://dynamic-media-cdn.tripadvisor.com/media/photo-o/1a/ab/33/8d/les-moulins-bleus.jpg?w=1000&s=1", "address": "1-3 Rue Fabert, 57000, Metz France", "lat": 49.11916, "lng": 6.175635, "ref_id": 1541405, "rating": 3.5, "num_reviews": 0, "website": "http://www.lesmoulinsbleus.com", "contact_phone": "+33 3 87 37 38 71", "contact_email": "contact@lesmoulinsbleus.com", "status": 1, "source_type": 1, "numberReviews": 377}, {"name": "chez Branco", "type": "restaurant", "image": "https://dynamic-media-cdn.tripadvisor.com/media/photo-o/17/14/ba/f4/pizza-a-base-de-chorizo.jpg?w=1000&s=1", "address": "22 rue Saint Livier, 57000, Metz France", "lat": 49.1004, "lng": 6.172892, "ref_id": 1084643, "rating": 4, "num_reviews": 0, "website": "http://www.ou-dejeuner.com/metz-57000/pizza-pizzeria-5/chez-branko-32629", "contact_phone": "+33 3 87 55 27 06", "contact_email": "", "status": 1, "source_type": 1, "numberReviews": 194}, {"name": "Garden Tea Shop", "type": "restaurant", "image": "https://dynamic-media-cdn.tripadvisor.com/media/photo-o/18/34/4c/43/salon.jpg?w=1000&s=1", "address": "66 en Fournirue, 57000, Metz France", "lat": 49.11832, "lng": 6.17819, "ref_id": 16883198, "rating": 4.5, "num_reviews": 0, "website": "http://legardenmetz.com", "contact_phone": "+33 3 54 48 50 73", "contact_email": "contact@legardenmetz.com", "status": 1, "source_type": 1, "numberReviews": 27}, {"name": "Caf\u00e9 Rubis", "type": "restaurant", "image": "https://dynamic-media-cdn.tripadvisor.com/media/photo-o/16/9d/9d/72/photo0jpg.jpg?w=1000&s=1", "address": "25 Place Saint Louis, 57000, Metz France", "lat": 49.116634, "lng": 6.179019, "ref_id": 3421253, "rating": 4, "num_reviews": 0, "website": "https://www.facebook.com/caferubismetz/", "contact_phone": "+33 3 87 17 31 17", "contact_email": null, "status": 1, "source_type": 1, "numberReviews": 179}, {"name": "O'Mezza", "type": "restaurant", "image": "https://dynamic-media-cdn.tripadvisor.com/media/photo-o/12/26/ee/71/o-mezza.jpg?w=1000&s=1", "address": "1 Rue Belle-isle, 57000, Metz France", "lat": 49.12103, "lng": 6.16888, "ref_id": 12320754, "rating": 4.5, "num_reviews": 0, "website": "http://www.fetch-livraison.com", "contact_phone": "+33 3 87 49 17 05", "contact_email": null, "status": 1, "source_type": 1, "numberReviews": 49}, {"name": "Guar\u00e0", "type": "restaurant", "image": "https://dynamic-media-cdn.tripadvisor.com/media/photo-o/2a/ee/5c/e0/caption.jpg?w=1000&s=1", "address": "14 rue de l Abreuvoir, 57000, Metz France", "lat": null, "lng": null, "ref_id": 23934422, "rating": 4.5, "num_reviews": 0, "website": "http://www.facebook.com/Guar%C3%A0-Restaurant-174713930894435", "contact_phone": "+33 3 56 67 82 26", "contact_email": "familleguara@gmail.com", "status": 1, "source_type": 1, "numberReviews": 28}, {"name": "Mamie Branch\u00e9e Metz", "type": "restaurant", "image": "https://dynamic-media-cdn.tripadvisor.com/media/photo-o/1d/98/51/bf/duck-confit-parmentier.jpg?w=1000&s=1", "address": "Promenade de l'Esplanade, 57000, Metz France", "lat": 49.116, "lng": 6.169167, "ref_id": 17740775, "rating": 4, "num_reviews": 0, "website": "https://www.facebook.com/Mamie-Branch%C3%A9e-Metz-552404855269092/", "contact_phone": "+33 9 53 49 01 05", "contact_email": null, "status": 1, "source_type": 1, "numberReviews": 132}, {"name": "Le Wenge Lounge", "type": "restaurant", "image": "https://dynamic-media-cdn.tripadvisor.com/media/photo-o/0d/1d/9a/94/20160809-122355-largejpg.jpg?w=1000&s=1", "address": "49 Place Saint Louis 57000, 57000, Metz France", "lat": 49.116062, "lng": 6.178917, "ref_id": 3898114, "rating": 4, "num_reviews": 0, "website": "http://fr-fr.facebook.com/lewenge", "contact_phone": "+33 3 87 36 52 89", "contact_email": null, "status": 1, "source_type": 1, "numberReviews": 114}, {"name": "Chez Monsieur", "type": "restaurant", "image": "https://dynamic-media-cdn.tripadvisor.com/media/photo-o/1b/75/4f/26/img-20200626-123827-bokeh.jpg?w=1000&s=1", "address": "50 rue de la Chapelle, 57000, Metz France", "lat": 49.100044, "lng": 6.173216, "ref_id": 11721643, "rating": 4.5, "num_reviews": 0, "website": "http://www.chezmonsieur-etc.fr", "contact_phone": "+33 9 73 66 12 47", "contact_email": "contact@chezmonsieur-etc.fr", "status": 1, "source_type": 1, "numberReviews": 42}, {"name": "Campanile Metz Est Technopole", "type": "restaurant", "image": null, "address": "2 boulevard Solidarite Technopole 2000, 57070, Metz France", "lat": 49.10658, "lng": 6.21858, "ref_id": 22821339, "rating": -1, "num_reviews": 0, "website": "https://metz-est-technopole.campanile.com/en-us/hotel-restaurants/", "contact_phone": "+33 3 83 75 13 11", "contact_email": null, "status": 1, "source_type": 1, "numberReviews": 0}, {"name": "Takoyaki", "type": "restaurant", "image": null, "address": "105 rue aux Arenes, 57000, Metz France", "lat": 49.106564, "lng": 6.176504, "ref_id": 19115866, "rating": -1, "num_reviews": 0, "website": "http://www.takoyakimetz.fr/index.php", "contact_phone": "+33 3 87 64 56 80", "contact_email": null, "status": 1, "source_type": 1, "numberReviews": 0}, {"name": "Tizn'Eat", "type": "restaurant", "image": null, "address": "Pl. Jean Jaur\u00e8s, 7, 57050, Metz France", "lat": 49.11931, "lng": 6.175716, "ref_id": 25565817, "rating": -1, "num_reviews": 0, "website": null, "contact_phone": "+33 9 55 65 00 62", "contact_email": null, "status": 1, "source_type": 1, "numberReviews": 0}, {"name": "Snack Shalimar 2", "type": "restaurant", "image": null, "address": "41 Rue Du Pont Des Morts, 57000 Longeville-les-Metz, Metz France", "lat": 49.121185, "lng": 6.169038, "ref_id": 27853711, "rating": -1, "num_reviews": 0, "website": "https://www.facebook.com/1716726565263458", "contact_phone": "+33 7 82 61 78 30", "contact_email": null, "status": 1, "source_type": 1, "numberReviews": 0}, {"name": "Domino's Pizza Metz Est", "type": "restaurant", "image": null, "address": "70 boulevard de l Europe, 57070, Metz France", "lat": 49.11859, "lng": 6.203125, "ref_id": 24861179, "rating": -1, "num_reviews": 0, "website": "https://www.dominos.fr/", "contact_phone": "+33 3 55 55 55 55", "contact_email": null, "status": 1, "source_type": 1, "numberReviews": 0}, {"name": "The Mermaid Tavern - Metz", "type": "restaurant", "image": null, "address": "53 Place De Chambre, 57000 Longeville-les-Metz, Metz France", "lat": 49.119892, "lng": 6.172621, "ref_id": 27292346, "rating": -1, "num_reviews": 0, "website": "https://www.facebook.com/111683123840856", "contact_phone": "+33 3 87 68 92 38", "contact_email": null, "status": 1, "source_type": 1, "numberReviews": 0}, {"name": "Burger kebab", "type": "restaurant", "image": null, "address": "Rue du Palais, 57000, Metz France", "lat": 49.117153, "lng": 6.174473, "ref_id": 26313325, "rating": -1, "num_reviews": 0, "website": null, "contact_phone": null, "contact_email": null, "status": 1, "source_type": 1, "numberReviews": 0}, {"name": "Snack Ephese", "type": "restaurant", "image": "https://dynamic-media-cdn.tripadvisor.com/media/photo-o/1c/51/3f/9d/snack-ephese-metz-avenue.jpg?w=1000&s=1", "address": "4 avenue de Lattre de Tassigny, 57000, Metz France", "lat": 49.10974, "lng": 6.16719, "ref_id": 21397188, "rating": -1, "num_reviews": 0, "website": null, "contact_phone": null, "contact_email": null, "status": 1, "source_type": 1, "numberReviews": 0}, {"name": "Kebab de la Gare", "type": "restaurant", "image": "https://dynamic-media-cdn.tripadvisor.com/media/photo-o/0e/1f/95/e3/kebab-de-la-gare.jpg?w=1000&s=1", "address": "10 rue Francois de Curel, 57000, Metz France", "lat": 49.11082, "lng": 6.17717, "ref_id": 11881072, "rating": 2.5, "num_reviews": 0, "website": "https://www.facebook.com/kebabdelagaremetz", "contact_phone": "+33 7 87 87 80 72", "contact_email": null, "status": 1, "source_type": 1, "numberReviews": 13}, {"name": "Bar Saint Jacques", "type": "restaurant", "image": "https://dynamic-media-cdn.tripadvisor.com/media/photo-o/1b/70/1e/b5/photo0jpg.jpg?w=1000&s=1", "address": "10 Place Saint-jacques, 57000, Metz France", "lat": 49.118645, "lng": 6.175925, "ref_id": 10500408, "rating": 3, "num_reviews": 0, "website": "https://www.facebook.com/166045866743751", "contact_phone": "+33 3 87 75 08 20", "contact_email": null, "status": 1, "source_type": 1, "numberReviews": 59}, {"name": "Ikea Restaurant", "type": "restaurant", "image": "https://dynamic-media-cdn.tripadvisor.com/media/photo-o/1a/41/ba/70/il-y-a-une-aire-de-jeux.jpg?w=1000&s=1", "address": "Rue du Trou aux Serpents, 57140, Metz France", "lat": 49.15037, "lng": 6.18831, "ref_id": 19630207, "rating": 3, "num_reviews": 0, "website": "https://www.ikea.com/fr/fr/stores/metz/", "contact_phone": "+33 9 69 36 20 06", "contact_email": null, "status": 1, "source_type": 1, "numberReviews": 4}, {"name": "Minuto's", "type": "restaurant", "image": null, "address": "41 Rue Des Allemands, 57000, Metz France", "lat": 49.11766, "lng": 6.18292, "ref_id": 15707682, "rating": 2, "num_reviews": 0, "website": "https://www.facebook.com/2060328030916695", "contact_phone": "+33 3 87 75 76 94", "contact_email": null, "status": 1, "source_type": 1, "numberReviews": 1}, {"name": "Le 333", "type": "restaurant", "image": null, "address": "Centre Pompidou, Metz France", "lat": 49.10803, "lng": 6.18093, "ref_id": 4079906, "rating": 2.5, "num_reviews": 0, "website": "http://www.centrepompidou-metz.fr/cafe-333-esprit-lieu", "contact_phone": null, "contact_email": "contact@centrepompidou-metz.fr", "status": 1, "source_type": 1, "numberReviews": 7}, {"name": "Patisserie Alain Gillet", "type": "restaurant", "image": "https://dynamic-media-cdn.tripadvisor.com/media/photo-o/0f/6e/08/97/cute-pastries-at-gillet.jpg?w=1000&s=1", "address": "66 rue Serpenoise, 57000, Metz France", "lat": 49.11561, "lng": 6.17416, "ref_id": 10448890, "rating": 2.5, "num_reviews": 0, "website": null, "contact_phone": null, "contact_email": null, "status": 1, "source_type": 1, "numberReviews": 7}, {"name": "La Brioche Doree", "type": "restaurant", "image": "https://dynamic-media-cdn.tripadvisor.com/media/photo-o/15/93/be/a2/la-brioche-doree.jpg?w=1000&s=1", "address": "43 rue Serpenoise, 57000, Metz France", "lat": 49.11643, "lng": 6.17473, "ref_id": 9711847, "rating": 3, "num_reviews": 0, "website": "http://www.groupeleduff.fr/prehome.php", "contact_phone": "+33 3 87 75 26 33", "contact_email": null, "status": 1, "source_type": 1, "numberReviews": 20}, {"name": "Valentino", "type": "restaurant", "image": null, "address": "Rue Principale, 68, Metz France", "lat": 49.10621, "lng": 6.95541, "ref_id": 5259838, "rating": 2, "num_reviews": 0, "website": null, "contact_phone": "+33 3 89 37 02 64", "contact_email": null, "status": 1, "source_type": 1, "numberReviews": 2}, {"name": "McDonald's", "type": "restaurant", "image": "https://dynamic-media-cdn.tripadvisor.com/media/photo-o/08/77/10/e8/mcdonald-s.jpg?w=1000&s=1", "address": "14 Rue Jules Michelet, 57070, Metz France", "lat": 49.107784, "lng": 6.225401, "ref_id": 8300842, "rating": 3, "num_reviews": 0, "website": "https://www.facebook.com/535880927326128", "contact_phone": "+33 3 87 21 14 45", "contact_email": null, "status": 1, "source_type": 1, "numberReviews": 15}, {"name": "Line Sushi", "type": "restaurant", "image": "https://dynamic-media-cdn.tripadvisor.com/media/photo-o/0e/0c/08/9d/line-sushi.jpg?w=1000&s=1", "address": "1 rue Gambetta, 57000, Metz France", "lat": 49.111225, "lng": 6.172822, "ref_id": 11929411, "rating": 3, "num_reviews": 0, "website": "http://www.linesushi.fr/", "contact_phone": "+33 3 87 55 46 76", "contact_email": null, "status": 1, "source_type": 1, "numberReviews": 30}, {"name": "Au Bureau", "type": "restaurant", "image": "https://dynamic-media-cdn.tripadvisor.com/media/photo-o/17/ee/e9/06/20190614-114119-largejpg.jpg?w=1000&s=1", "address": "Avenue Fran\u00e7ois Mit\u00e9rrand Centre Commercial Muse, 57000, Metz France", "lat": 49.10475, "lng": 6.182101, "ref_id": 13800116, "rating": 3, "num_reviews": 0, "website": "https://www.aubureau.fr/restaurant/?ville=AB_Metz_Muse&y_source=1_MTE2NjUyMTQtNzY5LWxvY2F0aW9uLndlYnNpdGU%3D", "contact_phone": "+33 9 63 53 18 59", "contact_email": "au-bureau.muse@groupe-bertrand.com", "status": 1, "source_type": 1, "numberReviews": 214}, {"name": "Portofino", "type": "restaurant", "image": "https://dynamic-media-cdn.tripadvisor.com/media/photo-o/06/b3/75/e0/sur-les-berges-de-la.jpg?w=1000&s=1", "address": "120 boulevard Saint Symphorien, 57050 Longeville-les-Metz, Metz France", "lat": 49.11816, "lng": 6.14906, "ref_id": 3437311, "rating": 3, "num_reviews": 0, "website": "http://www.portofino-metz.fr/", "contact_phone": "+33 3 87 66 41 18", "contact_email": "postmaster@portofino-metz.fr", "status": 1, "source_type": 1, "numberReviews": 150}, {"name": "Del Arte Metz", "type": "restaurant", "image": "https://dynamic-media-cdn.tripadvisor.com/media/photo-o/10/16/46/3f/img-20170730-194123-largejpg.jpg?w=1000&s=1", "address": "Avenue S\u00e9bastopol, 57070, Metz France", "lat": 49.108982, "lng": 6.232548, "ref_id": 1385789, "rating": 2.5, "num_reviews": 0, "website": "http://www.delarte.fr", "contact_phone": "+33 3 87 74 32 73", "contact_email": "info@delarte.fr", "status": 1, "source_type": 1, "numberReviews": 238}, {"name": "Columbus Cafe & Co", "type": "restaurant", "image": "https://dynamic-media-cdn.tripadvisor.com/media/photo-o/1b/2d/7c/e2/photo-de-profil.jpg?w=1000&s=1", "address": "2 rue des Messageries Centre Commercial Muse, 57000, Metz France", "lat": 49.106995, "lng": 6.181166, "ref_id": 13221025, "rating": 3, "num_reviews": 0, "website": "http://www.columbuscafe.com/boutique/metzcentre-commercial-muse/", "contact_phone": "+33 3 87 74 23 98", "contact_email": null, "status": 1, "source_type": 1, "numberReviews": 6}, {"name": "Yogurt Factory", "type": "restaurant", "image": null, "address": "2 rue des Messageries C.cial Muse, 57000, Metz France", "lat": 49.10732, "lng": 6.18116, "ref_id": 16883058, "rating": 3, "num_reviews": 0, "website": "http://www.yogurtfactory.fr", "contact_phone": null, "contact_email": "contact@yogurtfactory.fr", "status": 1, "source_type": 1, "numberReviews": 7}, {"name": "Les Burgers de Papa", "type": "restaurant", "image": "https://dynamic-media-cdn.tripadvisor.com/media/photo-o/29/e1/00/6a/le-menu-fils-a-papa-c.jpg?w=1000&s=1", "address": "42 rue des Clercs, 57000, Metz France", "lat": 49.1163, "lng": 6.17292, "ref_id": 21257464, "rating": 3, "num_reviews": 0, "website": "http://www.lesburgersdepapa.fr/", "contact_phone": "+33 3 87 69 98 75", "contact_email": "communication@lesburgersdepapa.fr", "status": 1, "source_type": 1, "numberReviews": 27}, {"name": "Angel\u00f9zzo", "type": "restaurant", "image": "https://dynamic-media-cdn.tripadvisor.com/media/photo-o/2b/5b/d7/b5/caption.jpg?w=1000&s=1", "address": "20 Rue Jacques Chirac, 57000, Metz France", "lat": 49.104336, "lng": 6.182147, "ref_id": 26767415, "rating": 2.5, "num_reviews": 0, "website": "https://www.angeluzzo.fr/", "contact_phone": "+33 3 87 39 38 15", "contact_email": null, "status": 1, "source_type": 1, "numberReviews": 6}, {"name": "Le Banc Iod\u00e9", "type": "restaurant", "image": null, "address": "Place de la Cath\u00e9drale March\u00e9 Couvert, 57000, Metz France", "lat": null, "lng": null, "ref_id": 21298031, "rating": 1, "num_reviews": 0, "website": "http://www.poissonnerieschaller.com/", "contact_phone": "+33 3 87 37 01 00", "contact_email": null, "status": 1, "source_type": 1, "numberReviews": 1}, {"name": "Brasserie De L'esplanade", "type": "restaurant", "image": "https://dynamic-media-cdn.tripadvisor.com/media/photo-o/24/ae/43/b8/tres-grosse-surprise.jpg?w=1000&s=1", "address": "Place de la Republique, 57000, Metz France", "lat": 49.11485, "lng": 6.17336, "ref_id": 21095631, "rating": 2.5, "num_reviews": 0, "website": "http://brasserie-lesplanade.com/", "contact_phone": "+33 6 48 66 77 86", "contact_email": null, "status": 1, "source_type": 1, "numberReviews": 3}, {"name": "My Pizza", "type": "restaurant", "image": "https://dynamic-media-cdn.tripadvisor.com/media/photo-o/1c/f4/a3/59/my-pizza.jpg?w=1000&s=1", "address": "33 boulevard Paixhans, 57000, Metz France", "lat": 49.12364, "lng": 6.18268, "ref_id": 13010689, "rating": 1, "num_reviews": 0, "website": "http://www.facebook.com/mypizzametz/", "contact_phone": "+33 3 87 68 87 48", "contact_email": null, "status": 1, "source_type": 1, "numberReviews": 1}, {"name": "Woko Muse", "type": "restaurant", "image": "https://dynamic-media-cdn.tripadvisor.com/media/photo-o/27/25/f5/54/un-midi-chez-woko.jpg?w=1000&s=1", "address": "2 Rue Des Messageries Muse Mall, 57000, Metz France", "lat": 49.10651, "lng": 6.181562, "ref_id": 23994097, "rating": 2.5, "num_reviews": 0, "website": "https://www.facebook.com/110068921510438", "contact_phone": "+33 4 78 59 78 26", "contact_email": "a.josset@woko.fr", "status": 1, "source_type": 1, "numberReviews": 15}, {"name": "O'tacos", "type": "restaurant", "image": null, "address": "2 rue des Messageries Centre commercial Muse, 57000, Metz France", "lat": 49.10732, "lng": 6.18116, "ref_id": 19331258, "rating": 2.5, "num_reviews": 0, "website": "https://www.facebook.com/Otacos-Metz-580998275696164/", "contact_phone": null, "contact_email": null, "status": 1, "source_type": 1, "numberReviews": 9}, {"name": "La Parenthese", "type": "restaurant", "image": "https://dynamic-media-cdn.tripadvisor.com/media/photo-o/07/c9/1e/0c/la-parenthese.jpg?w=1000&s=1", "address": "66 route de Woippy, 57050, Metz France", "lat": 49.13395, "lng": 6.16212, "ref_id": 7716440, "rating": 2, "num_reviews": 0, "website": "https://www.facebook.com/la.parenthese.restaurant.metz", "contact_phone": "+33 6 36 57 19 93", "contact_email": null, "status": 1, "source_type": 1, "numberReviews": 2}, {"name": "Boulangerie Poulard", "type": "restaurant", "image": null, "address": "2 rue Pierre Perrat, 57000, Metz France", "lat": 49.1104, "lng": 6.17363, "ref_id": 21325840, "rating": 2.5, "num_reviews": 0, "website": null, "contact_phone": null, "contact_email": null, "status": 1, "source_type": 1, "numberReviews": 4}, {"name": "Kangourou Cafe", "type": "restaurant", "image": "https://dynamic-media-cdn.tripadvisor.com/media/photo-o/15/49/c2/29/photo0jpg.jpg?w=1000&s=1", "address": "20 Place Saint-jacques, 57000, Metz France", "lat": 49.11838, "lng": 6.17661, "ref_id": 10500461, "rating": 2.5, "num_reviews": 0, "website": "https://www.facebook.com/101703928782456", "contact_phone": "+33 3 87 36 23 78", "contact_email": null, "status": 1, "source_type": 1, "numberReviews": 25}, {"name": "La fontaine du bonheur", "type": "restaurant", "image": "https://dynamic-media-cdn.tripadvisor.com/media/photo-o/0e/40/e2/c4/photo0jpg.jpg?w=1000&s=1", "address": "92 T boulevard Solidarite, 57070, Metz France", "lat": 49.106075, "lng": 6.23375, "ref_id": 4269133, "rating": 2.5, "num_reviews": 0, "website": "https://www.facebook.com/815272465193788", "contact_phone": "+33 3 87 18 88 58", "contact_email": null, "status": 1, "source_type": 1, "numberReviews": 199}, {"name": "Buffalo Grill", "type": "restaurant", "image": "https://dynamic-media-cdn.tripadvisor.com/media/photo-o/1b/07/9b/33/photo-de-profil.jpg?w=1000&s=1", "address": "16 Rue Jules Michelet, 57070, Metz France", "lat": 49.10787, "lng": 6.225592, "ref_id": 5800850, "rating": 2.5, "num_reviews": 0, "website": "http://restaurant.buffalo-grill.fr/261531-buffalo-grill-metz-borny", "contact_phone": "+33 3 87 76 34 91", "contact_email": "serviceclients-directionnord@buffalo-grill.fr", "status": 1, "source_type": 1, "numberReviews": 239}, {"name": "Domino's Pizza", "type": "restaurant", "image": "https://dynamic-media-cdn.tripadvisor.com/media/photo-o/16/e2/2d/f8/logo-domino-s-pizza.jpg?w=1000&s=1", "address": "6 rue de Paris, 57000, Metz France", "lat": 49.1241, "lng": 6.164744, "ref_id": 15290217, "rating": 2, "num_reviews": 0, "website": "https://www.dominos.fr/magasin/metz_57000", "contact_phone": "+33 3 87 56 01 02", "contact_email": null, "status": 1, "source_type": 1, "numberReviews": 5}, {"name": "Boulangerie Ange Metz Borny", "type": "restaurant", "image": "https://dynamic-media-cdn.tripadvisor.com/media/photo-o/1b/5a/65/2d/entree-boulangerie.jpg?w=1000&s=1", "address": "4 rue de Sarre, 57070, Metz France", "lat": 49.11747, "lng": 6.23122, "ref_id": 20835136, "rating": 2.5, "num_reviews": 0, "website": "http://www.boulangerie-ange.fr/boulangerie/", "contact_phone": "+33 3 87 50 44 01", "contact_email": "ange.boulangerie@gmail.com", "status": 1, "source_type": 1, "numberReviews": 19}, {"name": "CORA Cafeteria", "type": "restaurant", "image": "https://dynamic-media-cdn.tripadvisor.com/media/photo-o/1a/3b/d4/8a/vue-interieure-de-la.jpg?w=1000&s=1", "address": "10 bd de la Solidarite, 57071, Metz France", "lat": 49.106113, "lng": 6.228698, "ref_id": 19630206, "rating": 2.5, "num_reviews": 0, "website": "http://www.cora.fr/infos-et-services/les-magasins-cora/disponible-dans-vos-magasins/restauration", "contact_phone": "+33 3 87 78 66 90", "contact_email": "jcavaleri@cora.fr", "status": 1, "source_type": 1, "numberReviews": 7}, {"name": "L'Original", "type": "restaurant", "image": null, "address": "42 rue de la Tete D Or, 57000, Metz France", "lat": 49.11682, "lng": 6.1786, "ref_id": 15707632, "rating": 3.5, "num_reviews": 0, "website": null, "contact_phone": null, "contact_email": null, "status": 1, "source_type": 1, "numberReviews": 6}, {"name": "Citywok", "type": "restaurant", "image": "https://dynamic-media-cdn.tripadvisor.com/media/photo-o/06/9f/55/ac/nouveau-restaurant.jpg?w=1000&s=1", "address": "40 rue de la Chevre, 57000, Metz France", "lat": 49.116337, "lng": 6.177695, "ref_id": 7079169, "rating": 3.5, "num_reviews": 0, "website": "http://www.citywok.fr", "contact_phone": "+33 3 87 18 38 57", "contact_email": "citywok57@hotmail.com", "status": 1, "source_type": 1, "numberReviews": 175}, {"name": "Taj Mahal", "type": "restaurant", "image": "https://dynamic-media-cdn.tripadvisor.com/media/photo-o/1a/e8/f4/4d/20200216-123702-largejpg.jpg?w=1000&s=1", "address": "16 rue des Jardins, 57000, Metz France", "lat": 49.121304, "lng": 6.177205, "ref_id": 1330175, "rating": 3, "num_reviews": 0, "website": "http://tajmahalmetz.fr", "contact_phone": "+33 3 87 74 33 23", "contact_email": "", "status": 1, "source_type": 1, "numberReviews": 92}, {"name": "la lune", "type": "restaurant", "image": "https://dynamic-media-cdn.tripadvisor.com/media/photo-o/13/7b/21/2f/la-lune.jpg?w=1000&s=1", "address": "1 Place Jean Paul II, 57000, Metz France", "lat": 49.11961, "lng": 6.174835, "ref_id": 3299312, "rating": 3, "num_reviews": 0, "website": "http://www.aperorestodisco.com/bar-metz-3574-la-lune.html", "contact_phone": "+33 9 66 85 10 97", "contact_email": null, "status": 1, "source_type": 1, "numberReviews": 111}, {"name": "Chicken Time", "type": "restaurant", "image": null, "address": "8 rue du Pont des Morts, 57000, Metz France", "lat": 49.11996, "lng": 6.169868, "ref_id": 17649025, "rating": 5, "num_reviews": 0, "website": "https://www.facebook.com/chickentimemetz/", "contact_phone": "+33 3 87 66 99 84", "contact_email": null, "status": 1, "source_type": 1, "numberReviews": 1}, {"name": "Traiteur D'Asie", "type": "restaurant", "image": null, "address": "4 rue du Moyen Pont, 57000, Metz France", "lat": 49.11914, "lng": 6.17123, "ref_id": 10451843, "rating": 3, "num_reviews": 0, "website": "http://traiteurdasie.fr/index.php?route=common/home", "contact_phone": "+33 3 87 50 14 96", "contact_email": null, "status": 1, "source_type": 1, "numberReviews": 30}, {"name": "Pizzeria Fontanella", "type": "restaurant", "image": null, "address": "15 Rue de Verdun, 57160, Metz France", "lat": 49.10715, "lng": 6.16861, "ref_id": 12805948, "rating": 4, "num_reviews": 0, "website": "https://www.facebook.com/Pizzeria-Fontanella-393101434174403/", "contact_phone": "+33 3 87 53 67 35", "contact_email": null, "status": 1, "source_type": 1, "numberReviews": 2}, {"name": "Mam Resto", "type": "restaurant", "image": null, "address": "1 rue Henri Bergson, 57070, Metz France", "lat": 49.10773, "lng": 6.22048, "ref_id": 19944675, "rating": 5, "num_reviews": 0, "website": null, "contact_phone": "+33 3 87 79 51 84", "contact_email": null, "status": 1, "source_type": 1, "numberReviews": 1}, {"name": "Reussites Du Monde", "type": "restaurant", "image": "https://dynamic-media-cdn.tripadvisor.com/media/photo-o/08/10/b8/25/getlstd-property-photo.jpg?w=1000&s=1", "address": "2 rue du Stade, 57050 Longeville-les-Metz, Metz France", "lat": 49.11053, "lng": 6.16159, "ref_id": 8285906, "rating": 5, "num_reviews": 0, "website": "http://www.partenaire-de-reussite.fr", "contact_phone": "+33 6 19 01 23 68", "contact_email": "contact@stephanieschmit.com", "status": 1, "source_type": 1, "numberReviews": 1}, {"name": "Coq N' Roll", "type": "restaurant", "image": "https://dynamic-media-cdn.tripadvisor.com/media/photo-o/2c/62/41/d1/caption.jpg?w=1000&s=1", "address": "11 Rue de Paris, 57000, Metz France", "lat": 49.117153, "lng": 6.174473, "ref_id": 26652349, "rating": 4, "num_reviews": 0, "website": "https://www.facebook.com/lecoqnroll/?locale=fr_FR", "contact_phone": "+33 3 87 30 27 25", "contact_email": "coqnroll.resto@gmail.com", "status": 1, "source_type": 1, "numberReviews": 1}, {"name": "Decani Grill", "type": "restaurant", "image": null, "address": "6 place jean Jaur\u00e8s, 57050, Metz France", "lat": 49.117153, "lng": 6.174473, "ref_id": 25971357, "rating": 4, "num_reviews": 0, "website": null, "contact_phone": "+33 3 87 61 22 74", "contact_email": null, "status": 1, "source_type": 1, "numberReviews": 1}, {"name": "L'Heure de la Pause", "type": "restaurant", "image": "https://dynamic-media-cdn.tripadvisor.com/media/photo-o/14/8e/f2/e8/restaurant.jpg?w=1000&s=1", "address": "5 rue des Roches Face prefecture, 57000, Metz France", "lat": 49.121212, "lng": 6.173721, "ref_id": 3153386, "rating": 3, "num_reviews": 0, "website": "http://www.facebook.com/Restaurant-Alsacien-L-Heure-de-la-Pause-METZ-57000-856776574365313/", "contact_phone": "+33 3 87 36 71 21", "contact_email": "", "status": 1, "source_type": 1, "numberReviews": 82}, {"name": "La Taverne Du Graoully", "type": "restaurant", "image": "https://dynamic-media-cdn.tripadvisor.com/media/photo-o/1f/1e/33/64/l-alchimiste-un-cocktail.jpg?w=1000&s=1", "address": "17 rue Saint Marcel, 57000, Metz France", "lat": 49.12129, "lng": 6.170302, "ref_id": 23683012, "rating": 3.5, "num_reviews": 0, "website": "https://latavernedugraoully.fr/", "contact_phone": "+33 3 87 71 05 06", "contact_email": "latavernedugraoully@gmail.com", "status": 1, "source_type": 1, "numberReviews": 3}, {"name": "Umut Kebab", "type": "restaurant", "image": null, "address": "6 rue Fabert, 57000, Metz France", "lat": 49.118958, "lng": 6.175655, "ref_id": 24859188, "rating": 4, "num_reviews": 0, "website": null, "contact_phone": null, "contact_email": null, "status": 1, "source_type": 1, "numberReviews": 1}, {"name": "Exki", "type": "restaurant", "image": "https://dynamic-media-cdn.tripadvisor.com/media/photo-o/1c/9f/9f/30/photos-de-profil.jpg?w=1000&s=1", "address": "40 rue de la Tete D Or Gare De Metz Ville, 57000, Metz France", "lat": 49.109833, "lng": 6.177348, "ref_id": 17670816, "rating": 3.5, "num_reviews": 0, "website": "http://www.exki.com/fr/", "contact_phone": "+33 3 87 76 30 03", "contact_email": "hello@exki.com", "status": 1, "source_type": 1, "numberReviews": 13}, {"name": "Crok&Bab", "type": "restaurant", "image": "https://dynamic-media-cdn.tripadvisor.com/media/photo-o/12/50/da/52/crok-bab.jpg?w=1000&s=1", "address": "23 Place Saint Jacques, 57000, Metz France", "lat": 49.118492, "lng": 6.175834, "ref_id": 13807723, "rating": 3.5, "num_reviews": 0, "website": "http://crokbab.business.site/", "contact_phone": "+33 3 87 76 22 82", "contact_email": "crokbab.metz@gmail.com", "status": 1, "source_type": 1, "numberReviews": 3}, {"name": "La Grange Au Parc", "type": "restaurant", "image": "https://dynamic-media-cdn.tripadvisor.com/media/photo-o/16/7c/31/7b/20190216-125828-largejpg.jpg?w=1000&s=1", "address": "Rue De La Grange Aux Bois, 57070, Metz France", "lat": 49.090137, "lng": 6.234028, "ref_id": 10180811, "rating": 3.5, "num_reviews": 0, "website": "http://Www.facebook.com/lagrangeauparc/", "contact_phone": "+33 3 87 55 66 97", "contact_email": "p.miotto@lagrangeauparc.fr", "status": 1, "source_type": 1, "numberReviews": 42}, {"name": "Boulangerie Marie Blachere", "type": "restaurant", "image": "https://dynamic-media-cdn.tripadvisor.com/media/photo-o/2b/83/40/b1/caption.jpg?w=1000&s=1", "address": "6 rue des Dinandiers, 57070, Metz France", "lat": 49.10932, "lng": 6.22971, "ref_id": 17328066, "rating": 3.5, "num_reviews": 0, "website": "http://www.marieblachere.com/points-de-vente/", "contact_phone": "+33 3 87 18 44 77", "contact_email": null, "status": 1, "source_type": 1, "numberReviews": 10}, {"name": "Le View", "type": "restaurant", "image": "https://dynamic-media-cdn.tripadvisor.com/media/photo-o/13/9c/01/55/photo0jpg.jpg?w=1000&s=1", "address": "2 Place Saint Jacques, 57000, Metz France", "lat": 49.11877, "lng": 6.175588, "ref_id": 6895692, "rating": 3, "num_reviews": 0, "website": "https://www.facebook.com/leviewbar?rf=364148997002085", "contact_phone": "+33 3 87 37 35 33", "contact_email": null, "status": 1, "source_type": 1, "numberReviews": 64}, {"name": "Poulaillon Metz Muse", "type": "restaurant", "image": "https://dynamic-media-cdn.tripadvisor.com/media/photo-o/1b/15/ff/0e/20200228-120741-largejpg.jpg?w=1000&s=1", "address": "Rue des Messageries CC Muse Zac de l'Amphitheatre, 57000, Metz France", "lat": 49.10499, "lng": 6.18188, "ref_id": 16774869, "rating": 3.5, "num_reviews": 0, "website": "https://www.poulaillon.fr/magasin/?id=52", "contact_phone": "+33 3 87 57 79 07", "contact_email": null, "status": 1, "source_type": 1, "numberReviews": 8}, {"name": "Subway", "type": "restaurant", "image": "https://dynamic-media-cdn.tripadvisor.com/media/photo-o/12/fa/47/17/pour-un-sandwich-c-est.jpg?w=1000&s=1", "address": "24 Rue Du Palais, 57000, Metz France", "lat": 49.118877, "lng": 6.173785, "ref_id": 8606838, "rating": 3, "num_reviews": 0, "website": "https://restaurants.subway.com/france/metz/24-rue-du-palais?utm_source=yext-other&utm_medium=local&utm_term=acq&utm_content=29947&utm_campaign=evergreen-2020&y_source=1_MTQ5MjYxMzEtNzY5LWxvY2F0aW9uLndlYnNpdGU%3D", "contact_phone": "+33 3 87 50 34 06", "contact_email": "pro.bourgeois.v17@gmail.com", "status": 1, "source_type": 1, "numberReviews": 26}, {"name": "L'Estaminet", "type": "restaurant", "image": null, "address": "4 rue de la porte de France, 90000, Metz France", "lat": null, "lng": null, "ref_id": 17328345, "rating": 4, "num_reviews": 0, "website": null, "contact_phone": "+33 3 70 92 39 83", "contact_email": null, "status": 1, "source_type": 1, "numberReviews": 1}, {"name": "Todays Burger & Chicken", "type": "restaurant", "image": "https://dynamic-media-cdn.tripadvisor.com/media/photo-o/1b/a6/e6/f8/todays-burger-chicken.jpg?w=1000&s=1", "address": "5 rue Harelle, 57000, Metz France", "lat": 49.11213, "lng": 6.17171, "ref_id": 12134010, "rating": 3.5, "num_reviews": 0, "website": "https://www.facebook.com/TodaysBurgerAndChicken/", "contact_phone": "+33 3 87 63 47 93", "contact_email": null, "status": 1, "source_type": 1, "numberReviews": 10}, {"name": "POKAWA Pok\u00e9 bowls", "type": "restaurant", "image": "https://dynamic-media-cdn.tripadvisor.com/media/photo-o/2b/1d/c4/ac/caption.jpg?w=1000&s=1", "address": "2 Rue Des Messageries Metz Muse Shopping Center, 57000, Metz France", "lat": 49.10648, "lng": 6.182262, "ref_id": 26908735, "rating": 3, "num_reviews": 0, "website": "https://restaurants.pokawa.com/poke-bowl-metz-muse/?utm_source=google&utm_medium=organic&utm_campaign=mybusiness-website", "contact_phone": "+33 3 56 54 12 60", "contact_email": null, "status": 1, "source_type": 1, "numberReviews": 3}, {"name": "Kangourou Pizza Metz", "type": "restaurant", "image": null, "address": "105 Avenue Andr\u00e9 Malraux Facade rue Lothaire, 57000, Metz France", "lat": 49.10015, "lng": 6.180008, "ref_id": 25405846, "rating": 3, "num_reviews": 0, "website": "https://www.kangouroupizzas.com/?lang=fr", "contact_phone": "+33 3 87 56 00 00", "contact_email": "kangouroupizzasmetz@gmail.com", "status": 1, "source_type": 1, "numberReviews": 1}, {"name": "Vin8", "type": "restaurant", "image": "https://dynamic-media-cdn.tripadvisor.com/media/photo-o/26/9c/d7/54/cote-caviste.jpg?w=1000&s=1", "address": "28 Rue Clovis, 57000, Metz France", "lat": 49.120213, "lng": 6.175274, "ref_id": 25079753, "rating": 4, "num_reviews": 0, "website": "www.vin8.fr", "contact_phone": "+33 6 07 90 81 36", "contact_email": "info@vin8.fr", "status": 1, "source_type": 1, "numberReviews": 1}, {"name": "Via Pizza", "type": "restaurant", "image": "https://dynamic-media-cdn.tripadvisor.com/media/photo-o/1d/4e/31/df/pizza-immonde.jpg?w=1000&s=1", "address": "3 rue de Queuleu, 57070, Metz France", "lat": 49.11126, "lng": 6.187529, "ref_id": 21013294, "rating": 3, "num_reviews": 0, "website": "http://www.pizzavia.fr", "contact_phone": "+33 3 87 74 63 25", "contact_email": "viapizza54@gmail.com", "status": 1, "source_type": 1, "numberReviews": 11}, {"name": "Rojin Kebab", "type": "restaurant", "image": null, "address": "87 rue du General de Gaulle, 57050 Longeville-les-Metz, Metz France", "lat": 49.110546, "lng": 6.12924, "ref_id": 23641911, "rating": 3, "num_reviews": 0, "website": null, "contact_phone": "+33 3 87 31 12 92", "contact_email": null, "status": 1, "source_type": 1, "numberReviews": 2}, {"name": "Restaurant Galeries Lafayette Metz", "type": "restaurant", "image": "https://dynamic-media-cdn.tripadvisor.com/media/photo-o/12/fa/55/8f/il-y-a-plusieurs-salles.jpg?w=1000&s=1", "address": "4 rue Winston Churchill, 57000, Metz France", "lat": 49.116535, "lng": 6.172392, "ref_id": 4973483, "rating": 3, "num_reviews": 0, "website": "http://www.galerieslafayette.com/magasin-metz/informations-restaurant/", "contact_phone": "+33 3 87 38 60 26", "contact_email": "afresnil@galerieslafayette.com", "status": 1, "source_type": 1, "numberReviews": 29}, {"name": "Burger King", "type": "restaurant", "image": "https://dynamic-media-cdn.tripadvisor.com/media/photo-o/27/73/1f/27/burger-king.jpg?w=1000&s=1", "address": "Avenue Louis Le Debonnaire, Centre Commercial Muse Centre Commercial Muse, 57000, Metz France", "lat": 49.10528, "lng": 6.183888, "ref_id": 19856505, "rating": 3, "num_reviews": 0, "website": "https://www.burgerking.fr/restaurants?y_source=1_MTUwMTQ0MDEtNzY5LWxvY2F0aW9uLndlYnNpdGU%3D", "contact_phone": "+33 3 87 15 04 98", "contact_email": null, "status": 1, "source_type": 1, "numberReviews": 18}, {"name": "Le Visconti", "type": "restaurant", "image": "https://dynamic-media-cdn.tripadvisor.com/media/photo-o/0e/81/e1/67/tiramisu-cappucino-top.jpg?w=1000&s=1", "address": "8 rue du Faisan, 57000, Metz France", "lat": 49.118587, "lng": 6.172273, "ref_id": 1329734, "rating": 3.5, "num_reviews": 0, "website": null, "contact_phone": "+33 3 87 36 37 21", "contact_email": "", "status": 1, "source_type": 1, "numberReviews": 227}, {"name": "Restaurant Prestigia", "type": "restaurant", "image": "https://dynamic-media-cdn.tripadvisor.com/media/photo-o/1a/aa/69/9e/le-prestigia.jpg?w=1000&s=1", "address": "16 rue des Augustins, 57000, Metz France", "lat": 49.11134, "lng": 6.17889, "ref_id": 13139183, "rating": 3.5, "num_reviews": 0, "website": "https://www.facebook.com/Restaurants-Prestigia-620008178100686/", "contact_phone": "+33 3 87 75 55 56", "contact_email": null, "status": 1, "source_type": 1, "numberReviews": 38}, {"name": "Manga-T Metz", "type": "restaurant", "image": "https://dynamic-media-cdn.tripadvisor.com/media/photo-o/17/34/ed/aa/mur-des-contributeurs.jpg?w=1000&s=1", "address": "4 rue Gambetta, 57000, Metz France", "lat": 49.110912, "lng": 6.17375, "ref_id": 16866797, "rating": 4.5, "num_reviews": 0, "website": "http://www.manga-t.fr", "contact_phone": "+33 6 08 05 50 20", "contact_email": "metz@manga-t.fr", "status": 1, "source_type": 1, "numberReviews": 11}, {"name": "Cooking Colours", "type": "restaurant", "image": "https://dynamic-media-cdn.tripadvisor.com/media/photo-o/1a/de/9a/1b/pastries-100-vegan-patisseries.jpg?w=1000&s=1", "address": "15 rue Taison, 57000, Metz France", "lat": 49.11912, "lng": 6.17751, "ref_id": 20047961, "rating": 4.5, "num_reviews": 0, "website": "http://www.cookingcolours.com", "contact_phone": "+33 3 54 73 83 27", "contact_email": "resa@cookingcolours.com", "status": 1, "source_type": 1, "numberReviews": 12}, {"name": "Moya", "type": "restaurant", "image": "https://dynamic-media-cdn.tripadvisor.com/media/photo-o/13/59/e6/51/le-burger.jpg?w=1000&s=1", "address": "73 rue aux Arenes, 57000, Metz France", "lat": 49.10512, "lng": 6.17342, "ref_id": 8053774, "rating": 3.5, "num_reviews": 0, "website": null, "contact_phone": "+33 3 87 65 47 62", "contact_email": null, "status": 1, "source_type": 1, "numberReviews": 39}, {"name": "Restaurant Green View", "type": "restaurant", "image": "https://dynamic-media-cdn.tripadvisor.com/media/photo-o/1b/c9/12/e3/photo1jpg.jpg?w=1000&s=1", "address": "1 Rue Felix Savart Hotel Metz Technopole BEST Western PLUS, 57074, Metz France", "lat": 49.100056, "lng": 6.224904, "ref_id": 20048266, "rating": 4, "num_reviews": 0, "website": "https://www.hotel-metz-technopole.fr/fr/restaurant.html", "contact_phone": "+33 3 87 39 94 50", "contact_email": "contact@h-m-t.fr", "status": 1, "source_type": 1, "numberReviews": 19}, {"name": "Le Magnifique Snack", "type": "restaurant", "image": null, "address": "70 rue du Xxe Corps Americain, 57000, Metz France", "lat": 49.09971, "lng": 6.16212, "ref_id": 5800800, "rating": 4.5, "num_reviews": 0, "website": "http://lemagnifiquesnack.com", "contact_phone": "+33 3 87 62 19 24", "contact_email": null, "status": 1, "source_type": 1, "numberReviews": 11}, {"name": "La Belle Epoque", "type": "restaurant", "image": "https://dynamic-media-cdn.tripadvisor.com/media/photo-o/18/8d/f2/f1/la-tentation-sable-breton.jpg?w=1000&s=1", "address": "311 avenue de Strasbourg, 57070, Metz France", "lat": 49.0957, "lng": 6.22012, "ref_id": 11766110, "rating": 3.5, "num_reviews": 0, "website": "http://labelleepoque-metz.com/accueil.html", "contact_phone": "+33 3 87 63 08 94", "contact_email": null, "status": 1, "source_type": 1, "numberReviews": 59}, {"name": "Los Amigos", "type": "restaurant", "image": null, "address": "7 rue du Pont des Morts, 57000, Metz France", "lat": 49.120075, "lng": 6.169969, "ref_id": 24096314, "rating": 5, "num_reviews": 0, "website": "http://losamigosmetz.com", "contact_phone": "+33 3 82 45 05 95", "contact_email": null, "status": 1, "source_type": 1, "numberReviews": 5}, {"name": "Bistro R\u00e9gent", "type": "restaurant", "image": "https://dynamic-media-cdn.tripadvisor.com/media/photo-o/15/02/d6/dd/20181009-115659-largejpg.jpg?w=1000&s=1", "address": "2 rue des Messageries Centre Commercial Muse, 57000, Metz France", "lat": 49.106655, "lng": 6.181428, "ref_id": 13169317, "rating": 3.5, "num_reviews": 0, "website": "http://www.bistro-regent.fr/ou-trouver-les-bistros/metz/", "contact_phone": "+33 3 87 74 04 13", "contact_email": null, "status": 1, "source_type": 1, "numberReviews": 335}, {"name": "La Toscane", "type": "restaurant", "image": "https://dynamic-media-cdn.tripadvisor.com/media/photo-o/0c/19/7c/06/20160720-210145-largejpg.jpg?w=1000&s=1", "address": "12 Rue Dupont Des Loges, 57000, Metz France", "lat": 49.11667, "lng": 6.17666, "ref_id": 788947, "rating": 3.5, "num_reviews": 0, "website": "http://zelift.com/la-toscane", "contact_phone": "+33 3 87 75 60 73", "contact_email": "", "status": 1, "source_type": 1, "numberReviews": 702}, {"name": "O'delice", "type": "restaurant", "image": null, "address": "7 Place Saint Nicolas, 57000, Metz France", "lat": 49.11356, "lng": 6.17816, "ref_id": 5262735, "rating": 4.5, "num_reviews": 0, "website": null, "contact_phone": "+33 3 87 18 90 57", "contact_email": null, "status": 1, "source_type": 1, "numberReviews": 14}, {"name": "Timil\u00eda", "type": "restaurant", "image": "https://dynamic-media-cdn.tripadvisor.com/media/photo-o/2c/28/09/cc/ristorante-timilia.jpg?w=1000&s=1", "address": "20 rue Vigne Saint-Avold, 57000, Metz France", "lat": 49.114956, "lng": 6.182932, "ref_id": 27501461, "rating": 5, "num_reviews": 0, "website": "https://www.ristorante-timilia.com/", "contact_phone": "+33 3 87 63 68 44", "contact_email": null, "status": 1, "source_type": 1, "numberReviews": 4}, {"name": "Samoussa Party", "type": "restaurant", "image": "https://dynamic-media-cdn.tripadvisor.com/media/photo-o/1b/f6/40/4b/nos-delicieux-samoussas.jpg?w=1000&s=1", "address": "62 Rue Aux Ar\u00e8nes, 57000, Metz France", "lat": 49.09113, "lng": 6.1833, "ref_id": 17706342, "rating": 4.5, "num_reviews": 0, "website": "http://samoussaparty.fr/carte", "contact_phone": "+33 9 87 78 56 65", "contact_email": null, "status": 1, "source_type": 1, "numberReviews": 8}, {"name": "Pizzas Luisa", "type": "restaurant", "image": null, "address": "50 rue Haute Seille, 57000, Metz France", "lat": 49.11483, "lng": 6.18221, "ref_id": 17700501, "rating": 4.5, "num_reviews": 0, "website": "https://pizzeria-luisa-metz.business.site/?utm_source=gmb&utm_medium=referral", "contact_phone": "+33 9 84 40 85 21", "contact_email": null, "status": 1, "source_type": 1, "numberReviews": 8}, {"name": "Bar Des Courses", "type": "restaurant", "image": "https://dynamic-media-cdn.tripadvisor.com/media/photo-o/13/be/95/5d/getlstd-property-photo.jpg?w=1000&s=1", "address": "83 boulevard Saint Symphorien, 57050 Longeville-les-Metz, Metz France", "lat": 49.1149, "lng": 6.15295, "ref_id": 14913377, "rating": 5, "num_reviews": 0, "website": "https://www.facebook.com/bar.lanciennegare/", "contact_phone": "+33 3 87 69 85 24", "contact_email": null, "status": 1, "source_type": 1, "numberReviews": 8}, {"name": "Sport palace", "type": "restaurant", "image": "https://dynamic-media-cdn.tripadvisor.com/media/photo-o/0d/44/b2/cb/ecran-geant-pour-les.jpg?w=1000&s=1", "address": "Tribune Nord Fc Metz Tribune nord stade FC metz, 57050, Metz France", "lat": 49.109875, "lng": 6.160271, "ref_id": 6959761, "rating": 4, "num_reviews": 0, "website": "http://www.sport-palace.fr", "contact_phone": "+33 3 87 50 75 87", "contact_email": null, "status": 1, "source_type": 1, "numberReviews": 29}, {"name": "Gourmet Bar By Novotel", "type": "restaurant", "image": "https://dynamic-media-cdn.tripadvisor.com/media/photo-o/12/1c/06/4d/brunch-du-dimanche-matin.jpg?w=1000&s=1", "address": "Place Des Paraiges Novotel Metz Centre, 57000, Metz France", "lat": 49.11792, "lng": 6.17993, "ref_id": 12330363, "rating": 3.5, "num_reviews": 0, "website": "https://restaurants.accorhotels.com/fr/restaurant-0589_r001-gourmet-bar-metz.shtml", "contact_phone": "+33 3 87 37 38 39", "contact_email": "H0589@accor.com", "status": 1, "source_type": 1, "numberReviews": 36}, {"name": "Pokawa Metz", "type": "restaurant", "image": "https://dynamic-media-cdn.tripadvisor.com/media/photo-o/1d/36/59/d9/rares-tables-au-fond.jpg?w=1000&s=1", "address": "12 Place Saint Jacques, 57000, Metz France", "lat": 49.11862, "lng": 6.17618, "ref_id": 23336297, "rating": 4, "num_reviews": 0, "website": "https://pokawa.com/restaurant/pokawa-metz/", "contact_phone": "+33 3 72 60 02 11", "contact_email": "serviceclient@pokawa.com", "status": 1, "source_type": 1, "numberReviews": 17}, {"name": "Les D\u00e9glingues", "type": "restaurant", "image": "https://dynamic-media-cdn.tripadvisor.com/media/photo-o/21/cd/42/f8/bar-les-deglingues.jpg?w=1000&s=1", "address": "12 rue Gambetta, 57000, Metz France", "lat": 49.11072, "lng": 6.174518, "ref_id": 23774778, "rating": 5, "num_reviews": 0, "website": null, "contact_phone": "+33 6 12 25 00 78", "contact_email": "contact@lesdeglingues.eu", "status": 1, "source_type": 1, "numberReviews": 5}, {"name": "Le Savary", "type": "restaurant", "image": "https://dynamic-media-cdn.tripadvisor.com/media/photo-o/10/53/24/cd/photo0jpg.jpg?w=1000&s=1", "address": "10 rue Nicolas Jung, 57050, Metz France", "lat": 49.133366, "lng": 6.154331, "ref_id": 12021758, "rating": 4, "num_reviews": 0, "website": "https://www.facebook.com/pg/LESAVARY/about/", "contact_phone": "+33 3 87 56 95 12", "contact_email": "sas.savary@gmail.com", "status": 1, "source_type": 1, "numberReviews": 22}, {"name": "Les Trois Fils", "type": "restaurant", "image": "https://dynamic-media-cdn.tripadvisor.com/media/photo-o/1b/c8/95/f8/brunch-un-dimanche-midi.jpg?w=1000&s=1", "address": "19 21 Place Saint Louis, 57000, Metz France", "lat": 49.116856, "lng": 6.178843, "ref_id": 21200749, "rating": 3.5, "num_reviews": 0, "website": "http://www.les3fils.fr", "contact_phone": "+33 3 87 36 92 04", "contact_email": null, "status": 1, "source_type": 1, "numberReviews": 38}, {"name": "Les Arranges Du Bocal", "type": "restaurant", "image": "https://dynamic-media-cdn.tripadvisor.com/media/photo-o/10/a5/91/37/la-facade.jpg?w=1000&s=1", "address": "34 rue Taison, 57000, Metz France", "lat": 49.11955, "lng": 6.17789, "ref_id": 12885059, "rating": 4, "num_reviews": 0, "website": "https://www.facebook.com/118679201594115", "contact_phone": "+33 3 87 37 21 12", "contact_email": "lesarrangesdubocal@gmail.com", "status": 1, "source_type": 1, "numberReviews": 13}, {"name": "Best Sushi", "type": "restaurant", "image": "https://dynamic-media-cdn.tripadvisor.com/media/photo-o/05/b4/77/cc/best-sushi.jpg?w=1000&s=1", "address": "5 rue du Palais, 57000, Metz France", "lat": 49.11862, "lng": 6.17482, "ref_id": 4713124, "rating": 3.5, "num_reviews": 0, "website": "https://bestsushimetz.fr/", "contact_phone": "+33 3 87 76 21 33", "contact_email": null, "status": 1, "source_type": 1, "numberReviews": 80}, {"name": "Traiteur Bamboo", "type": "restaurant", "image": "https://dynamic-media-cdn.tripadvisor.com/media/photo-o/16/9a/67/c5/accompagnements.jpg?w=1000&s=1", "address": "1 avenue Ney, 57000, Metz France", "lat": 49.11599, "lng": 6.1725, "ref_id": 16723955, "rating": 5, "num_reviews": 0, "website": "http://www.traiteur-bamboo.fr/", "contact_phone": "+33 3 87 66 22 64", "contact_email": "thilud@hotmail.fr", "status": 1, "source_type": 1, "numberReviews": 6}, {"name": "Bar la Moselle", "type": "restaurant", "image": "https://dynamic-media-cdn.tripadvisor.com/media/photo-o/1c/6f/54/2c/la-terrasse.jpg?w=1000&s=1", "address": "6 rue du Pont des Morts, 57000, Metz France", "lat": 49.11994, "lng": 6.16997, "ref_id": 21184135, "rating": 4.5, "num_reviews": 0, "website": null, "contact_phone": "+33 9 50 61 27 68", "contact_email": "thimoso.lamoselle@gmail.com", "status": 1, "source_type": 1, "numberReviews": 9}, {"name": "Le 512", "type": "restaurant", "image": "https://dynamic-media-cdn.tripadvisor.com/media/photo-o/23/3f/27/be/une-partie-du-menu-carte.jpg?w=1000&s=1", "address": "Promenade De La Goulotte, 57050 Longeville-les-Metz, Metz France", "lat": 49.114037, "lng": 6.143924, "ref_id": 23563985, "rating": 4, "num_reviews": 0, "website": "http://www.au512.com/fr/accueil.html", "contact_phone": "+33 3 56 12 19 75", "contact_email": "contact@au512.com", "status": 1, "source_type": 1, "numberReviews": 17}, {"name": "Snack du Ruisseau", "type": "restaurant", "image": "https://dynamic-media-cdn.tripadvisor.com/media/photo-o/0d/a1/c8/c6/snack-du-ruisseau.jpg?w=1000&s=1", "address": "32 rue Jean Pierre Jean, 57070, Metz France", "lat": 49.12581, "lng": 6.21822, "ref_id": 5778120, "rating": 5, "num_reviews": 0, "website": "https://www.facebook.com/180112528819767", "contact_phone": "+33 3 87 16 25 40", "contact_email": null, "status": 1, "source_type": 1, "numberReviews": 7}, {"name": "La Ripaille Des Paraiges", "type": "restaurant", "image": "https://dynamic-media-cdn.tripadvisor.com/media/photo-o/2c/76/00/97/caption.jpg?w=1000&s=1", "address": "40 Rue De La Tete D'or, Metz France", "lat": 49.116856, "lng": 6.178388, "ref_id": 27427195, "rating": 4, "num_reviews": 0, "website": null, "contact_phone": null, "contact_email": null, "status": 1, "source_type": 1, "numberReviews": 8}, {"name": "Confiserie Namur", "type": "restaurant", "image": "https://dynamic-media-cdn.tripadvisor.com/media/photo-o/09/d9/d8/ef/photo0jpg.jpg?w=1000&s=1", "address": "7 Place Jean Paul II, 57000, Metz France", "lat": 49.11939, "lng": 6.174729, "ref_id": 2440821, "rating": 3.5, "num_reviews": 0, "website": "http://namur.lu", "contact_phone": "+33 3 87 75 03 67", "contact_email": "", "status": 1, "source_type": 1, "numberReviews": 99}, {"name": "Bacchus", "type": "restaurant", "image": "https://dynamic-media-cdn.tripadvisor.com/media/photo-o/11/dc/a1/20/getlstd-property-photo.jpg?w=1000&s=1", "address": "11 rue du Faisan, 57000, Metz France", "lat": 49.119503, "lng": 6.172669, "ref_id": 13427232, "rating": 3.5, "num_reviews": 0, "website": "http://bacchus-metz.fr/", "contact_phone": "+33 3 87 74 55 31", "contact_email": "contact@bacchus-metz.fr", "status": 1, "source_type": 1, "numberReviews": 24}, {"name": "La Parenth\u00e8se By Branko", "type": "restaurant", "image": "https://dynamic-media-cdn.tripadvisor.com/media/photo-o/28/39/19/c4/la-parenthese-by-branco.jpg?w=1000&s=1", "address": "10 avenue Robert Schuman, 57000, Metz France", "lat": 49.11459, "lng": 6.17327, "ref_id": 21239192, "rating": 3.5, "num_reviews": 0, "website": "https://www.facebook.com/100572165067997", "contact_phone": "+33 3 87 79 15 87", "contact_email": null, "status": 1, "source_type": 1, "numberReviews": 19}, {"name": "Restaurant Ibis Metz Centre Gare", "type": "restaurant", "image": "https://dynamic-media-cdn.tripadvisor.com/media/photo-o/11/28/3a/03/20171101-143213-largejpg.jpg?w=1000&s=1", "address": "3 B rue Vauban, 57000, Metz France", "lat": 49.1109, "lng": 6.17858, "ref_id": 5121657, "rating": 3.5, "num_reviews": 0, "website": null, "contact_phone": "+33 3 87 21 90 90", "contact_email": null, "status": 1, "source_type": 1, "numberReviews": 15}, {"name": "La Villa Brooklyn", "type": "restaurant", "image": null, "address": "30 Rue Saint Jean, 57000, Metz France", "lat": 49.10201, "lng": 6.16759, "ref_id": 26305933, "rating": 4.5, "num_reviews": 0, "website": "http://instagram.com/villabrooklyn6?igshid=NTc4MTIwNjQ2YQ==", "contact_phone": "+33 9 53 84 51 26", "contact_email": null, "status": 1, "source_type": 1, "numberReviews": 2}, {"name": "Maison Alsacienne de Biscuiterie - Grand Cerf", "type": "restaurant", "image": "https://dynamic-media-cdn.tripadvisor.com/media/photo-o/1c/19/d1/5e/inauguree-en-novembre.jpg?w=1000&s=1", "address": "4 rue du grand Cerf, 57000, Metz France", "lat": 49.11599, "lng": 6.17766, "ref_id": 21300495, "rating": 5, "num_reviews": 0, "website": "http://www.maison-alsacienne-biscuiterie.com/fr/", "contact_phone": "+33 3 89 21 85 10", "contact_email": "service-client@mabiscuiterie.com", "status": 1, "source_type": 1, "numberReviews": 2}, {"name": "Hol\u00e0 Tapas", "type": "restaurant", "image": "https://dynamic-media-cdn.tripadvisor.com/media/photo-o/21/61/77/2e/notre-bar.jpg?w=1000&s=1", "address": "9 rue du Vivier, 57000, Metz France", "lat": 49.117153, "lng": 6.174473, "ref_id": 23739496, "rating": 4, "num_reviews": 0, "website": null, "contact_phone": "+33 6 23 49 89 54", "contact_email": "steph.sch57@live.fr", "status": 1, "source_type": 1, "numberReviews": 5}, {"name": "Class'Croute", "type": "restaurant", "image": null, "address": "68 rue Haute Seille, 57000, Metz France", "lat": 49.11437, "lng": 6.18267, "ref_id": 16785993, "rating": 5, "num_reviews": 0, "website": "https://www.classcroute.com/", "contact_phone": "+33 3 87 65 09 09", "contact_email": null, "status": 1, "source_type": 1, "numberReviews": 2}, {"name": "NOODLE", "type": "restaurant", "image": "https://dynamic-media-cdn.tripadvisor.com/media/photo-o/0a/d6/39/f5/assortiment-riz-cantonais.jpg?w=1000&s=1", "address": "32 Rue Du Co\u00ebtlosquet, 57000, Metz France", "lat": 49.115, "lng": 6.175497, "ref_id": 3643797, "rating": 3, "num_reviews": 0, "website": "http://www.noodle-restaurant.com", "contact_phone": "+33 3 87 36 75 75", "contact_email": "contact@noodle-restaurant.fr", "status": 1, "source_type": 1, "numberReviews": 80}, {"name": "Ben & Dami", "type": "restaurant", "image": null, "address": "20 rue de Paris, 57000, Metz France", "lat": 49.12469, "lng": 6.16445, "ref_id": 15707113, "rating": 4.5, "num_reviews": 0, "website": null, "contact_phone": null, "contact_email": null, "status": 1, "source_type": 1, "numberReviews": 2}, {"name": "Le Pont Rouge", "type": "restaurant", "image": "https://dynamic-media-cdn.tripadvisor.com/media/photo-o/08/c1/3b/e6/photo0jpg.jpg?w=1000&s=1", "address": "29 avenue de Strasbourg, 57070, Metz France", "lat": 49.1121, "lng": 6.19384, "ref_id": 5797630, "rating": 4, "num_reviews": 0, "website": "http://www.pontrouge.fr", "contact_phone": "+33 3 87 74 08 65", "contact_email": "lepontrouge@neuf.fr", "status": 1, "source_type": 1, "numberReviews": 7}, {"name": "Amorino", "type": "restaurant", "image": null, "address": "25 Place Saint Jacques, 57000, Metz France", "lat": 49.11843, "lng": 6.17586, "ref_id": 21006791, "rating": 3.5, "num_reviews": 0, "website": "https://www.facebook.com/AmorinoMetz/?ref=br_rs", "contact_phone": "+33 3 87 32 87 50", "contact_email": null, "status": 1, "source_type": 1, "numberReviews": 10}, {"name": "Du Lancieu", "type": "restaurant", "image": "https://dynamic-media-cdn.tripadvisor.com/media/photo-o/1b/4d/60/f8/le-double-croque-monsieur.jpg?w=1000&s=1", "address": "4 B rue du Lancieu, 57000, Metz France", "lat": 49.11633, "lng": 6.17523, "ref_id": 8598690, "rating": 4, "num_reviews": 0, "website": null, "contact_phone": null, "contact_email": "cafedulancieu@gmail.com", "status": 1, "source_type": 1, "numberReviews": 11}, {"name": "La Pierre Noire", "type": "restaurant", "image": "https://dynamic-media-cdn.tripadvisor.com/media/photo-o/08/54/7d/9f/la-pierre-noire.jpg?w=1000&s=1", "address": "795 rue du General Metman Le Palais Oriental, 57070, Metz France", "lat": 49.12001, "lng": 6.21754, "ref_id": 8381948, "rating": 4, "num_reviews": 0, "website": null, "contact_phone": "+33 3 87 18 11 91", "contact_email": "lapierrenoire@hotmail.com", "status": 1, "source_type": 1, "numberReviews": 6}, {"name": "TooGoo", "type": "restaurant", "image": "https://dynamic-media-cdn.tripadvisor.com/media/photo-o/07/fa/86/06/toogoo.jpg?w=1000&s=1", "address": "40 rue des Clercs, 57000, Metz France", "lat": 49.11634, "lng": 6.17296, "ref_id": 8120691, "rating": 3.5, "num_reviews": 0, "website": null, "contact_phone": "+33 3 87 18 84 70", "contact_email": null, "status": 1, "source_type": 1, "numberReviews": 27}, {"name": "Cr\u00eaperie Le Menh'ir", "type": "restaurant", "image": "https://dynamic-media-cdn.tripadvisor.com/media/photo-o/25/1a/35/6c/caption.jpg?w=1000&s=1", "address": "2 rue des Messageries, 57000, Metz France", "lat": 49.10517, "lng": 6.18291, "ref_id": 23643888, "rating": 3, "num_reviews": 0, "website": null, "contact_phone": null, "contact_email": null, "status": 1, "source_type": 1, "numberReviews": 35}, {"name": "Burger Kebab", "type": "restaurant", "image": "https://dynamic-media-cdn.tripadvisor.com/media/photo-o/10/7b/79/81/photo0jpg.jpg?w=1000&s=1", "address": "5 Rue Du Moulin, 57000, Metz France", "lat": 49.11862, "lng": 6.17482, "ref_id": 12631387, "rating": 3.5, "num_reviews": 0, "website": "https://www.facebook.com/Burger-Kebab-459591937560091/", "contact_phone": "+33 3 87 16 69 77", "contact_email": null, "status": 1, "source_type": 1, "numberReviews": 45}, {"name": "Du Parking", "type": "restaurant", "image": "https://dynamic-media-cdn.tripadvisor.com/media/photo-o/1b/98/5c/0c/photo0jpg.jpg?w=1000&s=1", "address": "1 avenue Ney, 57000, Metz France", "lat": 49.115932, "lng": 6.172353, "ref_id": 10041870, "rating": 3.5, "num_reviews": 0, "website": null, "contact_phone": "+33 3 87 76 94 29", "contact_email": null, "status": 1, "source_type": 1, "numberReviews": 17}, {"name": "Gaspard", "type": "restaurant", "image": null, "address": "29 Rue Des Jardins, 57280, Metz France", "lat": 49.121777, "lng": 6.177658, "ref_id": 27797471, "rating": 5, "num_reviews": 0, "website": null, "contact_phone": null, "contact_email": null, "status": 1, "source_type": 1, "numberReviews": 2}, {"name": "Smash Foodtruck Metz", "type": "restaurant", "image": "https://dynamic-media-cdn.tripadvisor.com/media/photo-o/2b/37/8e/4e/caption.jpg?w=1000&s=1", "address": "Metz France", "lat": 49.131493, "lng": 6.154432, "ref_id": 27106666, "rating": 5, "num_reviews": 0, "website": "https://www.facebook.com/people/Smash-metz/100092041777530/", "contact_phone": "+33 6 24 39 33 23", "contact_email": null, "status": 1, "source_type": 1, "numberReviews": 1}, {"name": "Courtepaille", "type": "restaurant", "image": "https://dynamic-media-cdn.tripadvisor.com/media/photo-o/1c/a1/35/7d/photo-de-profil.jpg?w=1000&s=1", "address": "90 Rue des Arenes, 57000, Metz France", "lat": 49.10693, "lng": 6.177, "ref_id": 12322610, "rating": 3, "num_reviews": 0, "website": "http://restaurants.courtepaille.com/restaurant-courtepaille-metz-gare-id393", "contact_phone": "+33 3 87 66 66 00", "contact_email": "metz.gare@courtepaille.com", "status": 1, "source_type": 1, "numberReviews": 83}, {"name": "Boire & Manger", "type": "restaurant", "image": "https://dynamic-media-cdn.tripadvisor.com/media/photo-o/15/bc/9f/b1/photo0jpg.jpg?w=1000&s=1", "address": "47 avenue de Nancy, 57000, Metz France", "lat": 49.10694, "lng": 6.16463, "ref_id": 12322226, "rating": 3.5, "num_reviews": 0, "website": "http://www.boire-manger.fr/", "contact_phone": "+33 3 87 50 58 06", "contact_email": "info@boire-manger.fr", "status": 1, "source_type": 1, "numberReviews": 48}, {"name": "Cafe du Soleil", "type": "restaurant", "image": "https://dynamic-media-cdn.tripadvisor.com/media/photo-o/1b/ef/e0/f8/entrecote-frites.jpg?w=1000&s=1", "address": "56 rue de Castelnau, 57000, Metz France", "lat": 49.0983, "lng": 6.16938, "ref_id": 10847195, "rating": 3.5, "num_reviews": 0, "website": null, "contact_phone": "+33 3 57 28 91 98", "contact_email": null, "status": 1, "source_type": 1, "numberReviews": 13}, {"name": "Le Magnifique Snack", "type": "restaurant", "image": null, "address": "73 Rue Du 20e Corps Americain, 57000, Metz France", "lat": 49.09975, "lng": 6.161724, "ref_id": 24113521, "rating": 5, "num_reviews": 0, "website": "http://lemagnifiquesnack.com/", "contact_phone": null, "contact_email": null, "status": 1, "source_type": 1, "numberReviews": 1}, {"name": "Caf\u00e9 De La Belle Poire", "type": "restaurant", "image": "https://dynamic-media-cdn.tripadvisor.com/media/photo-o/26/d1/43/d5/bon-plat-en-sauce.jpg?w=1000&s=1", "address": "7 rue de la Haute Bevoye, 57070, Metz France", "lat": 49.09443, "lng": 6.219876, "ref_id": 25089348, "rating": 5, "num_reviews": 0, "website": null, "contact_phone": "+33 6 28 29 26 07", "contact_email": null, "status": 1, "source_type": 1, "numberReviews": 1}, {"name": "Oz Arcades", "type": "restaurant", "image": "https://dynamic-media-cdn.tripadvisor.com/media/photo-o/14/ba/ac/59/general-view-of-place.jpg?w=1000&s=1", "address": "27 Place Saint Louis, 57000, Metz France", "lat": 49.11655, "lng": 6.17894, "ref_id": 12821309, "rating": 3, "num_reviews": 0, "website": "https://www.facebook.com/OZ-Arcades-1404037283019987/", "contact_phone": "+33 6 79 85 55 13", "contact_email": null, "status": 1, "source_type": 1, "numberReviews": 39}, {"name": "Lorteq", "type": "restaurant", "image": "https://dynamic-media-cdn.tripadvisor.com/media/photo-o/1c/a5/70/41/notre-terrasse-flottante.jpg?w=1000&s=1", "address": "Rue du Pont des Morts, 57000, Metz France", "lat": 49.12085, "lng": 6.16887, "ref_id": 15276568, "rating": 4.5, "num_reviews": 0, "website": "http://www.facebook.com/lorteqmetz", "contact_phone": "+33 7 83 52 95 47", "contact_email": null, "status": 1, "source_type": 1, "numberReviews": 2}, {"name": "Quesacook", "type": "restaurant", "image": "https://dynamic-media-cdn.tripadvisor.com/media/photo-o/10/20/ba/9e/quesacook.jpg?w=1000&s=1", "address": "4 rue Marconi, 57070, Metz France", "lat": 49.1023, "lng": 6.21599, "ref_id": 12712591, "rating": 5, "num_reviews": 0, "website": "http://www.quesacook.fr", "contact_phone": "+33 6 87 77 85 66", "contact_email": null, "status": 1, "source_type": 1, "numberReviews": 2}, {"name": "Croq'o'Pizza", "type": "restaurant", "image": "https://dynamic-media-cdn.tripadvisor.com/media/photo-o/1b/db/f7/ae/img-20200820-210837-largejpg.jpg?w=1000&s=1", "address": "28 rue du Pont des Morts, 57000, Metz France", "lat": 49.12045, "lng": 6.16936, "ref_id": 12837903, "rating": 3.5, "num_reviews": 0, "website": "http://www.croqo-pizzas-metz.fr/", "contact_phone": "+33 3 87 51 35 69", "contact_email": null, "status": 1, "source_type": 1, "numberReviews": 21}, {"name": "Schools'kebab", "type": "restaurant", "image": null, "address": "26, Rue Clovis, 57000 Metz, 57000, Metz France", "lat": 49.105774, "lng": 6.169045, "ref_id": 23602278, "rating": 3.5, "num_reviews": 0, "website": null, "contact_phone": "+33 9 84 48 57 90", "contact_email": null, "status": 1, "source_type": 1, "numberReviews": 3}, {"name": "Food Factory", "type": "restaurant", "image": "https://dynamic-media-cdn.tripadvisor.com/media/photo-o/21/b9/79/7e/food-factory.jpg?w=1000&s=1", "address": "21 Place des Charrons, 57000, Metz France", "lat": 49.115917, "lng": 6.182629, "ref_id": 23800556, "rating": 5, "num_reviews": 0, "website": null, "contact_phone": "+33 9 81 90 03 83", "contact_email": "foodfactorymetz@gmail.com", "status": 1, "source_type": 1, "numberReviews": 1}, {"name": "Bar'Latino", "type": "restaurant", "image": "https://dynamic-media-cdn.tripadvisor.com/media/photo-o/0f/a4/81/3e/snapchat-1403454474-largejpg.jpg?w=1000&s=1", "address": "22 rue Dupont des Loges, 57000, Metz France", "lat": 49.116196, "lng": 6.176443, "ref_id": 3159402, "rating": 2.5, "num_reviews": 0, "website": "http://www.barlatino.fr", "contact_phone": "+33 3 87 75 72 57", "contact_email": "restaurant@barlatino.fr", "status": 1, "source_type": 1, "numberReviews": 95}, {"name": "Sushi Shop", "type": "restaurant", "image": "https://dynamic-media-cdn.tripadvisor.com/media/photo-o/14/c7/10/f8/ta-img-20180924-130409.jpg?w=1000&s=1", "address": "30 Place Saint Simplice, 57000, Metz France", "lat": 49.11667, "lng": 6.179283, "ref_id": 4171002, "rating": 2.5, "num_reviews": 0, "website": "https://sushishop.commander1.com/c3/?tcs=2478&chn=seo-yext&src=yext&cmp=annuaires-locaux-fr&med=extnet&pub=&crtive=&vson=&fmt=&cty=fr&url=https://www.sushishop.fr/fr/restaurant/metz-st-louis?utm_campaign=annuaires-locaux-fr&utm_source=seo-yext&utm_medium=extnet", "contact_phone": "+33 826 82 66 28", "contact_email": null, "status": 1, "source_type": 1, "numberReviews": 230}, {"name": "Lexsis Alanya", "type": "restaurant", "image": "https://dynamic-media-cdn.tripadvisor.com/media/photo-o/23/19/f3/39/caption.jpg?w=1000&s=1", "address": "7 rue Paul Bezanson, 57000, Metz France", "lat": 49.11883, "lng": 6.17526, "ref_id": 7354984, "rating": 2.5, "num_reviews": 0, "website": "https://www.facebook.com/pages/category/Burger-Restaurant/Lexsis-Alanya-115143083504735/", "contact_phone": "+33 9 54 42 93 91", "contact_email": null, "status": 1, "source_type": 1, "numberReviews": 17}, {"name": "Takos King", "type": "restaurant", "image": "https://dynamic-media-cdn.tripadvisor.com/media/photo-o/12/19/82/83/takos-king.jpg?w=1000&s=1", "address": "16 rue du Palais, 57000, Metz France", "lat": 49.11875, "lng": 6.17422, "ref_id": 12217143, "rating": 2, "num_reviews": 0, "website": "http://www.takosking.fr/index-2.html#", "contact_phone": "+33 9 52 44 61 80", "contact_email": null, "status": 1, "source_type": 1, "numberReviews": 34}, {"name": "La Malterie", "type": "restaurant", "image": "https://dynamic-media-cdn.tripadvisor.com/media/photo-o/2c/6e/04/2d/caption.jpg?w=1000&s=1", "address": "29 Place Saint-louis, 57000, Metz France", "lat": 49.11653, "lng": 6.178774, "ref_id": 27691808, "rating": 1.5, "num_reviews": 0, "website": "https://www.facebook.com/104414679011777", "contact_phone": "+33 7 80 96 41 48", "contact_email": null, "status": 1, "source_type": 1, "numberReviews": 4}, {"name": "Paul", "type": "restaurant", "image": "https://dynamic-media-cdn.tripadvisor.com/media/photo-o/18/32/21/3d/img-20190705-173727-largejpg.jpg?w=1000&s=1", "address": "219 avenue de Strasbourg, 57070, Metz France", "lat": 49.10381, "lng": 6.21167, "ref_id": 11434330, "rating": 1.5, "num_reviews": 0, "website": "http://www.paul.fr/fr/", "contact_phone": "+33 3 87 50 14 03", "contact_email": "cseltensperger@paul-france.com", "status": 1, "source_type": 1, "numberReviews": 63}, {"name": "Boulangerie Emmanuel Streiff", "type": "restaurant", "image": null, "address": "52 Boulevard Saint-symphorien, 57050 Longeville-les-Metz, Metz France", "lat": 49.1152, "lng": 6.15325, "ref_id": 27371128, "rating": -1, "num_reviews": 0, "website": "https://www.facebook.com/1867215773524835", "contact_phone": "+33 3 87 62 75 06", "contact_email": null, "status": 1, "source_type": 1, "numberReviews": 0}, {"name": "Chicken Street Metz Muse", "type": "restaurant", "image": "https://dynamic-media-cdn.tripadvisor.com/media/photo-o/2c/9e/16/6b/chicken-street.jpg?w=1000&s=1", "address": "2 Rue des Messageries Muse, 57000, Metz France", "lat": 49.107315, "lng": 6.18116, "ref_id": 27821801, "rating": -1, "num_reviews": 0, "website": "https://restaurants.chickenstreet.fr/metz-muse/?utm_source=tripadvisor.fr&utm_medium=referral&utm_campaign=directory", "contact_phone": "+33 9 86 14 16 99", "contact_email": null, "status": 1, "source_type": 1, "numberReviews": 0}, {"name": "Restaurant Quintessence Et Prestance", "type": "restaurant", "image": null, "address": "1 Rue De Paris, 57000 Longeville-les-Metz, Metz France", "lat": 49.12384, "lng": 6.16533, "ref_id": 27292592, "rating": -1, "num_reviews": 0, "website": "http://quintessence-restaurant.com/", "contact_phone": "+33 3 87 31 46 88", "contact_email": null, "status": 1, "source_type": 1, "numberReviews": 0}, {"name": "Serial burger", "type": "restaurant", "image": null, "address": "57 Place Saint-louis, 57000, Metz France", "lat": 49.117153, "lng": 6.174473, "ref_id": 26107535, "rating": -1, "num_reviews": 0, "website": "https://serialburger.fr/", "contact_phone": "+33 3 87 63 75 74", "contact_email": null, "status": 1, "source_type": 1, "numberReviews": 0}, {"name": "Boulangerie P\u00e2tisserie Pierre Fidri", "type": "restaurant", "image": null, "address": "8 Rue Nicolas Jung, 57050 Longeville-les-Metz, Metz France", "lat": 49.13319, "lng": 6.154273, "ref_id": 27360605, "rating": -1, "num_reviews": 0, "website": "http://www.banette.fr", "contact_phone": "+33 3 87 30 09 25", "contact_email": null, "status": 1, "source_type": 1, "numberReviews": 0}, {"name": "La Vall\u00e9e Du Kashmir", "type": "restaurant", "image": null, "address": "17 rue du Neufbourg, 57000, Metz France", "lat": 49.11327, "lng": 6.17778, "ref_id": 23504219, "rating": 5, "num_reviews": 0, "website": null, "contact_phone": null, "contact_email": null, "status": 1, "source_type": 1, "numberReviews": 1}, {"name": "Pop White", "type": "restaurant", "image": "https://dynamic-media-cdn.tripadvisor.com/media/photo-o/16/a2/76/b2/white-concept-store.jpg?w=1000&s=1", "address": "4 Place St Jacques, 57000, Metz France", "lat": null, "lng": null, "ref_id": 26730835, "rating": 4, "num_reviews": 0, "website": "https://www.facebook.com/pop.white", "contact_phone": "+33 3 87 35 06 46", "contact_email": null, "status": 1, "source_type": 1, "numberReviews": 1}, {"name": "Le Cinq", "type": "restaurant", "image": null, "address": "18 B rue de l Abreuvoir, 57000, Metz France", "lat": 49.11579, "lng": 6.18085, "ref_id": 1330921, "rating": -1, "num_reviews": 0, "website": null, "contact_phone": "+33 3 87 35 81 96", "contact_email": "", "status": 1, "source_type": 1, "numberReviews": 0}, {"name": "Cafe De La Promenade", "type": "restaurant", "image": null, "address": "90 Route De Woippy, 57050 Longeville-les-Metz, Metz France", "lat": 49.135284, "lng": 6.160197, "ref_id": 27339519, "rating": -1, "num_reviews": 0, "website": "https://www.facebook.com/213367945816025", "contact_phone": "+33 3 87 36 76 42", "contact_email": null, "status": 1, "source_type": 1, "numberReviews": 0}, {"name": "Aldi France", "type": "restaurant", "image": null, "address": "7 Route De Lorry, 57050 Longeville-les-Metz, Metz France", "lat": 49.130043, "lng": 6.16021, "ref_id": 27346053, "rating": -1, "num_reviews": 0, "website": "https://www.aldi.fr/", "contact_phone": "+33 1 81 09 78 25", "contact_email": null, "status": 1, "source_type": 1, "numberReviews": 0}, {"name": "Aux Petits Choux", "type": "restaurant", "image": null, "address": "26 Rue Saint-marcel, 57000 Longeville-les-Metz, Metz France", "lat": 49.12172, "lng": 6.170518, "ref_id": 27371058, "rating": -1, "num_reviews": 0, "website": "http://www.banette.fr", "contact_phone": "+33 3 87 30 72 72", "contact_email": null, "status": 1, "source_type": 1, "numberReviews": 0}, {"name": "Snack Chez Les Fr\u00e8res", "type": "restaurant", "image": null, "address": "6 Rue De Paris, 57000 Longeville-les-Metz, Metz France", "lat": 49.124023, "lng": 6.164927, "ref_id": 27852880, "rating": -1, "num_reviews": 0, "website": "https://www.facebook.com/178798385465857", "contact_phone": "+33 3 54 62 68 69", "contact_email": null, "status": 1, "source_type": 1, "numberReviews": 0}, {"name": "Sitwells", "type": "restaurant", "image": null, "address": "12bis Rue De Paris, 57000 Longeville-les-Metz, Metz France", "lat": 49.12436, "lng": 6.16469, "ref_id": 27346024, "rating": -1, "num_reviews": 0, "website": "https://www.facebook.com/500846083622662", "contact_phone": "+33 3 87 51 60 29", "contact_email": null, "status": 1, "source_type": 1, "numberReviews": 0}, {"name": "New York", "type": "restaurant", "image": null, "address": "29 en Fournirue, 57000, Metz France", "lat": 49.1185, "lng": 6.177209, "ref_id": 23206049, "rating": -1, "num_reviews": 0, "website": "https://www.facebook.com/LeNewYorkTakeAway/", "contact_phone": "+33 3 56 12 38 92", "contact_email": null, "status": 1, "source_type": 1, "numberReviews": 0}, {"name": "Summum Express", "type": "restaurant", "image": null, "address": "9 rue de Paris, 57000, Metz France", "lat": 49.124386, "lng": 6.165042, "ref_id": 24113506, "rating": -1, "num_reviews": 0, "website": "http://summumexpress.com", "contact_phone": null, "contact_email": null, "status": 1, "source_type": 1, "numberReviews": 0}, {"name": "Caf\u00e9 De La Porte De France", "type": "restaurant", "image": null, "address": "5 Place Cormontaigne, 57000 Longeville-les-Metz, Metz France", "lat": 49.12515, "lng": 6.164912, "ref_id": 27292499, "rating": -1, "num_reviews": 0, "website": "https://www.facebook.com/292468277867644", "contact_phone": "+33 3 87 31 18 31", "contact_email": null, "status": 1, "source_type": 1, "numberReviews": 0}, {"name": "El Cuatro", "type": "restaurant", "image": "https://dynamic-media-cdn.tripadvisor.com/media/photo-o/2a/a7/be/3d/spicy-margarita.jpg?w=1000&s=1", "address": "4 Rue Du Faisan, 57000, Metz France", "lat": 49.119537, "lng": 6.172892, "ref_id": 26775021, "rating": -1, "num_reviews": 0, "website": "https://www.instagram.com/elcuatro_metz/", "contact_phone": "+33 3 87 17 44 92", "contact_email": null, "status": 1, "source_type": 1, "numberReviews": 0}, {"name": "Burger King Muse", "type": "restaurant", "image": null, "address": "Centre Commercial Muse, Av. Louis Le D\u00e9bonnaire, 57000 Metz, Metz France", "lat": null, "lng": null, "ref_id": 25194374, "rating": -1, "num_reviews": 0, "website": null, "contact_phone": "+33 3 87 15 04 98", "contact_email": null, "status": 1, "source_type": 1, "numberReviews": 0}, {"name": "Casa Celli", "type": "restaurant", "image": null, "address": "5 rue Dame Genette, 57070, Metz France", "lat": 49.09865, "lng": 6.2448, "ref_id": 23310890, "rating": -1, "num_reviews": 0, "website": null, "contact_phone": "+352 621 814 944", "contact_email": "victor.celli@me.com", "status": 1, "source_type": 1, "numberReviews": 0}, {"name": "Le Groupe", "type": "restaurant", "image": "https://dynamic-media-cdn.tripadvisor.com/media/photo-o/2b/1d/60/76/grande-planche-a-partager.jpg?w=1000&s=1", "address": "15 Place De Chambre, 57000, Metz France", "lat": 49.12079, "lng": 6.174449, "ref_id": 26729399, "rating": -1, "num_reviews": 0, "website": "https://www.barlegroupe.fr/", "contact_phone": "+33 3 87 63 95 44", "contact_email": "contact@barlegroupe.fr", "status": 1, "source_type": 1, "numberReviews": 0}, {"name": "Yamifood", "type": "restaurant", "image": null, "address": "Avenue S\u00e9bastopol 14, 57070, Metz France", "lat": 49.117153, "lng": 6.174473, "ref_id": 26613114, "rating": -1, "num_reviews": 0, "website": "https://yamifood.sayanfood.fr", "contact_phone": null, "contact_email": null, "status": 1, "source_type": 1, "numberReviews": 0}, {"name": "Spok Metz", "type": "restaurant", "image": null, "address": "9 rue Edouard Belin, 57070, Metz France", "lat": 49.10426, "lng": 6.222808, "ref_id": 23789958, "rating": -1, "num_reviews": 0, "website": "http://www.instagram.com/spok_metz/?hl=fr", "contact_phone": "+33 3 87 64 69 64", "contact_email": "metztechnopole@spok.fr", "status": 1, "source_type": 1, "numberReviews": 0}, {"name": "Burger King", "type": "restaurant", "image": null, "address": "63 Rue Serpenoise, 57000, Metz France", "lat": 49.115734, "lng": 6.173942, "ref_id": 27151737, "rating": -1, "num_reviews": 0, "website": "https://www.burgerking.fr/restaurants?y_source=1_MTAyNDkyNzQzOC03NjktbG9jYXRpb24ud2Vic2l0ZQ%3D%3D", "contact_phone": "+33 3 72 39 63 66", "contact_email": null, "status": 1, "source_type": 1, "numberReviews": 0}, {"name": "Snack Talha", "type": "restaurant", "image": null, "address": "85 Boulevard Saint-symphorien, 57050 Longeville-les-Metz, Metz France", "lat": 49.1149, "lng": 6.15295, "ref_id": 27345982, "rating": -1, "num_reviews": 0, "website": "https://www.facebook.com/464641573718234", "contact_phone": "+33 3 87 38 62 38", "contact_email": null, "status": 1, "source_type": 1, "numberReviews": 0}, {"name": "2 Moiselles", "type": "restaurant", "image": "https://dynamic-media-cdn.tripadvisor.com/media/photo-o/16/14/48/45/tataki-de-thon-rouge.jpg?w=1000&s=1", "address": "1-3 rue du Grand Wad, 57000, Metz France", "lat": 49.116436, "lng": 6.183455, "ref_id": 15600629, "rating": 5, "num_reviews": 0, "website": "http://www.2moiselles.net", "contact_phone": "+33 3 87 62 13 72", "contact_email": null, "status": 1, "source_type": 1, "numberReviews": 335}, {"name": "Canada'Venture", "type": "restaurant", "image": "https://dynamic-media-cdn.tripadvisor.com/media/photo-o/21/af/70/ce/canada-venture.jpg?w=1000&s=1", "address": "12 rue des Roches, 57000, Metz France", "lat": 49.120834, "lng": 6.174167, "ref_id": 1230029, "rating": 4.5, "num_reviews": 0, "website": "https://canada-venture.eatbu.com/?lang=fr", "contact_phone": "+33 3 87 18 99 74", "contact_email": "canadaventure57@gmail.com", "status": 1, "source_type": 1, "numberReviews": 1653}, {"name": "Le Jardin De Bellevue", "type": "restaurant", "image": "https://dynamic-media-cdn.tripadvisor.com/media/photo-o/2a/f7/0b/4a/truffes.jpg?w=1000&s=1", "address": "58 rue Claude Bernard, 57070, Metz France", "lat": 49.11217, "lng": 6.216122, "ref_id": 2707719, "rating": 4.5, "num_reviews": 0, "website": "https://lejardindebellevue.com/", "contact_phone": "+33 3 87 37 10 27", "contact_email": "lejardindebellevue@wanadoo.fr", "status": 1, "source_type": 1, "numberReviews": 677},