[{"name": "Pizza Delight", "type": "restaurant", "image": "https://dynamic-media-cdn.tripadvisor.com/media/photo-o/1b/2b/bc/b1/image.jpg?w=1000&s=1", "address": "70 Consumers Dr, Saint John, New Brunswick E2J 4Z3 Canada", "lat": 45.30618, "lng": -66.01996, "ref_id": 4893330, "rating": 3.5, "num_reviews": 0, "website": "http://www.pizzadelight.com/?utm_source=trpa&utm_medium=lpm&utm_campaign=mty", "contact_phone": "+1 506-636-8080", "contact_email": "contactus@pizzadelight.ca", "status": 1, "source_type": 1, "numberReviews": 20}, {"name": "Turkish Big Bite Restaurant", "type": "restaurant", "image": "https://dynamic-media-cdn.tripadvisor.com/media/photo-o/2b/93/f7/43/big-bite-donair.jpg?w=1000&s=1", "address": "533 Westmorland Rd, Saint John, New Brunswick E2J 2G5 Canada", "lat": 45.310467, "lng": -66.01517, "ref_id": 27462279, "rating": 4, "num_reviews": 0, "website": "https://turkishbigbite.com/", "contact_phone": "+1 506-658-6464", "contact_email": null, "status": 1, "source_type": 1, "numberReviews": 4}, {"name": "The Phoenix", "type": "restaurant", "image": "https://dynamic-media-cdn.tripadvisor.com/media/photo-o/19/a7/0b/ed/img-20191016-123040060.jpg?w=1000&s=1", "address": "68 Exmouth St, Saint John, New Brunswick E2L 3R8 Canada", "lat": 45.2788, "lng": -66.05404, "ref_id": 13483972, "rating": 5, "num_reviews": 0, "website": "http://www.phoenixsj.com", "contact_phone": "+1 506-693-8720", "contact_email": "hello@phoenixsj.com", "status": 1, "source_type": 1, "numberReviews": 2}, {"name": "Vegas Bar & Grill", "type": "restaurant", "image": "https://dynamic-media-cdn.tripadvisor.com/media/photo-o/16/dd/79/8f/three-cheese-chilli-burger.jpg?w=1000&s=1", "address": "10 Portland St, Saint John, New Brunswick E2K 4H8 Canada", "lat": 45.27503, "lng": -66.07265, "ref_id": 10492782, "rating": 3.5, "num_reviews": 0, "website": "http://www.vegasbarandgrill.ca/", "contact_phone": "+1 506-674-5287", "contact_email": "goodtimes@vegasbarandgrill.ca", "status": 1, "source_type": 1, "numberReviews": 49}, {"name": "2 Fat Guys In A Take Out", "type": "restaurant", "image": null, "address": "111 Bayside Drive, Saint John, New Brunswick Canada", "lat": 45.28391, "lng": -66.03964, "ref_id": 26702844, "rating": 3, "num_reviews": 0, "website": "https://www.2fatguysinatakeout.com/", "contact_phone": "+1 506-566-0033", "contact_email": null, "status": 1, "source_type": 1, "numberReviews": 2}, {"name": "Wasted Day Brewery", "type": "restaurant", "image": "https://dynamic-media-cdn.tripadvisor.com/media/photo-o/2a/af/1e/29/caption.jpg?w=1000&s=1", "address": "36 Water St, Saint John, New Brunswick E2L 2A5 Canada", "lat": 45.271667, "lng": -66.062325, "ref_id": 26452655, "rating": 5, "num_reviews": 0, "website": "http://wastedday.ca/", "contact_phone": "+1 506-642-5849", "contact_email": null, "status": 1, "source_type": 1, "numberReviews": 1}, {"name": "Popeyes Louisiana Kitchen", "type": "restaurant", "image": "https://dynamic-media-cdn.tripadvisor.com/media/photo-o/2b/90/9a/d4/caption.jpg?w=1000&s=1", "address": "15 Golden Grove Road, Saint John, New Brunswick E2H 1W4 Canada", "lat": 45.314404, "lng": -66.02435, "ref_id": 27142678, "rating": 3.5, "num_reviews": 0, "website": null, "contact_phone": null, "contact_email": null, "status": 1, "source_type": 1, "numberReviews": 4}, {"name": "Chuckles Lounge", "type": "restaurant", "image": "https://dynamic-media-cdn.tripadvisor.com/media/photo-o/0d/21/27/81/chuckles-lounge.jpg?w=1000&s=1", "address": "533 Westmorland Rd Parkway Mall, Saint John, New Brunswick E2J 2G5 Canada", "lat": 45.31059, "lng": -66.01462, "ref_id": 10268406, "rating": 4, "num_reviews": 0, "website": "http://www.chuckleslounge.ca", "contact_phone": "+1 506-635-5253", "contact_email": null, "status": 1, "source_type": 1, "numberReviews": 6}, {"name": "Wendy's", "type": "restaurant", "image": null, "address": "40 University Avenue, Saint John, New Brunswick E2K 1Z3 Canada", "lat": 45.29439, "lng": -66.095055, "ref_id": 5086959, "rating": 4.5, "num_reviews": 0, "website": "https://locations.wendys.com/canada/nb/saint-john/40-university-avenue", "contact_phone": "+1 506-633-7415", "contact_email": null, "status": 1, "source_type": 1, "numberReviews": 2}, {"name": "Pizza Delight", "type": "restaurant", "image": "https://dynamic-media-cdn.tripadvisor.com/media/photo-o/1b/46/9d/f5/pizzadelight04.jpg?w=1000&s=1", "address": "519 Westmorland Road, Saint John, New Brunswick E2J 3W9 Canada", "lat": 45.30738, "lng": -66.01656, "ref_id": 12796063, "rating": 4.5, "num_reviews": 0, "website": "http://www.pizzadelight.com/?utm_source=trpa&utm_medium=lpm&utm_campaign=mty", "contact_phone": "+1 506-646-0258", "contact_email": "contactus@pizzadelight.ca", "status": 1, "source_type": 1, "numberReviews": 2}, {"name": "Greco Pizza", "type": "restaurant", "image": "https://dynamic-media-cdn.tripadvisor.com/media/photo-o/18/1a/9e/2d/greco-pizza.jpg?w=1000&s=1", "address": "9 Somerset St, Saint John, New Brunswick E2K 2X5 Canada", "lat": 45.279263, "lng": -66.070015, "ref_id": 17654237, "rating": 5, "num_reviews": 0, "website": "http://greco.ca/", "contact_phone": "+1 506-634-0033", "contact_email": null, "status": 1, "source_type": 1, "numberReviews": 1}, {"name": "Wendy's", "type": "restaurant", "image": "https://dynamic-media-cdn.tripadvisor.com/media/photo-o/07/dc/5a/3e/wendy-s-mcallister-dr.jpg?w=1000&s=1", "address": "159 Mcallister Drive, Saint John, New Brunswick E2J 2S6 Canada", "lat": 45.311478, "lng": -66.01658, "ref_id": 5086975, "rating": 3.5, "num_reviews": 0, "website": "https://locations.wendys.com/canada/nb/saint-john/159-mcallister-drive", "contact_phone": "+1 506-693-3283", "contact_email": null, "status": 1, "source_type": 1, "numberReviews": 8}, {"name": "A&W Canada", "type": "restaurant", "image": null, "address": "248 Bayside Drive, Saint John, New Brunswick E2J 1A7 Canada", "lat": 45.28008, "lng": -66.03629, "ref_id": 19636652, "rating": 5, "num_reviews": 0, "website": "https://web.aw.ca/en/locations/7508/saint-john/baysidesaintjhn", "contact_phone": "+1 506-632-8010", "contact_email": null, "status": 1, "source_type": 1, "numberReviews": 1}, {"name": "Fusion East Taproom", "type": "restaurant", "image": "https://dynamic-media-cdn.tripadvisor.com/media/photo-o/2b/75/d0/65/logo.jpg?w=1000&s=1", "address": "11 Fashion Dr Unit L2C, Saint John, New Brunswick E2J 0A7 Canada", "lat": 45.30118, "lng": -66.025215, "ref_id": 27172680, "rating": 5, "num_reviews": 0, "website": "https://fusioneast.ca", "contact_phone": "+1 506-652-4666", "contact_email": "info@fusioneast.ca", "status": 1, "source_type": 1, "numberReviews": 1}, {"name": "Pizza Delight", "type": "restaurant", "image": "https://dynamic-media-cdn.tripadvisor.com/media/photo-o/1b/46/94/a5/image04.jpg?w=1000&s=1", "address": "18 Main Street West, Saint John, New Brunswick E2M 3N1 Canada", "lat": 45.25691, "lng": -66.09937, "ref_id": 5078775, "rating": 3.5, "num_reviews": 0, "website": "http://www.pizzadelight.com/?utm_source=trpa&utm_medium=lpm&utm_campaign=mty", "contact_phone": "+1 506-635-1811", "contact_email": "contactus@pizzadelight.ca", "status": 1, "source_type": 1, "numberReviews": 11}, {"name": "Tim Hortons", "type": "restaurant", "image": null, "address": "52 King St, Saint John, New Brunswick E2L 1G4 Canada", "lat": 45.272945, "lng": -66.0602, "ref_id": 15261057, "rating": 5, "num_reviews": 0, "website": "https://www.facebook.com/1509834919050770", "contact_phone": "+1 506-693-9677", "contact_email": "TimHortons102898@timzone.com", "status": 1, "source_type": 1, "numberReviews": 1}, {"name": "Domino's Pizza", "type": "restaurant", "image": null, "address": "640 Manawagonish Rd, Saint John, New Brunswick E2M 3W5 Canada", "lat": 45.25654, "lng": -66.10158, "ref_id": 7142842, "rating": 3.5, "num_reviews": 0, "website": "https://order.dominos.ca/en/", "contact_phone": "+1 506-693-5050", "contact_email": null, "status": 1, "source_type": 1, "numberReviews": 10}, {"name": "LebanOn The Go", "type": "restaurant", "image": null, "address": "110 Water St, Saint John, New Brunswick E2L 5G1 Canada", "lat": 45.269848, "lng": -66.06188, "ref_id": 23161792, "rating": 4, "num_reviews": 0, "website": "http://www.lebanonthego.com", "contact_phone": "+1 506-608-9297", "contact_email": null, "status": 1, "source_type": 1, "numberReviews": 1}, {"name": "Pizza Shack", "type": "restaurant", "image": null, "address": "241 Millidge Ave, Saint John, New Brunswick E2K 2M4 Canada", "lat": 45.2831, "lng": -66.08702, "ref_id": 4853648, "rating": 5, "num_reviews": 0, "website": "http://www.pizzashack.ca", "contact_phone": "+1 506-672-0333", "contact_email": null, "status": 1, "source_type": 1, "numberReviews": 1}, {"name": "Jeremiah's Deli", "type": "restaurant", "image": null, "address": "47 Charlotte St Saint John City Market, Saint John, New Brunswick E2L 2H8 Canada", "lat": 45.273884, "lng": -66.05956, "ref_id": 764185, "rating": 4, "num_reviews": 0, "website": "https://www.jeremiahsdeli.ca/", "contact_phone": "+1 506-658-0188", "contact_email": "jeremiahsdeli@outlook.com", "status": 1, "source_type": 1, "numberReviews": 2}, {"name": "Fish And Brews Pub", "type": "restaurant", "image": null, "address": "800 Fairville Blvd, Saint John, New Brunswick E2M 5T4 Canada", "lat": 45.25196, "lng": -66.10037, "ref_id": 23596897, "rating": 4, "num_reviews": 0, "website": "https://www.facebook.com/213380455943", "contact_phone": "+1 506-635-8506", "contact_email": null, "status": 1, "source_type": 1, "numberReviews": 1}, {"name": "Tim Hortons", "type": "restaurant", "image": null, "address": "519 Westmorland Rd, Saint John, New Brunswick E2J 3W9 Canada", "lat": 45.307495, "lng": -66.01623, "ref_id": 15260186, "rating": 4, "num_reviews": 0, "website": "https://www.facebook.com/137244660132526", "contact_phone": "+1 905-634-7473", "contact_email": "TimHortons100437@timzone.com", "status": 1, "source_type": 1, "numberReviews": 4}, {"name": "Tim Hortons", "type": "restaurant", "image": null, "address": "31 Waterloo St, Saint John, New Brunswick E2L 3P6 Canada", "lat": 45.27628, "lng": -66.05756, "ref_id": 15260238, "rating": 4, "num_reviews": 0, "website": "https://www.facebook.com/1284285291606570", "contact_phone": "+1 506-658-9956", "contact_email": "TimHortons100639@timzone.com", "status": 1, "source_type": 1, "numberReviews": 1}, {"name": "Tim Hortons", "type": "restaurant", "image": null, "address": "265 King St W, Saint John, New Brunswick E2M 1S7 Canada", "lat": 45.26039, "lng": -66.07626, "ref_id": 15260338, "rating": 4, "num_reviews": 0, "website": "https://www.facebook.com/1672249359735441", "contact_phone": "+1 506-672-2270", "contact_email": "TimHortons100899@timzone.com", "status": 1, "source_type": 1, "numberReviews": 1}, {"name": "Tim Hortons", "type": "restaurant", "image": null, "address": "10 Mcdonald St, Saint John, New Brunswick E2J 0K7 Canada", "lat": 45.287006, "lng": -66.0285, "ref_id": 15262223, "rating": 4, "num_reviews": 0, "website": "https://www.facebook.com/619757728228646", "contact_phone": "+1 506-633-8453", "contact_email": "timhortons108414@timzone.com", "status": 1, "source_type": 1, "numberReviews": 1}, {"name": "La Cabane \u00c0 Cone", "type": "restaurant", "image": null, "address": "11225 New Brunswick 11 Pokemouch, Saint John, New Brunswick E8P 1H9 Canada", "lat": 45.264748, "lng": -66.08436, "ref_id": 10453888, "rating": 4, "num_reviews": 0, "website": "https://www.facebook.com/CabaneACone/info/?entry_point=page_nav_about_item&tab=page_info", "contact_phone": "+1 506-727-4647", "contact_email": null, "status": 1, "source_type": 1, "numberReviews": 1}, {"name": "Kfc", "type": "restaurant", "image": null, "address": "621 Fairville Blvd, Saint John, New Brunswick E2M 4X5 Canada", "lat": 45.25386, "lng": -66.09588, "ref_id": 5796394, "rating": 3, "num_reviews": 0, "website": "http://www.kfc.ca", "contact_phone": "+1 506-672-7700", "contact_email": null, "status": 1, "source_type": 1, "numberReviews": 8}, {"name": "McDonald's", "type": "restaurant", "image": "https://dynamic-media-cdn.tripadvisor.com/media/photo-o/10/bd/2f/e1/across-the-street-diagonally.jpg?w=1000&s=1", "address": "399 Main Street, Saint John, New Brunswick E2K 1J3 Canada", "lat": 45.275585, "lng": -66.07647, "ref_id": 4868472, "rating": 3.5, "num_reviews": 0, "website": "https://www.mcdonalds.com/ca/en-ca/restaurant-locator.html?y_source=1_MTQ1MTk3MzgtNzY5LWxvY2F0aW9uLndlYnNpdGU%3D", "contact_phone": "+1 506-634-2708", "contact_email": "7958@post.mcdonalds.ca", "status": 1, "source_type": 1, "numberReviews": 9}, {"name": "McDonald's", "type": "restaurant", "image": null, "address": "450 Westmorland Road, Saint John, New Brunswick E2J 4Z2 Canada", "lat": 45.30806, "lng": -66.02028, "ref_id": 4881885, "rating": 3.5, "num_reviews": 0, "website": "https://www.mcdonalds.com/ca/en-ca/restaurant-locator.html?y_source=1_mtq1mtk1nzgtnzy5lwxvy2f0aw9ulndlynnpdgu%3d", "contact_phone": "+1 506-634-2703", "contact_email": "26040@post.mcdonalds.ca", "status": 1, "source_type": 1, "numberReviews": 7}, {"name": "House Of Chan Mcallister Place", "type": "restaurant", "image": null, "address": "McAllister Place 519 Westmorland Rd, Saint John, New Brunswick E2J 3W9 Canada", "lat": 45.30738, "lng": -66.01656, "ref_id": 23091748, "rating": 3, "num_reviews": 0, "website": "http://thehouseofchan.com", "contact_phone": "+1 506-657-0045", "contact_email": "info@houseofchan.com", "status": 1, "source_type": 1, "numberReviews": 2}, {"name": "Le Nouvo Caveau", "type": "restaurant", "image": "https://dynamic-media-cdn.tripadvisor.com/media/photo-o/12/40/67/f0/drinks-at-the-bar-le.jpg?w=1000&s=1", "address": "1085 Du Parc, Paquetville, New Brunswick E0B 2B0 Canada", "lat": 47.66479, "lng": -65.10744, "ref_id": 3955076, "rating": 4.5, "num_reviews": 0, "website": "http://www.nouvocaveau.ca", "contact_phone": "+1 506-764-3343", "contact_email": "sonia.jalbert@nouvocaveau.ca", "status": 1, "source_type": 1, "numberReviews": 18}, {"name": "Restaurant La Crepe Bretonne", "type": "restaurant", "image": "https://dynamic-media-cdn.tripadvisor.com/media/photo-o/1c/f3/f4/a4/photo5jpg.jpg?w=1000&s=1", "address": "1085 Du Parc St, Paquetville, New Brunswick E8R 1J3 Canada", "lat": 47.665024, "lng": -65.106834, "ref_id": 10155177, "rating": 3.5, "num_reviews": 0, "website": "http://www.lacrepebretonne.com/", "contact_phone": "+1 506-764-5344", "contact_email": null, "status": 1, "source_type": 1, "numberReviews": 15}, {"name": "Tim Hortons", "type": "restaurant", "image": null, "address": "1082 Rue de Parc Paquetville Nb E8r 1j6, Paquetville, New Brunswick E8R 1J6 Canada", "lat": 47.664516, "lng": -65.10584, "ref_id": 15260844, "rating": 4.5, "num_reviews": 0, "website": "https://locations.timhortons.ca/nb/paquetville/1078-rue-de-parc", "contact_phone": "+1 506-764-2980", "contact_email": "TimHortons102345@timzone.com", "status": 1, "source_type": 1, "numberReviews": 3}, {"name": "Queue De Castor", "type": "restaurant", "image": null, "address": "1085 Rue Du Parc, Paquetville, New Brunswick E8R 1J3 Canada", "lat": 47.66479, "lng": -65.10744, "ref_id": 27255291, "rating": -1, "num_reviews": 0, "website": "http://arachides-depot.ca", "contact_phone": "+1 506-764-8008", "contact_email": null, "status": 1, "source_type": 1, "numberReviews": 0}, {"name": "Sucrerie Chiasson", "type": "restaurant", "image": null, "address": "244 rue des Erables, Paquetville, New Brunswick Canada", "lat": 47.68072, "lng": -65.09558, "ref_id": 25391659, "rating": -1, "num_reviews": 0, "website": null, "contact_phone": null, "contact_email": null, "status": 1, "source_type": 1, "numberReviews": 0}, {"name": "Dixie 2000 De Paquetville", "type": "restaurant", "image": null, "address": "1085 Rue Du Parc, Paquetville, New Brunswick E8R 1J3 Canada", "lat": 47.665115, "lng": -65.10684, "ref_id": 27278120, "rating": -1, "num_reviews": 0, "website": "http://www.lacrepebretonne.com", "contact_phone": "+1 506-764-2000", "contact_email": null, "status": 1, "source_type": 1, "numberReviews": 0}, {"name": "Au Bar Du Quai D'anse-bleu", "type": "restaurant", "image": null, "address": "38 All\u00e9e Du H\u00e2vre, Paquetville, New Brunswick Canada", "lat": 47.829475, "lng": -65.07853, "ref_id": 27277386, "rating": -1, "num_reviews": 0, "website": "https://www.facebook.com/1696601540595901", "contact_phone": "+1 506-732-9119", "contact_email": null, "status": 1, "source_type": 1, "numberReviews": 0}, {"name": "A.C. Sharkey's Pub", "type": "restaurant", "image": "https://dynamic-media-cdn.tripadvisor.com/media/photo-o/0e/e6/56/fd/warm-refreshements.jpg?w=1000&s=1", "address": "2 Curtis Rd, Florenceville-Bristol, New Brunswick E7L 2E6 Canada", "lat": 46.47043, "lng": -67.580124, "ref_id": 5999171, "rating": 4, "num_reviews": 0, "website": "http://www.facebook.com/acsharkeyspub", "contact_phone": "+1 506-392-6675", "contact_email": "info@acsharkeyspub.ca", "status": 1, "source_type": 1, "numberReviews": 37}, {"name": "Exit 153 Restaurant", "type": "restaurant", "image": "https://dynamic-media-cdn.tripadvisor.com/media/photo-o/2a/af/83/27/exit-153-restaurant.jpg?w=1000&s=1", "address": "383 Centreville Rd, Florenceville-Bristol, New Brunswick E7L 3K5 Canada", "lat": 46.44433, "lng": -67.64226, "ref_id": 23595305, "rating": 4, "num_reviews": 0, "website": "http://exit153restaurant.com", "contact_phone": "+1 506-595-9550", "contact_email": null, "status": 1, "source_type": 1, "numberReviews": 34}, {"name": "On The Boardwalk", "type": "restaurant", "image": "https://dynamic-media-cdn.tripadvisor.com/media/photo-o/1d/9f/85/47/caption.jpg?w=1000&s=1", "address": "8754 Main St, Florenceville-Bristol, New Brunswick E7L 3G5 Canada", "lat": 46.442352, "lng": -67.61882, "ref_id": 23063984, "rating": 4, "num_reviews": 0, "website": "http://www.on-the-boardwalk.ca", "contact_phone": "+1 506-595-0120", "contact_email": null, "status": 1, "source_type": 1, "numberReviews": 24}, {"name": "French Fry Hut", "type": "restaurant", "image": "https://dynamic-media-cdn.tripadvisor.com/media/photo-o/14/71/36/40/20180902-165238-largejpg.jpg?w=1000&s=1", "address": "322-346 Centreville Rd 3P7, Florenceville-Bristol, New Brunswick E7L 3K6 Canada", "lat": 46.447475, "lng": -67.63534, "ref_id": 14995057, "rating": 4.5, "num_reviews": 0, "website": null, "contact_phone": "+1 506-392-5400", "contact_email": null, "status": 1, "source_type": 1, "numberReviews": 6}, {"name": "Noah's Ark Cafe", "type": "restaurant", "image": "https://dynamic-media-cdn.tripadvisor.com/media/photo-o/29/7f/54/bf/caption.jpg?w=1000&s=1", "address": "350 Burnham Rd, Florenceville-Bristol, New Brunswick E7L 2V4 Canada", "lat": 46.432762, "lng": -67.60142, "ref_id": 17510008, "rating": 4, "num_reviews": 0, "website": "http://nathanministry.wixsite.com/noahsarkcafe", "contact_phone": "+1 506-392-8256", "contact_email": null, "status": 1, "source_type": 1, "numberReviews": 5}, {"name": "Subway", "type": "restaurant", "image": null, "address": "8800-8800 Main St, Florenceville-Bristol, New Brunswick E7L 1B2 Canada", "lat": 46.45272, "lng": -67.60813, "ref_id": 4783583, "rating": 4, "num_reviews": 0, "website": null, "contact_phone": null, "contact_email": null, "status": 1, "source_type": 1, "numberReviews": 5}, {"name": "Le Lai Restaurant", "type": "restaurant", "image": null, "address": "17 McCain St, Florenceville-Bristol, New Brunswick E7L 3H5 Canada", "lat": 46.44013, "lng": -67.6188, "ref_id": 763856, "rating": 3.5, "num_reviews": 0, "website": "https://www.facebook.com/Le-Lai-Restaurant-105047940997972/", "contact_phone": "+1 506-392-5397", "contact_email": "", "status": 1, "source_type": 1, "numberReviews": 12}, {"name": "Pizza Delight", "type": "restaurant", "image": "https://dynamic-media-cdn.tripadvisor.com/media/photo-o/1b/48/e9/3e/image.jpg?w=1000&s=1", "address": "8708 Main Street, Florenceville-Bristol, New Brunswick E7L 3G8 Canada", "lat": 46.44016, "lng": -67.619514, "ref_id": 5857813, "rating": 3.5, "num_reviews": 0, "website": "http://www.pizzadelight.com/?utm_source=trpa&utm_medium=lpm&utm_campaign=mty", "contact_phone": "+1 506-392-1810", "contact_email": "contactus@pizzadelight.ca", "status": 1, "source_type": 1, "numberReviews": 8}, {"name": "Tim Hortons", "type": "restaurant", "image": null, "address": "305 Route 110, Florenceville-Bristol, New Brunswick E7L 3P8 Canada", "lat": 46.441105, "lng": -67.64871, "ref_id": 15837396, "rating": 2.5, "num_reviews": 0, "website": "https://locations.timhortons.ca/nb/florenceville/305-route-110", "contact_phone": "+1 506-392-5592", "contact_email": "timhortons106458@timzone.com", "status": 1, "source_type": 1, "numberReviews": 2}, {"name": "Capt. Submarine Xpress", "type": "restaurant", "image": "https://dynamic-media-cdn.tripadvisor.com/media/photo-o/2a/91/88/f3/capt-s-clubhouse.jpg?w=1000&s=1", "address": "306 Nb-110, Florenceville-Bristol, New Brunswick E7K 3C2 Canada", "lat": 46.441895, "lng": -67.64926, "ref_id": 17724503, "rating": 1, "num_reviews": 0, "website": "http://www.captsub.com/", "contact_phone": null, "contact_email": null, "status": 1, "source_type": 1, "numberReviews": 1}, {"name": "Subway", "type": "restaurant", "image": null, "address": "8818 Main St. Unit 1, Florenceville-Bristol, New Brunswick E7L 3G2 Canada", "lat": 46.452423, "lng": -67.60737, "ref_id": 20158965, "rating": -1, "num_reviews": 0, "website": "https://restaurants.subway.com/canada/nb/florenceville-bristol-nb/8818-main-st?utm_source=yext-other&utm_medium=local&utm_term=acq&utm_content=24523&utm_campaign=evergreen-2020&y_source=1_MTQ5MjA0NjgtNzY5LWxvY2F0aW9uLndlYnNpdGU%3D", "contact_phone": "+1 506-392-8337", "contact_email": null, "status": 1, "source_type": 1, "numberReviews": 0}, {"name": "Countryside Pub & Grill", "type": "restaurant", "image": null, "address": "239 Burnham Rd, Florenceville-Bristol, New Brunswick E7L 1Z1 Canada", "lat": 46.432983, "lng": -67.604065, "ref_id": 27785934, "rating": -1, "num_reviews": 0, "website": null, "contact_phone": "+1 506-392-6053", "contact_email": "admin@florencevilleinn.ca", "status": 1, "source_type": 1, "numberReviews": 0}, {"name": "Resto Chez Isa", "type": "restaurant", "image": "https://dynamic-media-cdn.tripadvisor.com/media/photo-o/13/db/17/2d/photo0jpg.jpg?w=1000&s=1", "address": "124 Du Pont St, Bertrand, New Brunswick E1W 1J3 Canada", "lat": 47.761112, "lng": -65.06761, "ref_id": 4853546, "rating": 4.5, "num_reviews": 0, "website": "https://restochezisa.business.site/", "contact_phone": "+1 506-727-0099", "contact_email": null, "status": 1, "source_type": 1, "numberReviews": 38}, {"name": "Piero", "type": "restaurant", "image": null, "address": "150 Du Pont St, Bertrand, New Brunswick E1W 1J3 Canada", "lat": 47.75884, "lng": -65.06659, "ref_id": 8630292, "rating": 5, "num_reviews": 0, "website": "https://www.facebook.com/pages/Boulangerie-chez-Piero/603876536382618", "contact_phone": null, "contact_email": null, "status": 1, "source_type": 1, "numberReviews": 2}, {"name": "Pinokkio Pizzeria Resto Bar", "type": "restaurant", "image": "https://dynamic-media-cdn.tripadvisor.com/media/photo-o/07/70/6d/2b/pinokkio.jpg?w=1000&s=1", "address": "121 16e Rue, Shippagan, New Brunswick E8S 1E9 Canada", "lat": 47.742393, "lng": -64.70229, "ref_id": 7353227, "rating": 4.5, "num_reviews": 0, "website": "http://www.facebook.com/pages/Pinokkio-pizzeria-resto-bar/718359338200636", "contact_phone": "+1 506-336-0051", "contact_email": "pinokkiopizzeria@gmail.com", "status": 1, "source_type": 1, "numberReviews": 64}, {"name": "Le Sub-Royal", "type": "restaurant", "image": "https://dynamic-media-cdn.tripadvisor.com/media/photo-o/0e/3e/20/41/interieur-de-restaurant.jpg?w=1000&s=1", "address": "Royal 241 J D Gauthier Blvd, Shippagan, New Brunswick E8S 1N3 Canada", "lat": 47.743397, "lng": -64.707954, "ref_id": 4876556, "rating": 4.5, "num_reviews": 0, "website": "https://www.facebook.com/LeSubRoyal/", "contact_phone": "+1 506-336-9309", "contact_email": null, "status": 1, "source_type": 1, "numberReviews": 11}, {"name": "CHEZ AICHA", "type": "restaurant", "image": "https://dynamic-media-cdn.tripadvisor.com/media/photo-o/29/62/06/cd/decor-unique-dans-la.jpg?w=1000&s=1", "address": "197-a J-d Gauthier, Shippagan, New Brunswick E8S 1P2 Canada", "lat": 47.744408, "lng": -64.71438, "ref_id": 25438487, "rating": 4.5, "num_reviews": 0, "website": null, "contact_phone": "+1 506-336-8989", "contact_email": null, "status": 1, "source_type": 1, "numberReviews": 3}, {"name": "Restaurant du Pavillon Aquatique", "type": "restaurant", "image": "https://dynamic-media-cdn.tripadvisor.com/media/photo-o/19/5b/25/3f/restaurant-du-pavillon.jpg?w=1000&s=1", "address": "100 Rue de l'Aquatique, Shippagan, New Brunswick Canada", "lat": 47.747555, "lng": -64.70882, "ref_id": 4599636, "rating": 3.5, "num_reviews": 0, "website": "https://www.facebook.com/RestaurantPavillonAquatique/", "contact_phone": "+1 506-336-3110", "contact_email": null, "status": 1, "source_type": 1, "numberReviews": 26}, {"name": "Tazza Caffe Shippagan", "type": "restaurant", "image": null, "address": "231 Boulevard JD Gauthier, Shippagan, New Brunswick E8S 1N2 Canada", "lat": 47.743095, "lng": -64.708725, "ref_id": 3393471, "rating": 4, "num_reviews": 0, "website": "http://www.tazzacaffe.ca", "contact_phone": "+1 506-336-2233", "contact_email": "geranteshippagan@tazzacaffe.ca", "status": 1, "source_type": 1, "numberReviews": 11}, {"name": "Dixie Lee", "type": "restaurant", "image": null, "address": "140 Degrace St, Shippagan, New Brunswick E8S 1H5 Canada", "lat": 47.74385, "lng": -64.71376, "ref_id": 3334501, "rating": 4.5, "num_reviews": 0, "website": "http://www.dixieleeshippagan.ca", "contact_phone": "+1 506-336-2354", "contact_email": "info@dixieleeshippagan.ca", "status": 1, "source_type": 1, "numberReviews": 4}, {"name": "Le Shack a Joe", "type": "restaurant", "image": "https://dynamic-media-cdn.tripadvisor.com/media/photo-o/1c/7e/16/31/shack-burger-with-wedges.jpg?w=1000&s=1", "address": "184 1RE Rue, Shippagan, New Brunswick E8S 1T1 Canada", "lat": 47.73875, "lng": -64.7246, "ref_id": 17347479, "rating": 5, "num_reviews": 0, "website": "https://www.facebook.com/leshackajoe/", "contact_phone": "+1 506-336-9158", "contact_email": "rgh16@icloud.com", "status": 1, "source_type": 1, "numberReviews": 1}, {"name": "Saigon Maxim Restaurant", "type": "restaurant", "image": null, "address": "146 1re Rue, Shippagan, New Brunswick E8S 1A4 Canada", "lat": 47.742474, "lng": -64.72123, "ref_id": 4874111, "rating": 5, "num_reviews": 0, "website": "https://saigonmaxim.business.site/", "contact_phone": "+1 506-336-9704", "contact_email": null, "status": 1, "source_type": 1, "numberReviews": 1}, {"name": "Pizza Delight", "type": "restaurant", "image": "https://dynamic-media-cdn.tripadvisor.com/media/photo-o/1b/2c/9a/35/image.jpg?w=1000&s=1", "address": "285 Boulevard J. D. Gauthier, Shippagan, New Brunswick E8S 1R3 Canada", "lat": 47.740658, "lng": -64.703094, "ref_id": 3334223, "rating": 3, "num_reviews": 0, "website": "http://www.pizzadelight.com/?utm_source=trpa&utm_medium=lpm&utm_campaign=mty", "contact_phone": "+1 506-336-4774", "contact_email": "contactus@pizzadelight.ca", "status": 1, "source_type": 1, "numberReviews": 19}, {"name": "Yamakasi Foods Inc.", "type": "restaurant", "image": null, "address": "244 Boulevard Jd Gauthier, Shippagan, New Brunswick E8S 1P9 Canada", "lat": 47.74369, "lng": -64.70768, "ref_id": 27255174, "rating": -1, "num_reviews": 0, "website": "https://www.facebook.com/100456988762663", "contact_phone": "+1 506-336-0887", "contact_email": null, "status": 1, "source_type": 1, "numberReviews": 0}, {"name": "P\u00e2tisserie De Lacadie", "type": "restaurant", "image": null, "address": "270 Boulevard Jd Gauthier, Shippagan, New Brunswick E8S 1R2 Canada", "lat": 47.74211, "lng": -64.70424, "ref_id": 27255180, "rating": -1, "num_reviews": 0, "website": "https://www.facebook.com/864452750248947", "contact_phone": "+1 506-336-2324", "contact_email": null, "status": 1, "source_type": 1, "numberReviews": 0}, {"name": "Cactus Caf\u00e9", "type": "restaurant", "image": null, "address": "205 Boulevard Jd Gauthier, Shippagan, New Brunswick E8S 2K8 Canada", "lat": 47.744656, "lng": -64.71324, "ref_id": 27241592, "rating": -1, "num_reviews": 0, "website": "https://www.facebook.com/418052445600847", "contact_phone": "+1 506-336-0192", "contact_email": null, "status": 1, "source_type": 1, "numberReviews": 0}, {"name": "Subway", "type": "restaurant", "image": null, "address": "225 JD Gauthier Blvd, Shippagan, New Brunswick E8S 1N2 Canada", "lat": 47.74428, "lng": -64.71014, "ref_id": 27190440, "rating": -1, "num_reviews": 0, "website": "https://www.facebook.com/127893817231310", "contact_phone": "+1 506-336-0880", "contact_email": null, "status": 1, "source_type": 1, "numberReviews": 0}, {"name": "Traffik", "type": "restaurant", "image": null, "address": "197 Boulevard Jd Gauthier, Shippagan, New Brunswick E8S 1M9 Canada", "lat": 47.74455, "lng": -64.71437, "ref_id": 27235994, "rating": -1, "num_reviews": 0, "website": "http://www.traffikshippagan.ca/", "contact_phone": "+1 506-336-4800", "contact_email": null, "status": 1, "source_type": 1, "numberReviews": 0}, {"name": "Dairy Queen", "type": "restaurant", "image": null, "address": "84 Rue Notre Dame, Atholville, New Brunswick E3N 3Z2 Canada", "lat": 47.996445, "lng": -66.70886, "ref_id": 15860794, "rating": 4.5, "num_reviews": 0, "website": "https://www.dairyqueen.com/ca-en/Locator/Detail/?localechange=1&store-id=2076&y_source=1_ODk5NDQxOC03NjktbG9jYXRpb24ud2Vic2l0ZQ%3D%3D", "contact_phone": "+1 506-753-5496", "contact_email": null, "status": 1, "source_type": 1, "numberReviews": 4}, {"name": "A&W Restaurant", "type": "restaurant", "image": "https://dynamic-media-cdn.tripadvisor.com/media/photo-s/02/1f/ff/f2/filename-276812-117882344977447.jpg?w=1000&s=1", "address": "312 Val D'Amour Rd Sugarloaf Mall, Atholville, New Brunswick E3N 4E2 Canada", "lat": 47.99377, "lng": -66.69977, "ref_id": 2259712, "rating": 3.5, "num_reviews": 0, "website": "http://www.aw.ca/", "contact_phone": "+1 506-753-5663", "contact_email": "johnrichard.hutchinson@gmail.com", "status": 1, "source_type": 1, "numberReviews": 13}, {"name": "Tim Hortons", "type": "restaurant", "image": null, "address": "2 Jagoe St, Atholville, New Brunswick E3N 5C3 Canada", "lat": 47.992996, "lng": -66.70307, "ref_id": 15814384, "rating": 3, "num_reviews": 0, "website": "https://locations.timhortons.ca/nb/atholville/2-jagoe-st", "contact_phone": "+1 506-753-1881", "contact_email": "TimHortons102061@timzone.com", "status": 1, "source_type": 1, "numberReviews": 1}, {"name": "McDonald's", "type": "restaurant", "image": null, "address": "4 Jagoe Street, Atholville, New Brunswick E3N 5C3 Canada", "lat": 47.99237, "lng": -66.70437, "ref_id": 20036634, "rating": 3, "num_reviews": 0, "website": "https://www.mcdonalds.com/ca/en-ca/restaurant-locator.html?y_source=1_MTQ1MjAxNDAtNzY5LWxvY2F0aW9uLndlYnNpdGU%3D", "contact_phone": "+1 506-759-8886", "contact_email": "40019@post.mcdonalds.ca", "status": 1, "source_type": 1, "numberReviews": 1}, {"name": "TBar Restaurant & Bar", "type": "restaurant", "image": null, "address": "596 Val d' Amour Rd, Atholville, New Brunswick E3N 4C9 Canada", "lat": 47.98308, "lng": -66.69319, "ref_id": 12929852, "rating": 3, "num_reviews": 0, "website": "https://www.facebook.com/TBarRestaurantInc/", "contact_phone": "+1 506-789-4827", "contact_email": "tbar.resto@gmail.com", "status": 1, "source_type": 1, "numberReviews": 7}, {"name": "bento SUSHI", "type": "restaurant", "image": null, "address": "25 Savoie Avenue, Atholville, New Brunswick Canada", "lat": 47.989067, "lng": -66.701744, "ref_id": 27189633, "rating": -1, "num_reviews": 0, "website": "https://www.bentosushi.com/", "contact_phone": "", "contact_email": null, "status": 1, "source_type": 1, "numberReviews": 0}, {"name": "A&w Canada", "type": "restaurant", "image": null, "address": "312 Val-d'amour Rd, Atholville, New Brunswick Canada", "lat": 47.993584, "lng": -66.69975, "ref_id": 27301299, "rating": -1, "num_reviews": 0, "website": "https://web.aw.ca/", "contact_phone": "+1 506-753-5663", "contact_email": null, "status": 1, "source_type": 1, "numberReviews": 0}, {"name": "Poissonnerie Lagac\u00e9 Fish Market Inc", "type": "restaurant", "image": null, "address": "156 Notre Dame St, Atholville, New Brunswick Canada", "lat": 47.99233, "lng": -66.7146, "ref_id": 27251697, "rating": -1, "num_reviews": 0, "website": null, "contact_phone": "+1 506-753-7166", "contact_email": null, "status": 1, "source_type": 1, "numberReviews": 0}, {"name": "Parkview Restaurant", "type": "restaurant", "image": "https://dynamic-media-cdn.tripadvisor.com/media/photo-o/17/84/5d/91/thursday-night-is-wing.jpg?w=1000&s=1", "address": "35 Mactaquac Rd, French Village, New Brunswick E3E 1L2 Canada", "lat": 45.94377, "lng": -66.86882, "ref_id": 2222483, "rating": 4, "num_reviews": 0, "website": null, "contact_phone": "+1 506-363-5111", "contact_email": "m.jesmer@riversidefredericton.com", "status": 1, "source_type": 1, "numberReviews": 9}, {"name": "Entity 59 Smokehouse", "type": "restaurant", "image": "https://dynamic-media-cdn.tripadvisor.com/media/photo-o/28/f1/3d/bb/pulled-pork-sandwich.jpg?w=1000&s=1", "address": "2306, route 3, Harvey, new Brunswick, Harvey, New Brunswick E6K 1P2 Canada", "lat": 45.73017, "lng": -67.00493, "ref_id": 25463055, "rating": 5, "num_reviews": 0, "website": null, "contact_phone": "+1 506-366-3399", "contact_email": "entity59smokehouse@gmail.com", "status": 1, "source_type": 1, "numberReviews": 6}, {"name": "Black's Family Style Restaurant", "type": "restaurant", "image": "https://dynamic-media-cdn.tripadvisor.com/media/photo-o/15/41/ac/7e/black-s-family-style.jpg?w=1000&s=1", "address": "1955 Route 3, Harvey, New Brunswick E6K 1K3 Canada", "lat": 45.72933, "lng": -67.00587, "ref_id": 10238827, "rating": 4, "num_reviews": 0, "website": "http://www.facebook.com/pages/Blacks/181834735203259", "contact_phone": "+1 506-366-3000", "contact_email": null, "status": 1, "source_type": 1, "numberReviews": 14}, {"name": "Pit Stop Canteen", "type": "restaurant", "image": null, "address": "393 Tweedside Rd, Harvey, New Brunswick E6K 2H7 Canada", "lat": 45.660637, "lng": -67.01311, "ref_id": 4848500, "rating": 5, "num_reviews": 0, "website": null, "contact_phone": null, "contact_email": null, "status": 1, "source_type": 1, "numberReviews": 1}, {"name": "Little Ridge Bakeshop", "type": "restaurant", "image": null, "address": "Harvey, New Brunswick E4H 3S6 Canada", "lat": null, "lng": null, "ref_id": 10507419, "rating": 5, "num_reviews": 0, "website": null, "contact_phone": "+1 506-370-0265", "contact_email": null, "status": 1, "source_type": 1, "numberReviews": 1}, {"name": "Chez Kajoli au Camping St-Basile", "type": "restaurant", "image": null, "address": "14411 Route 144, Riviere-Verte, New Brunswick E7C 2L9 Canada", "lat": 47.33181, "lng": -68.171974, "ref_id": 27120818, "rating": -1, "num_reviews": 0, "website": null, "contact_phone": "+1 506-263-2023", "contact_email": "chezkajoli@outlook.com", "status": 1, "source_type": 1, "numberReviews": 0}, {"name": "lil' Peppinos", "type": "restaurant", "image": "https://dynamic-media-cdn.tripadvisor.com/media/photo-o/18/84/62/7f/lil-peppinos.jpg?w=1000&s=1", "address": "248 Main St, Plaster Rock, New Brunswick E7G 2C9 Canada", "lat": 46.90836, "lng": -67.3952, "ref_id": 8410815, "rating": 4.5, "num_reviews": 0, "website": "http://www.facebook.com/lilpeppinos/", "contact_phone": "+1 506-356-2111", "contact_email": "lilpeppinos@gmail.com", "status": 1, "source_type": 1, "numberReviews": 26}, {"name": "Dayna's Country Kitchen", "type": "restaurant", "image": "https://dynamic-media-cdn.tripadvisor.com/media/photo-o/17/6c/ee/a0/20190427-181500-largejpg.jpg?w=1000&s=1", "address": "273 Main St, Plaster Rock, New Brunswick E7G 2G4 Canada", "lat": 46.911324, "lng": -67.39395, "ref_id": 8454307, "rating": 4.5, "num_reviews": 0, "website": "http://m.facebook.com/pages/Daynas-Country-Kitchen/128004533906203", "contact_phone": "+1 506-356-9095", "contact_email": null, "status": 1, "source_type": 1, "numberReviews": 15}, {"name": "JR's Take Out", "type": "restaurant", "image": "https://dynamic-media-cdn.tripadvisor.com/media/photo-o/18/78/ae/2d/if-one-is-good-3-is-better.jpg?w=1000&s=1", "address": "191 Main St, Plaster Rock, New Brunswick E7G 2G8 Canada", "lat": 46.90283, "lng": -67.39664, "ref_id": 8519393, "rating": 4, "num_reviews": 0, "website": "http://www.jrstakeout.ca", "contact_phone": "+1 506-356-8510", "contact_email": "jrstakeout@gmail.com", "status": 1, "source_type": 1, "numberReviews": 9}, {"name": "Mrs. & Mr. Chile Family Restaurant", "type": "restaurant", "image": null, "address": "221 Main Street, Plaster Rock, New Brunswick E7G 2G7 Canada", "lat": 46.90572, "lng": -67.39637, "ref_id": 26306251, "rating": -1, "num_reviews": 0, "website": null, "contact_phone": "+1 506-240-1021", "contact_email": "mrs.andmr.chile@outlook.com", "status": 1, "source_type": 1, "numberReviews": 0}, {"name": "Reed's Point Pub & Grill", "type": "restaurant", "image": "https://dynamic-media-cdn.tripadvisor.com/media/photo-o/0d/3d/f6/44/gorgeous-view-of-the.jpg?w=1000&s=1", "address": "1146 Route 845 First Right Off the Gondola Point Ferry, Kingston, New Brunswick E5N 1L1 Canada", "lat": 45.466988, "lng": -65.97428, "ref_id": 11636426, "rating": 4.5, "num_reviews": 0, "website": "http://www.reedspointpub.com/", "contact_phone": "+1 506-763-2792", "contact_email": "caseyolde@gmail.com", "status": 1, "source_type": 1, "numberReviews": 15}, {"name": "Rossano's", "type": "restaurant", "image": "https://dynamic-media-cdn.tripadvisor.com/media/photo-o/07/6c/50/7a/the-works.jpg?w=1000&s=1", "address": "9 Champlain St, Dieppe, New Brunswick E1A 1N4 Canada", "lat": 46.093582, "lng": -64.76118, "ref_id": 1063755, "rating": 4.5, "num_reviews": 0, "website": "http://rossanos.ca", "contact_phone": "+1 506-384-6464", "contact_email": "greggross@rogers.com", "status": 1, "source_type": 1, "numberReviews": 402}, {"name": "Mansu BBQ", "type": "restaurant", "image": "https://dynamic-media-cdn.tripadvisor.com/media/photo-o/12/16/ce/af/boeuf-epice-et-nouilles.jpg?w=1000&s=1", "address": "279 Amirault St, Dieppe, New Brunswick E1A 1G1 Canada", "lat": 46.085983, "lng": -64.73394, "ref_id": 13082405, "rating": 5, "num_reviews": 0, "website": "https://mansubbq.com", "contact_phone": "+1 506-830-6800", "contact_email": "ykim1921@gmail.com", "status": 1, "source_type": 1, "numberReviews": 76}, {"name": "Blue Olive Restaurant", "type": "restaurant", "image": "https://dynamic-media-cdn.tripadvisor.com/media/photo-s/02/82/2d/98/the-blue-olive.jpg?w=1000&s=1", "address": "451 Paul St Unit 114, Dieppe, New Brunswick E1A 6W8 Canada", "lat": 46.094746, "lng": -64.75641, "ref_id": 2628619, "rating": 4, "num_reviews": 0, "website": "http://www.facebook.com/pages/Blue-Olive/102474483159160", "contact_phone": "+1 506-382-2888", "contact_email": "blueolive@live.ca", "status": 1, "source_type": 1, "numberReviews": 197}, {"name": "Sugar Roll", "type": "restaurant", "image": "https://dynamic-media-cdn.tripadvisor.com/media/photo-o/0d/68/bb/57/ta-img-20161024-130739.jpg?w=1000&s=1", "address": "1-299 Champlain St, Dieppe, New Brunswick E1A 1P2 Canada", "lat": 46.096275, "lng": -64.74461, "ref_id": 8773704, "rating": 4.5, "num_reviews": 0, "website": "https://www.facebook.com/Sugar-Roll-Japanese-Cuisine-1135211663173578", "contact_phone": "+1 506-386-7655", "contact_email": null, "status": 1, "source_type": 1, "numberReviews": 50}, {"name": "Maharaja", "type": "restaurant", "image": "https://dynamic-media-cdn.tripadvisor.com/media/photo-o/18/da/5e/cf/maharaja.jpg?w=1000&s=1", "address": "163 St-Laurent St Near Intersection of Champlain St and Acadie Ave, Dieppe, New Brunswick E1A 1S2 Canada", "lat": 46.09569, "lng": -64.7507, "ref_id": 8041593, "rating": 4.5, "num_reviews": 0, "website": "http://maharaja-indianrestaurant.com/", "contact_phone": "+1 506-870-8879", "contact_email": "maharajarestaurant@outlook.com", "status": 1, "source_type": 1, "numberReviews": 42}, {"name": "Acadia Pizza & Donair", "type": "restaurant", "image": "https://dynamic-media-cdn.tripadvisor.com/media/photo-o/1c/3a/cc/00/20201025-015823-largejpg.jpg?w=1000&s=1", "address": "498 Champlain St, Dieppe, New Brunswick E1A 1P4 Canada", "lat": 46.09789, "lng": -64.73444, "ref_id": 5110283, "rating": 5, "num_reviews": 0, "website": "http://www.facebook.com/KoreanrestaurantNB", "contact_phone": "+1 506-382-8444", "contact_email": null, "status": 1, "source_type": 1, "numberReviews": 37}, {"name": "Swiss Chalet", "type": "restaurant", "image": "https://dynamic-media-cdn.tripadvisor.com/media/photo-o/19/e7/94/07/swiss-chalet.jpg?w=1000&s=1", "address": "80 Champlain St, Dieppe, New Brunswick E1A 1N3 Canada", "lat": 46.09394, "lng": -64.75437, "ref_id": 981478, "rating": 4, "num_reviews": 0, "website": "https://www.swisschalet.com/en/locations/nb/dieppe/80-champlain-st", "contact_phone": "+1 506-859-8608", "contact_email": "swiss1277@cara.com", "status": 1, "source_type": 1, "numberReviews": 147}, {"name": "Mai Asian Restaurant Dieppe", "type": "restaurant", "image": "https://dynamic-media-cdn.tripadvisor.com/media/photo-o/0b/6a/6a/dc/vermicelli-bowl.jpg?w=1000&s=1", "address": "40 Champlain St Unit 18, Dieppe, New Brunswick E1A 1N3 Canada", "lat": 46.09327, "lng": -64.75746, "ref_id": 7975293, "rating": 4.5, "num_reviews": 0, "website": "http://www.mairestaurant.ca", "contact_phone": "+1 506-388-7501", "contact_email": null, "status": 1, "source_type": 1, "numberReviews": 42}, {"name": "St Louis Bar And Grill", "type": "restaurant", "image": "https://dynamic-media-cdn.tripadvisor.com/media/photo-o/1a/89/09/3e/st-louis-bar-and-grill.jpg?w=1000&s=1", "address": "500 Kennedy St, Dieppe, New Brunswick E1A 5Y7 Canada", "lat": 46.09881, "lng": -64.759605, "ref_id": 10522245, "rating": 4, "num_reviews": 0, "website": "http://www.stlouiswings.com/", "contact_phone": "+1 506-204-8407", "contact_email": null, "status": 1, "source_type": 1, "numberReviews": 93}, {"name": "Sports Rock Pub & Steak House", "type": "restaurant", "image": "https://dynamic-media-cdn.tripadvisor.com/media/photo-o/10/6c/e0/d4/photo0jpg.jpg?w=1000&s=1", "address": "451 Paul St 451 Paul St, Dieppe, New Brunswick, Dieppe, New Brunswick E1A 6W8 Canada", "lat": 46.094997, "lng": -64.756546, "ref_id": 981476, "rating": 4, "num_reviews": 0, "website": "http://www.sportsrockdieppe.com", "contact_phone": "+1 506-855-6960", "contact_email": "", "status": 1, "source_type": 1, "numberReviews": 150}, {"name": "Cafe Archibald", "type": "restaurant", "image": "https://dynamic-media-cdn.tripadvisor.com/media/photo-o/0c/34/cb/ea/photo0jpg.jpg?w=1000&s=1", "address": "216 Ch Gauvin, Dieppe, New Brunswick E1A 1M1 Canada", "lat": 46.0942, "lng": -64.74728, "ref_id": 3348326, "rating": 4, "num_reviews": 0, "website": "http://www.cafearchibald.com", "contact_phone": "+1 506-853-7974", "contact_email": null, "status": 1, "source_type": 1, "numberReviews": 67}, {"name": "Cora Breakfast & Lunch", "type": "restaurant", "image": "https://dynamic-media-cdn.tripadvisor.com/media/photo-s/04/c2/fd/0b/october-special.jpg?w=1000&s=1", "address": "1040 Champlain St, Dieppe, New Brunswick E1A 8L8 Canada", "lat": 46.10404, "lng": -64.70631, "ref_id": 3677175, "rating": 4, "num_reviews": 0, "website": "http://chezcora.com", "contact_phone": "+1 506-382-3030", "contact_email": "johannie_doiron@hotmail.com", "status": 1, "source_type": 1, "numberReviews": 52}, {"name": "Atelier Tony", "type": "restaurant", "image": "https://dynamic-media-cdn.tripadvisor.com/media/photo-o/1d/b7/4f/fd/wagyu-strip.jpg?w=1000&s=1", "address": "50 Rue du March\u00e9, Dieppe, New Brunswick E1A 9K2 Canada", "lat": 46.094944, "lng": -64.74591, "ref_id": 23465442, "rating": 4.5, "num_reviews": 0, "website": "http://www.ateliertony.ca", "contact_phone": "+1 506-384-4218", "contact_email": "ateliertonydieppe@gmail.com", "status": 1, "source_type": 1, "numberReviews": 12}, {"name": "Red Satay Dieppe Inc", "type": "restaurant", "image": "https://dynamic-media-cdn.tripadvisor.com/media/photo-o/0c/94/c9/65/coconut-curry.jpg?w=1000&s=1", "address": "790 Dieppe Blvd, Dieppe, New Brunswick E1A 9G5 Canada", "lat": 46.08458, "lng": -64.69472, "ref_id": 10697254, "rating": 4, "num_reviews": 0, "website": "http://redsataydieppe.ca", "contact_phone": "+1 506-854-8088", "contact_email": "redsataydieppe@gmail.com", "status": 1, "source_type": 1, "numberReviews": 37}, {"name": "Thanh's Palace", "type": "restaurant", "image": null, "address": "928 Champlain St, Dieppe, New Brunswick E1A 1P8 Canada", "lat": 46.10219, "lng": -64.71356, "ref_id": 1008987, "rating": 4, "num_reviews": 0, "website": "http://www.thanhspalace.com/", "contact_phone": "+1 506-855-2882", "contact_email": "", "status": 1, "source_type": 1, "numberReviews": 22}, {"name": "Empyrean Bar & Grill", "type": "restaurant", "image": null, "address": "40 Champlain St, Dieppe, New Brunswick E1A 1N3 Canada", "lat": 46.09327, "lng": -64.75746, "ref_id": 23529217, "rating": 5, "num_reviews": 0, "website": "http://www.empyreanbarandgrill.com", "contact_phone": "+1 506-855-3435", "contact_email": "info@empyreanbarandgrill.com", "status": 1, "source_type": 1, "numberReviews": 4}, {"name": "Boulangerie Tony", "type": "restaurant", "image": "https://dynamic-media-cdn.tripadvisor.com/media/photo-o/1d/b7/5e/1a/cruffins.jpg?w=1000&s=1", "address": "50 Rue du March\u00e9, Dieppe, New Brunswick E1A 9K2 Canada", "lat": 46.09482, "lng": -64.74582, "ref_id": 23465444, "rating": 5, "num_reviews": 0, "website": "http://boulangerietony.squarespace.com/", "contact_phone": "+1 506-388-2253", "contact_email": "boulangerietonydieppe@gmail.com", "status": 1, "source_type": 1, "numberReviews": 4}, {"name": "Norm's Pizza", "type": "restaurant", "image": "https://dynamic-media-cdn.tripadvisor.com/media/photo-o/18/40/d4/a5/photo0jpg.jpg?w=1000&s=1", "address": "4-438 Paul St, Dieppe, New Brunswick E1A 4Z2 Canada", "lat": 46.09542, "lng": -64.75584, "ref_id": 973740, "rating": 4, "num_reviews": 0, "website": "http://www.normspizza.ca/index_en.html", "contact_phone": "+1 506-859-8180", "contact_email": "", "status": 1, "source_type": 1, "numberReviews": 26}, {"name": "Freddie's Pizza and Donair", "type": "restaurant", "image": "https://dynamic-media-cdn.tripadvisor.com/media/photo-o/08/c1/a5/98/freddie-s-pizza-and-donair.jpg?w=1000&s=1", "address": "504 Champlain St, Dieppe, New Brunswick E1A 1P4 Canada", "lat": 46.0981, "lng": -64.73399, "ref_id": 8559318, "rating": 4, "num_reviews": 0, "website": "http://www.freddiespizzaanddonair.ca/", "contact_phone": "+1 506-383-5555", "contact_email": null, "status": 1, "source_type": 1, "numberReviews": 15}, {"name": "Pizza Delight", "type": "restaurant", "image": "https://dynamic-media-cdn.tripadvisor.com/media/photo-o/1b/57/13/15/image.jpg?w=1000&s=1", "address": "477 Paul Street, Dieppe, New Brunswick E1A 4X5 Canada", "lat": 46.097294, "lng": -64.75792, "ref_id": 973753, "rating": 3.5, "num_reviews": 0, "website": "http://www.pizzadelight.com/?utm_source=trpa&utm_medium=lpm&utm_campaign=mty", "contact_phone": "+1 506-854-5413", "contact_email": "contactus@pizzadelight.ca", "status": 1, "source_type": 1, "numberReviews": 36}, {"name": "Cafe La Lieto", "type": "restaurant", "image": "https://dynamic-media-cdn.tripadvisor.com/media/photo-o/11/35/43/a1/cafe-la-lieto.jpg?w=1000&s=1", "address": "200 Champlain St Suite 200, Dieppe, New Brunswick E1A 1P1 Canada", "lat": 46.09542, "lng": -64.74754, "ref_id": 8001411, "rating": 4.5, "num_reviews": 0, "website": "https://www.cafelalieto.net", "contact_phone": "+1 506-388-3872", "contact_email": "cafelalieto@bellaliant.com", "status": 1, "source_type": 1, "numberReviews": 11}, {"name": "K-Cupbop", "type": "restaurant", "image": "https://dynamic-media-cdn.tripadvisor.com/media/photo-o/1c/c6/46/ed/un-au-poulet-et-un-au.jpg?w=1000&s=1", "address": "504 Champlain St, Dieppe, New Brunswick E1A 1P4 Canada", "lat": 46.0981, "lng": -64.73399, "ref_id": 19674995, "rating": 5, "num_reviews": 0, "website": "http://k-cupbop.ca/?", "contact_phone": null, "contact_email": null, "status": 1, "source_type": 1, "numberReviews": 2}, {"name": "Harvey's", "type": "restaurant", "image": "https://dynamic-media-cdn.tripadvisor.com/media/photo-o/1c/24/a1/a6/harvey-sdieppe4.jpg?w=1000&s=1", "address": "80 Champlain St., Dieppe, New Brunswick E1A 1N3 Canada", "lat": 46.093945, "lng": -64.75434, "ref_id": 12347966, "rating": 4, "num_reviews": 0, "website": "https://www.harveys.ca/en/locations/nb/dieppe/80-champlain-st.", "contact_phone": "+1 506-859-8608", "contact_email": null, "status": 1, "source_type": 1, "numberReviews": 7}, {"name": "Pita Pit", "type": "restaurant", "image": null, "address": "330 Dieppe Blvd, Dieppe, New Brunswick E1A 8A3 Canada", "lat": 46.104523, "lng": -64.70685, "ref_id": 15036095, "rating": 5, "num_reviews": 0, "website": "https://pitapit.ca/locations/dieppe-dieppe-blvd?y_source=1_MTMwNzgzNjktNzY5LWxvY2F0aW9uLndlYnNpdGU%3D", "contact_phone": "+1 506-855-7482", "contact_email": "CA209@mypitapit.ca", "status": 1, "source_type": 1, "numberReviews": 2}, {"name": "Cr\u00e8merie Amiro Dairy Bar", "type": "restaurant", "image": "https://dynamic-media-cdn.tripadvisor.com/media/photo-o/18/87/e2/7b/cremerie-amiro-dairy.jpg?w=1000&s=1", "address": "1788 Amirault St, Dieppe, New Brunswick E1A 7J8 Canada", "lat": 46.062126, "lng": -64.70383, "ref_id": 17636038, "rating": 5, "num_reviews": 0, "website": null, "contact_phone": "+1 506-852-4496", "contact_email": null, "status": 1, "source_type": 1, "numberReviews": 2}, {"name": "Avatar Food Truck", "type": "restaurant", "image": null, "address": "Dieppe, New Brunswick Canada", "lat": null, "lng": null, "ref_id": 17449188, "rating": 5, "num_reviews": 0, "website": null, "contact_phone": null, "contact_email": null, "status": 1, "source_type": 1, "numberReviews": 1}, {"name": "Mucho Burrito Fresh Mexican Grill", "type": "restaurant", "image": null, "address": "525 Rue Regis, Dieppe, New Brunswick E1A 1Y2 Canada", "lat": 46.0986, "lng": -64.75667, "ref_id": 27190759, "rating": 5, "num_reviews": 0, "website": "https://locations.muchoburrito.com/en-ca/nbc/dieppe/mb0219", "contact_phone": "+1 506-830-6919", "contact_email": null, "status": 1, "source_type": 1, "numberReviews": 1}, {"name": "Ole Hibachi", "type": "restaurant", "image": "https://dynamic-media-cdn.tripadvisor.com/media/photo-o/27/89/db/de/ole-hibachi.jpg?w=1000&s=1", "address": "790 Dieppe Blvd, Dieppe, New Brunswick Canada", "lat": 46.09434, "lng": -64.693146, "ref_id": 25151790, "rating": 4, "num_reviews": 0, "website": null, "contact_phone": "+1 506-204-5777", "contact_email": null, "status": 1, "source_type": 1, "numberReviews": 6}, {"name": "Won Wong Restaurant", "type": "restaurant", "image": "https://dynamic-media-cdn.tripadvisor.com/media/photo-o/06/bb/1e/0e/won-wing-take-out.jpg?w=1000&s=1", "address": "332 Champlain St, Dieppe, New Brunswick E1A 1P3 Canada", "lat": 46.09654, "lng": -64.74218, "ref_id": 981487, "rating": 3.5, "num_reviews": 0, "website": "https://www.facebook.com/Won-Wong-Restaurant-130014663699863/", "contact_phone": "+1 506-855-3333", "contact_email": "", "status": 1, "source_type": 1, "numberReviews": 44}, {"name": "Teriyaki Experience", "type": "restaurant", "image": "https://dynamic-media-cdn.tripadvisor.com/media/photo-o/24/16/7b/e6/caption.jpg?w=1000&s=1", "address": "477 Paul St Champlain Place, Dieppe, New Brunswick E1A 4X5 Canada", "lat": 46.0958, "lng": -64.76007, "ref_id": 11909975, "rating": 4, "num_reviews": 0, "website": "http://www.teriyakiexperience.com/locations/champlain-place/", "contact_phone": "+1 506-855-4476", "contact_email": null, "status": 1, "source_type": 1, "numberReviews": 2}, {"name": "TCBY Yogurt", "type": "restaurant", "image": null, "address": "121 Rte 550 Kojax Hartford, Hartford, New Brunswick E7M 5H8 Canada", "lat": 46.17285, "lng": -67.6111, "ref_id": 23595352, "rating": -1, "num_reviews": 0, "website": "https://tcbycanada.com/trouvez-une-tcby/?utm_source=trpa&utm_medium=lpm&utm_campaign=mty", "contact_phone": "+1 506-325-3345", "contact_email": null, "status": 1, "source_type": 1, "numberReviews": 0}, {"name": "Poissonnerie Du Creek", "type": "restaurant", "image": null, "address": "11314 Hwy-11, Inkerman, New Brunswick E8P 1J8 Canada", "lat": 47.667347, "lng": -64.8762, "ref_id": 27241533, "rating": -1, "num_reviews": 0, "website": "https://www.facebook.com/351672638851263", "contact_phone": "+1 506-727-3387", "contact_email": null, "status": 1, "source_type": 1, "numberReviews": 0}, {"name": "Chez Raymond", "type": "restaurant", "image": "https://dynamic-media-cdn.tripadvisor.com/media/photo-o/14/ec/aa/79/20181003-112515-largejpg.jpg?w=1000&s=1", "address": "486 Principale St, Neguac, New Brunswick E9G 1N1 Canada", "lat": 47.24021, "lng": -65.09376, "ref_id": 4853875, "rating": 4.5, "num_reviews": 0, "website": "http://chezraymond.ca/", "contact_phone": "+1 506-776-9000", "contact_email": null, "status": 1, "source_type": 1, "numberReviews": 34}, {"name": "Pub 981", "type": "restaurant", "image": "https://dynamic-media-cdn.tripadvisor.com/media/photo-o/29/b4/7a/2f/caption.jpg?w=1000&s=1", "address": "981 Principale St, Neguac, New Brunswick E9G 1S5 Canada", "lat": 47.255337, "lng": -65.071655, "ref_id": 4852597, "rating": 4.5, "num_reviews": 0, "website": "http://www.pub981.com", "contact_phone": "+1 506-776-8981", "contact_email": "pub981@gmail.com", "status": 1, "source_type": 1, "numberReviews": 21}, {"name": "La Bonne Route 1993 Inc", "type": "restaurant", "image": null, "address": "6 Route 450, Neguac, New Brunswick E9G 2R4 Canada", "lat": 47.2558, "lng": -65.11026, "ref_id": 10293075, "rating": 4.5, "num_reviews": 0, "website": null, "contact_phone": "+1 506-776-5833", "contact_email": null, "status": 1, "source_type": 1, "numberReviews": 5}, {"name": "Coco Rest Eau", "type": "restaurant", "image": "https://dynamic-media-cdn.tripadvisor.com/media/photo-o/1c/55/7d/4c/labestpoutineever.jpg?w=1000&s=1", "address": "1387 Principale St, Neguac, New Brunswick E9G 1T5 Canada", "lat": 47.27015, "lng": -65.056335, "ref_id": 21085981, "rating": 5, "num_reviews": 0, "website": "http://www.cocoresteau.com", "contact_phone": "+1 506-888-9394", "contact_email": "cocoresteau@gmail.com", "status": 1, "source_type": 1, "numberReviews": 2}, {"name": "Tim Hortons", "type": "restaurant", "image": null, "address": "774 Principale Street, Neguac, New Brunswick E9G 1N5 Canada", "lat": 47.24679, "lng": -65.07822, "ref_id": 15260560, "rating": 4.5, "num_reviews": 0, "website": "https://locations.timhortons.ca/nb/neguac/774-principale-street", "contact_phone": "+1 506-776-9092", "contact_email": "TimHortons101631@timzone.com", "status": 1, "source_type": 1, "numberReviews": 2}, {"name": "Brookside", "type": "restaurant", "image": "https://dynamic-media-cdn.tripadvisor.com/media/photo-o/25/4e/c8/1f/brookside.jpg?w=1000&s=1", "address": "Neguac, Nb 1434 Principale St, Neguac, New Brunswick E9G 1P4 Canada", "lat": 47.271454, "lng": -65.05387, "ref_id": 24904136, "rating": 5, "num_reviews": 0, "website": "https://m.facebook.com/people/brookside/100039029723481/", "contact_phone": "+1 506-776-8383", "contact_email": null, "status": 1, "source_type": 1, "numberReviews": 1}, {"name": "Greco Pizza", "type": "restaurant", "image": "https://dynamic-media-cdn.tripadvisor.com/media/photo-o/18/00/4b/d3/greco-pizza.jpg?w=1000&s=1", "address": "895 Principale St, Neguac, New Brunswick E9G 1S4 Canada", "lat": 47.251904, "lng": -65.074326, "ref_id": 4852266, "rating": 4.5, "num_reviews": 0, "website": "http://www.greco.ca/", "contact_phone": "+1 506-310-3030", "contact_email": null, "status": 1, "source_type": 1, "numberReviews": 2}, {"name": "Neguac Freshmart", "type": "restaurant", "image": null, "address": "1454 Principale St, Neguac, New Brunswick E9G 1P4 Canada", "lat": 47.272263, "lng": -65.05315, "ref_id": 27190473, "rating": -1, "num_reviews": 0, "website": "https://www.facebook.com/1567194113548329", "contact_phone": "+1 506-776-8230", "contact_email": null, "status": 1, "source_type": 1, "numberReviews": 0}, {"name": "Dixie Lee", "type": "restaurant", "image": null, "address": "930 Rue Principale, Neguac, New Brunswick E9G 1N7 Canada", "lat": 47.253056, "lng": -65.07277, "ref_id": 27236063, "rating": -1, "num_reviews": 0, "website": "http://www.dixieleechicken.com", "contact_phone": "+1 506-776-8000", "contact_email": null, "status": 1, "source_type": 1, "numberReviews": 0}, {"name": "Subway", "type": "restaurant", "image": null, "address": "644 Rue Principale, Neguac, New Brunswick Canada", "lat": 47.243656, "lng": -65.08389, "ref_id": 27278144, "rating": -1, "num_reviews": 0, "website": "https://restaurants.subway.com/canada/nb/neguac-nb/644-rue-principale?utm_source=yxt-bing&utm_medium=local&utm_term=acq&utm_content=61175&utm_campaign=evergreen-2020&y_source=1_mtq5mtkzmjktndgzlwxvy2f0aw9ulndlynnpdgu%3d", "contact_phone": "+1 506-776-8555", "contact_email": null, "status": 1, "source_type": 1, "numberReviews": 0}, {"name": "LeBlanc", "type": "restaurant", "image": "https://dynamic-media-cdn.tripadvisor.com/media/photo-o/1c/e2/80/d0/leblanc.jpg?w=1000&s=1", "address": "583 Centrale St, Memramcook, New Brunswick E4K 3R5 Canada", "lat": 45.97458, "lng": -64.56524, "ref_id": 8625365, "rating": 4.5, "num_reviews": 0, "website": null, "contact_phone": "+1 506-758-2554", "contact_email": null, "status": 1, "source_type": 1, "numberReviews": 30}, {"name": "Wood Chef Bakery Boulangerie Pain Du College", "type": "restaurant", "image": "https://dynamic-media-cdn.tripadvisor.com/media/photo-o/11/c0/27/bc/crimped-bread-and-much.jpg?w=1000&s=1", "address": "731 Ch Royal, Memramcook, New Brunswick E4K 3V7 Canada", "lat": 45.99639, "lng": -64.54755, "ref_id": 10449213, "rating": 5, "num_reviews": 0, "website": "https://www.facebook.com/Wood-Chef-Bakery-Boulangerie-Pain-du-Coll%C3%A8ge-739962776043144/", "contact_phone": null, "contact_email": null, "status": 1, "source_type": 1, "numberReviews": 4}, {"name": "China Place Restaurant", "type": "restaurant", "image": null, "address": "278 rte La Vall\u00e9e, Memramcook, New Brunswick E4K 3E3 Canada", "lat": 46.001827, "lng": -64.58174, "ref_id": 10274726, "rating": 4.5, "num_reviews": 0, "website": "http://www.chinaplace.ca/", "contact_phone": "+1 506-758-2885", "contact_email": null, "status": 1, "source_type": 1, "numberReviews": 6}, {"name": "Islandview Smoker and BBQ Supplies", "type": "restaurant", "image": null, "address": "5 Hemmingway Ln, Riverview, New Brunswick E1B 0C4 Canada", "lat": 46.04218, "lng": -64.77952, "ref_id": 27192422, "rating": -1, "num_reviews": 0, "website": "http://www.islandviewbbqsupplies.ca", "contact_phone": "+1 506-878-2560", "contact_email": null, "status": 1, "source_type": 1, "numberReviews": 0}, {"name": "Subway", "type": "restaurant", "image": null, "address": "630 Pinewood Rd, Riverview, New Brunswick E1B 5M7 Canada", "lat": 46.05255, "lng": -64.790886, "ref_id": 27256046, "rating": -1, "num_reviews": 0, "website": "https://restaurants.subway.com/canada/nb/riverview/630-pinewood-rd?utm_source=yxt-bing&utm_medium=local&utm_term=acq&utm_content=28868&utm_campaign=evergreen-2020&y_source=1_mtq5mtk2mditndgzlwxvy2f0aw9ulndlynnpdgu%3d", "contact_phone": "+1 506-855-2455", "contact_email": null, "status": 1, "source_type": 1, "numberReviews": 0}, {"name": "Wize Guyz Pub 2002", "type": "restaurant", "image": null, "address": "710 Coverdale Rd, Riverview, New Brunswick E1B 3L1 Canada", "lat": 46.06118, "lng": -64.81481, "ref_id": 27236336, "rating": -1, "num_reviews": 0, "website": "https://www.facebook.com/377686635635434", "contact_phone": "+1 506-386-8682", "contact_email": null, "status": 1, "source_type": 1, "numberReviews": 0}, {"name": "Riverview Atlantic Superstore", "type": "restaurant", "image": null, "address": "429 Coverdale Rd, Riverview, New Brunswick E1B 3K3 Canada", "lat": 46.06538, "lng": -64.80152, "ref_id": 27236353, "rating": -1, "num_reviews": 0, "website": "https://www.facebook.com/1754114864839651", "contact_phone": "+1 506-387-5992", "contact_email": null, "status": 1, "source_type": 1, "numberReviews": 0}, {"name": "Read's Newsstand And Cafe", "type": "restaurant", "image": null, "address": "620 Coverdale Rd, Riverview, New Brunswick E1B 3K6 Canada", "lat": 46.06222, "lng": -64.81058, "ref_id": 27255938, "rating": -1, "num_reviews": 0, "website": "https://www.facebook.com/147796465253039", "contact_phone": "+1 506-382-1823", "contact_email": null, "status": 1, "source_type": 1, "numberReviews": 0}, {"name": "Le Grand Saut Ristorante Home Of The Little Pizza House", "type": "restaurant", "image": "https://dynamic-media-cdn.tripadvisor.com/media/photo-o/1c/1b/a8/a9/le-grand-saut-ristorante.jpg?w=1000&s=1", "address": "155 Broadway Blvd, Grand Falls, New Brunswick E3Z 2J8 Canada", "lat": 47.04847, "lng": -67.73826, "ref_id": 763916, "rating": 4.5, "num_reviews": 0, "website": "http://www.legrandsautristorante.com/en/home.php", "contact_phone": "+1 506-473-3876", "contact_email": "info@legrandsautristorante.com", "status": 1, "source_type": 1, "numberReviews": 257}, {"name": "Pizza Boy", "type": "restaurant", "image": "https://dynamic-media-cdn.tripadvisor.com/media/photo-o/0b/fb/70/d2/un-ottima-porzione-di.jpg?w=1000&s=1", "address": "80 Chemin Tobique, Grand Falls, New Brunswick E3Y 1B9 Canada", "lat": 47.05121, "lng": -67.7321, "ref_id": 981469, "rating": 4, "num_reviews": 0, "website": "http://www.pizza-boy.ca", "contact_phone": "+1 506-473-3713", "contact_email": "", "status": 1, "source_type": 1, "numberReviews": 61}, {"name": "Hill Top Motel", "type": "restaurant", "image": "https://dynamic-media-cdn.tripadvisor.com/media/photo-o/19/70/fd/b1/20190929-185402-largejpg.jpg?w=1000&s=1", "address": "131 Ch Madawaska Grand Falls, NB, Grand Falls, New Brunswick E3Y 1A7 Canada", "lat": 47.052593, "lng": -67.74157, "ref_id": 763914, "rating": 4, "num_reviews": 0, "website": "http://www.hilltopgrandfalls.ca/", "contact_phone": "+1 506-473-2684", "contact_email": "reservations@hilltopmotel.ca", "status": 1, "source_type": 1, "numberReviews": 51}, {"name": "Pizza Delight", "type": "restaurant", "image": "https://dynamic-media-cdn.tripadvisor.com/media/photo-o/19/66/28/29/pizza-delight.jpg?w=1000&s=1", "address": "462 Ch Madawaska, Grand Falls, New Brunswick E3Y 1A3 Canada", "lat": 47.05867, "lng": -67.75219, "ref_id": 973754, "rating": 4, "num_reviews": 0, "website": "http://www.pizzadelight.com/?utm_source=trpa&utm_medium=lpm&utm_campaign=mty", "contact_phone": "+1 506-473-3030", "contact_email": "contactus@pizzadelight.ca", "status": 1, "source_type": 1, "numberReviews": 54}, {"name": "Hilltop Restaurant", "type": "restaurant", "image": "https://dynamic-media-cdn.tripadvisor.com/media/photo-o/2b/3b/a7/a6/hilltop-breakfast-has.jpg?w=1000&s=1", "address": "131 Madawaska Rd, Grand Falls, New Brunswick E3Y 1A7 Canada", "lat": 47.052353, "lng": -67.74197, "ref_id": 25334002, "rating": 4.5, "num_reviews": 0, "website": "www.hilltoprestaurant.ca", "contact_phone": "+1 506-473-5200", "contact_email": null, "status": 1, "source_type": 1, "numberReviews": 9}, {"name": "Tresor et Delices", "type": "restaurant", "image": "https://dynamic-media-cdn.tripadvisor.com/media/photo-o/0d/a2/43/cd/tresor-et-delices.jpg?w=1000&s=1", "address": "264 Broadway Blvd, Grand Falls, New Brunswick E3Z 2K2 Canada", "lat": 47.04786, "lng": -67.74123, "ref_id": 9867989, "rating": 4.5, "num_reviews": 0, "website": "http://www.tresorsdelices.com/index.html", "contact_phone": "+1 506-473-1633", "contact_email": null, "status": 1, "source_type": 1, "numberReviews": 12}, {"name": "Kat 'n' Dan's Pub & Restaurant", "type": "restaurant", "image": null, "address": "180 Ch Madawaska, Grand Falls, New Brunswick E3Y 1A7 Canada", "lat": 47.05513, "lng": -67.7435, "ref_id": 16135208, "rating": 4.5, "num_reviews": 0, "website": "https://www.facebook.com/238806882886469", "contact_phone": "+1 506-473-6399", "contact_email": null, "status": 1, "source_type": 1, "numberReviews": 4}, {"name": "Buffet King", "type": "restaurant", "image": null, "address": "238 Chemin Madawaska, Grand Falls, New Brunswick E3Y 1A4 Canada", "lat": 47.05452, "lng": -67.74515, "ref_id": 5103666, "rating": 4, "num_reviews": 0, "website": "http://kingbuffetsa.com", "contact_phone": "+1 506-473-3222", "contact_email": null, "status": 1, "source_type": 1, "numberReviews": 7}, {"name": "Sandy's Place", "type": "restaurant", "image": null, "address": "515 Chem Madawaska, Grand Falls, New Brunswick E3y 1a3 Canada", "lat": 46.709736, "lng": -66.12854, "ref_id": 26370139, "rating": 5, "num_reviews": 0, "website": null, "contact_phone": "+1 506-473-6676", "contact_email": null, "status": 1, "source_type": 1, "numberReviews": 2}, {"name": "Tim Hortons", "type": "restaurant", "image": null, "address": "200 Ouellette Street, Grand Falls, New Brunswick E3Z 1A6 Canada", "lat": 47.04446, "lng": -67.76969, "ref_id": 15262150, "rating": 4, "num_reviews": 0, "website": "https://locations.timhortons.ca/nb/grand-falls/200-ouellette-street", "contact_phone": "+1 506-475-9864", "contact_email": "timhortons108384@timzone.com", "status": 1, "source_type": 1, "numberReviews": 5}, {"name": "The Mini Moose", "type": "restaurant", "image": null, "address": "165 Broadway Blvd, Grand Falls, New Brunswick E3Z 2J8 Canada", "lat": 47.04833, "lng": -67.73855, "ref_id": 23277782, "rating": 5, "num_reviews": 0, "website": "http://www.theminimoose.ca", "contact_phone": "+1 506-473-3678", "contact_email": null, "status": 1, "source_type": 1, "numberReviews": 1}, {"name": "Grand Falls Brewing Co", "type": "restaurant", "image": "https://dynamic-media-cdn.tripadvisor.com/media/photo-o/2a/99/ce/b1/caption.jpg?w=1000&s=1", "address": "651 Rue Main Street, Grand Falls, New Brunswick E3Z 2W6 Canada", "lat": 47.054115, "lng": -67.76078, "ref_id": 26767102, "rating": 4, "num_reviews": 0, "website": "https://www.facebook.com/grandfallsbrewingco", "contact_phone": "+1 506-473-4322", "contact_email": null, "status": 1, "source_type": 1, "numberReviews": 1}, {"name": "Four Seasons", "type": "restaurant", "image": null, "address": "Broadway, Grand Falls, New Brunswick Canada", "lat": 47.049576, "lng": -67.737045, "ref_id": 23178972, "rating": 4, "num_reviews": 0, "website": null, "contact_phone": null, "contact_email": null, "status": 1, "source_type": 1, "numberReviews": 1}, {"name": "Tim Hortons", "type": "restaurant", "image": null, "address": "452 Madawaska Rd, Grand Falls, New Brunswick E3Y 1A3 Canada", "lat": 47.05865, "lng": -67.751595, "ref_id": 15814268, "rating": 4, "num_reviews": 0, "website": "https://www.facebook.com/264080860709612", "contact_phone": "+1 506-473-1225", "contact_email": "TimHortons102731@timzone.com", "status": 1, "source_type": 1, "numberReviews": 1}, {"name": "Subway", "type": "restaurant", "image": null, "address": "423 Madawaska Road, Grand Falls, New Brunswick E3Y 1A3 Canada", "lat": 47.057346, "lng": -67.75168, "ref_id": 20125073, "rating": 3, "num_reviews": 0, "website": "https://restaurants.subway.com/canada/nb/grand-falls/423-madawaska-road?utm_source=yext-other&utm_medium=local&utm_term=acq&utm_content=50752&utm_campaign=evergreen-2020&y_source=1_mtq5mja1mjitnzy5lwxvy2f0aw9ulndlynnpdgu%3d", "contact_phone": "+1 506-473-9096", "contact_email": null, "status": 1, "source_type": 1, "numberReviews": 1}, {"name": "Irving Oil (Big Stop Restaurant, Grand Falls)", "type": "restaurant", "image": "https://dynamic-media-cdn.tripadvisor.com/media/photo-o/0a/91/ad/5a/screenshot-2016-03-11.jpg?w=1000&s=1", "address": "121 Route 255, Grand Falls, New Brunswick E3Y 3N5 Canada", "lat": 47.033047, "lng": -67.76951, "ref_id": 2254825, "rating": 3, "num_reviews": 0, "website": "http://www.irvingoil.com/en-CA/grand-falls-big-stop", "contact_phone": "+1 506-475-7806", "contact_email": "", "status": 1, "source_type": 1, "numberReviews": 88}, {"name": "KFC", "type": "restaurant", "image": null, "address": "180 Ch Madawaska, Grand Falls, New Brunswick E3Y 1A7 Canada", "lat": 47.05897, "lng": -67.755424, "ref_id": 973701, "rating": 2, "num_reviews": 0, "website": "http://www.kfc.ca/menu/for-sharing?utm_source=Google&utm_medium=LocalSearch", "contact_phone": "+1 506-473-5177", "contact_email": "", "status": 1, "source_type": 1, "numberReviews": 6}, {"name": "Bullpen Steakshoue", "type": "restaurant", "image": null, "address": "499 Rue Mccormick, Grand Falls, New Brunswick E3Y 3Z8 Canada", "lat": 47.04609, "lng": -67.74179, "ref_id": 28002046, "rating": -1, "num_reviews": 0, "website": null, "contact_phone": null, "contact_email": null, "status": 1, "source_type": 1, "numberReviews": 0}, {"name": "Foodland - Grand Falls", "type": "restaurant", "image": null, "address": "535 Everard H Daigle Blvd, Grand Falls, New Brunswick E3Z 2R7 Canada", "lat": 47.046192, "lng": -67.750854, "ref_id": 27270576, "rating": -1, "num_reviews": 0, "website": "https://foodland.ca/stores/foodland-grand-falls", "contact_phone": "+1 506-473-5604", "contact_email": null, "status": 1, "source_type": 1, "numberReviews": 0}, {"name": "Linda's Kitchen", "type": "restaurant", "image": null, "address": "400 Broadway 7, Grand Falls, New Brunswick Canada", "lat": 47.046116, "lng": -67.74404, "ref_id": 25681269, "rating": -1, "num_reviews": 0, "website": "https://www.facebook.com/lindas.kitchen.400broadway", "contact_phone": "+1 506-473-4000", "contact_email": "glazerlinda@gmail.com", "status": 1, "source_type": 1, "numberReviews": 0}, {"name": "Subway", "type": "restaurant", "image": null, "address": "218 Broadway Blvd, Grand Falls, New Brunswick E3Z 2J9 Canada", "lat": 47.048313, "lng": -67.73983, "ref_id": 27238529, "rating": -1, "num_reviews": 0, "website": "http://www.subway.com/", "contact_phone": "+1 506-473-1677", "contact_email": null, "status": 1, "source_type": 1, "numberReviews": 0}, {"name": "Kozy Restro", "type": "restaurant", "image": null, "address": "117 Broadway Blvd, Grand Falls, New Brunswick E3Z 2J6 Canada", "lat": 47.048798, "lng": -67.73732, "ref_id": 27279750, "rating": -1, "num_reviews": 0, "website": "https://www.facebook.com/325057274222541", "contact_phone": "+1 506-473-1521", "contact_email": null, "status": 1, "source_type": 1, "numberReviews": 0}, {"name": "Frozu", "type": "restaurant", "image": null, "address": "77 Bd Broadway Grand-sault, Grand Falls, New Brunswick E3Z 2J6 Canada", "lat": 47.049377, "lng": -67.74518, "ref_id": 18927635, "rating": -1, "num_reviews": 0, "website": "http://frozu.ca/photos/", "contact_phone": "+1 506-473-6666", "contact_email": null, "status": 1, "source_type": 1, "numberReviews": 0}, {"name": "The Porch at Friar\u2019s Bay", "type": "restaurant", "image": "https://dynamic-media-cdn.tripadvisor.com/media/photo-o/25/2b/ec/31/caption.jpg?w=1000&s=1", "address": "724 Route 774, Welshpool, New Brunswick E5E 1A6 Canada", "lat": 44.884426, "lng": -66.950485, "ref_id": 17375821, "rating": 4.5, "num_reviews": 0, "website": null, "contact_phone": "+1 506-752-2649", "contact_email": "CampobelloEats@gmail.com", "status": 1, "source_type": 1, "numberReviews": 53}, {"name": "The Pier Waterfront", "type": "restaurant", "image": "https://dynamic-media-cdn.tripadvisor.com/media/photo-o/1b/96/31/59/20200719-131418-largejpg.jpg?w=1000&s=1", "address": "6 Pollock Cove Rd, New Brunswick E5E 1K3 Canada", "lat": 44.93518, "lng": -66.93694, "ref_id": 14066127, "rating": 4, "num_reviews": 0, "website": "http://www.facebook.com/thepierwaterfront", "contact_phone": "+1 506-752-2200", "contact_email": "thepiercottages@gmail.com", "status": 1, "source_type": 1, "numberReviews": 96}, {"name": "The Prince Caf\u00e9", "type": "restaurant", "image": "https://dynamic-media-cdn.tripadvisor.com/media/photo-o/18/39/82/29/photo7jpg.jpg?w=1000&s=1", "address": "459 Route 774, Welshpool, New Brunswick E5E 1A4 Canada", "lat": 44.875603, "lng": -66.96125, "ref_id": 14165403, "rating": 4, "num_reviews": 0, "website": "http://www.fdr.net", "contact_phone": "+1 506-752-2922", "contact_email": "info@fdr.net", "status": 1, "source_type": 1, "numberReviews": 42}, {"name": "Paysan Lounge", "type": "restaurant", "image": "https://dynamic-media-cdn.tripadvisor.com/media/photo-o/1c/6b/49/8f/outside.jpg?w=1000&s=1", "address": "4520 Principale St, Saint-Antoine, New Brunswick E4V 1R1 Canada", "lat": 46.36182, "lng": -64.75153, "ref_id": 13563380, "rating": 5, "num_reviews": 0, "website": "https://www.facebook.com/Paysan-Lounge-1170867979595666/", "contact_phone": "+1 506-525-2464", "contact_email": null, "status": 1, "source_type": 1, "numberReviews": 5}, {"name": "St Antoine Dairy Bar", "type": "restaurant", "image": null, "address": "4627 Principale St, Saint-Antoine, New Brunswick E4V 1P8 Canada", "lat": 46.36935, "lng": -64.75837, "ref_id": 12874738, "rating": 4.5, "num_reviews": 0, "website": "https://www.facebook.com/pages/St-Antoine-Dairy-Bar/137259572953309", "contact_phone": "+1 506-525-2694", "contact_email": null, "status": 1, "source_type": 1, "numberReviews": 3}, {"name": "Restaurant du Village", "type": "restaurant", "image": "https://dynamic-media-cdn.tripadvisor.com/media/photo-o/19/d0/ac/cd/fabulous-restaurant.jpg?w=1000&s=1", "address": "4524 Principale St, Saint-Antoine, New Brunswick E4V 1R1 Canada", "lat": 46.36188, "lng": -64.75194, "ref_id": 19000409, "rating": 4.5, "num_reviews": 0, "website": "http://www.facebook.com/pages/Restaurant-du-village-de-saint-antoine/254041084728367?rf=517559721925577", "contact_phone": "+1 506-525-2622", "contact_email": null, "status": 1, "source_type": 1, "numberReviews": 2}, {"name": "Anthony\u2019s Pizza", "type": "restaurant", "image": null, "address": "4590,Unit1, Rue Principale, Saint-Antoine, New Brunswick Canada", "lat": 46.366745, "lng": -64.75611, "ref_id": 25442339, "rating": -1, "num_reviews": 0, "website": null, "contact_phone": "+1 506-525-2233", "contact_email": null, "status": 1, "source_type": 1, "numberReviews": 0}, {"name": "Tim Hortons", "type": "restaurant", "image": null, "address": "4584 Main St. Unit#1, Saint-Antoine, New Brunswick E0A 2X0 Canada", "lat": 46.365597, "lng": -64.755875, "ref_id": 15260374, "rating": -1, "num_reviews": 0, "website": "https://locations.timhortons.ca/nb/saint-antoine/4584-main-st.-unit-1", "contact_phone": "+1 506-525-9546", "contact_email": "TimHortons101034@timzone.com", "status": 1, "source_type": 1, "numberReviews": 0}, {"name": "Cormier Meat Market Ltd", "type": "restaurant", "image": null, "address": "4624 Rue Principale, Saint-Antoine, New Brunswick Canada", "lat": 46.36913, "lng": -64.75882, "ref_id": 27190685, "rating": -1, "num_reviews": 0, "website": "http://www.cormiermeat.ca", "contact_phone": "+1 506-525-2427", "contact_email": null, "status": 1, "source_type": 1, "numberReviews": 0}, {"name": "Le Up'n Down Resto Bar", "type": "restaurant", "image": "https://dynamic-media-cdn.tripadvisor.com/media/photo-o/0b/72/65/ef/chicken-burger-fries.jpg?w=1000&s=1", "address": "3427 Principale St, Tracadie-Sheila, New Brunswick E1X 1C8 Canada", "lat": 47.52095, "lng": -64.91136, "ref_id": 6952404, "rating": 4, "num_reviews": 0, "website": "http://www.facebook.com/pages/Le-Upn-Down-Resto-Bar/155854527926628", "contact_phone": "+1 506-600-3698", "contact_email": null, "status": 1, "source_type": 1, "numberReviews": 66}, {"name": "Tazza Caffe", "type": "restaurant", "image": "https://dynamic-media-cdn.tripadvisor.com/media/photo-s/02/ab/ad/f9/filename-tazza-caffe.jpg?w=1000&s=1", "address": "3323 De la Rive St, Tracadie-Sheila, New Brunswick E1X 1A4 Canada", "lat": 47.52442, "lng": -64.91129, "ref_id": 1580383, "rating": 4.5, "num_reviews": 0, "website": "https://www.tazzacaffe.ca/", "contact_phone": "+1 506-393-3456", "contact_email": "", "status": 1, "source_type": 1, "numberReviews": 28}, {"name": "L'Entracte Resto Pub", "type": "restaurant", "image": "https://dynamic-media-cdn.tripadvisor.com/media/photo-o/10/35/c6/3a/img-20170809-wa0010-largejpg.jpg?w=1000&s=1", "address": "3394 Principale St, Tracadie-Sheila, New Brunswick E1X 1C8 Canada", "lat": 47.5222, "lng": -64.90992, "ref_id": 10533561, "rating": 4, "num_reviews": 0, "website": "https://www.facebook.com/pages/category/Bar---Grill/LEntracte-Resto-Pub-411834868834885/", "contact_phone": "+1 506-395-9827", "contact_email": "restopublentracte@gmail.com", "status": 1, "source_type": 1, "numberReviews": 30}, {"name": "Capitaine Frank Restaurant", "type": "restaurant", "image": "https://dynamic-media-cdn.tripadvisor.com/media/photo-o/04/ac/e5/02/capitaine-frank-restaurant.jpg?w=1000&s=1", "address": "3377 Dr. Victor Leblanc Blvd, Tracadie-Sheila, New Brunswick E1X 1A4 Canada", "lat": 47.52231, "lng": -64.913246, "ref_id": 4991114, "rating": 4, "num_reviews": 0, "website": "http://www.facebook.com/capitainefrank", "contact_phone": "+1 506-395-7001", "contact_email": null, "status": 1, "source_type": 1, "numberReviews": 64}, {"name": "Maison de la Fondue", "type": "restaurant", "image": "", "address": "3613 rue Luce, Tracadie-Sheila, New Brunswick E1X 1B4 Canada", "lat": 47.51185, "lng": -64.91067, "ref_id": 706528, "rating": 4, "num_reviews": 0, "website": "https://www.facebook.com/MaisondelaFondueTracadieSheila/", "contact_phone": "+1 506-393-1100", "contact_email": "lafondue@nbnet.nb.ca", "status": 1, "source_type": 1, "numberReviews": 36}, {"name": "Dixie Lee Tracadie", "type": "restaurant", "image": "https://dynamic-media-cdn.tripadvisor.com/media/photo-o/08/f9/d3/d2/dixie-lee-take-out.jpg?w=1000&s=1", "address": "3446 rue Principale, Tracadie-Sheila, New Brunswick E1X 1C8 Canada", "lat": 47.51961, "lng": -64.910385, "ref_id": 764238, "rating": 4, "num_reviews": 0, "website": "http://www.facebook.com/Dixie-Lee-Tracadie-253241694705790", "contact_phone": "+1 506-395-2959", "contact_email": "dixielee@restomax-nb.ca", "status": 1, "source_type": 1, "numberReviews": 17}, {"name": "Pizza Delight", "type": "restaurant", "image": "https://dynamic-media-cdn.tripadvisor.com/media/photo-o/1b/2c/9b/42/image.jpg?w=1000&s=1", "address": "3410 Rue Principale, Tracadie-Sheila, New Brunswick E1X 1C8 Canada", "lat": 47.52149, "lng": -64.90971, "ref_id": 796104, "rating": 4, "num_reviews": 0, "website": "http://www.pizzadelight.com/?utm_source=trpa&utm_medium=lpm&utm_campaign=mty", "contact_phone": "+1 506-395-6555", "contact_email": "contactus@pizzadelight.ca", "status": 1, "source_type": 1, "numberReviews": 20}, {"name": "Pita Pit", "type": "restaurant", "image": "https://dynamic-media-cdn.tripadvisor.com/media/photo-o/14/ac/b6/ba/dining-area.jpg?w=1000&s=1", "address": "3360 Boulevard Dr Victor Leblanc, Tracadie-Sheila, New Brunswick E1X 0E1 Canada", "lat": 47.52286, "lng": -64.91132, "ref_id": 14971056, "rating": 4.5, "num_reviews": 0, "website": "https://pitapit.ca/locations/tracadie?y_source=1_MTMwNzg0NDQtNzY5LWxvY2F0aW9uLndlYnNpdGU%3D", "contact_phone": "+1 506-393-7482", "contact_email": "CA313@mypitapit.ca", "status": 1, "source_type": 1, "numberReviews": 3}, {"name": "Maxima Restaurant", "type": "restaurant", "image": "https://dynamic-media-cdn.tripadvisor.com/media/photo-o/1a/04/83/5f/maxima-restaurant.jpg?w=1000&s=1", "address": "3409 # 33 - Rue Principale, Tracadie-Sheila, New Brunswick E1X 1C7 Canada", "lat": 47.520535, "lng": -64.91105, "ref_id": 10892633, "rating": 3.5, "num_reviews": 0, "website": "http://www.facebook.com/pages/Restaurant-Maxima/207486232626751", "contact_phone": "+1 506-395-7976", "contact_email": null, "status": 1, "source_type": 1, "numberReviews": 7}, {"name": "Yuzu sushi", "type": "restaurant", "image": null, "address": "3400 rue Principale Local 2, Tracadie-Sheila, New Brunswick E1X 1C8 Canada", "lat": 47.521957, "lng": -64.90988, "ref_id": 12998558, "rating": 5, "num_reviews": 0, "website": "https://locations.yuzusushi.ca/nb/tracadie-sheila/yuzu-sushi-tracadie-sheila?utm_source=trpa&utm_medium=lpm&utm_campaign=mty", "contact_phone": "+1 506-395-1018", "contact_email": "info@yuzu.ca", "status": 1, "source_type": 1, "numberReviews": 1}, {"name": "Great Wall Dining Room", "type": "restaurant", "image": "https://dynamic-media-cdn.tripadvisor.com/media/photo-o/10/23/c7/20/img-20170804-wa0005-largejpg.jpg?w=1000&s=1", "address": "3552 Principale St, Tracadie-Sheila, New Brunswick E1X 1C9 Canada", "lat": 47.305344, "lng": -64.726395, "ref_id": 981456, "rating": 3, "num_reviews": 0, "website": "http://www.facebook.com/greatwallrestaurantTracadie", "contact_phone": "+1 506-395-6369", "contact_email": "", "status": 1, "source_type": 1, "numberReviews": 9}, {"name": "Innata - Espace Sant\u00e9", "type": "restaurant", "image": "https://dynamic-media-cdn.tripadvisor.com/media/photo-o/0e/6f/c6/a5/plats-du-jour.jpg?w=1000&s=1", "address": "451 Georges Ouest St, Tracadie-Sheila, New Brunswick E1X 1C8 Canada", "lat": 47.51679, "lng": -64.91358, "ref_id": 12142588, "rating": 5, "num_reviews": 0, "website": "http://www.facebook.com/Innataespacesante/", "contact_phone": "+1 506-600-0837", "contact_email": null, "status": 1, "source_type": 1, "numberReviews": 1}, {"name": "Dooly's", "type": "restaurant", "image": null, "address": "3518 Principale St, Tracadie-Sheila, New Brunswick E1X 1C9 Canada", "lat": 47.516163, "lng": -64.911606, "ref_id": 764239, "rating": 5, "num_reviews": 0, "website": null, "contact_phone": "+1 506-393-7665", "contact_email": "", "status": 1, "source_type": 1, "numberReviews": 1}, {"name": "Greco Pizza", "type": "restaurant", "image": null, "address": "3409 Rue Principale, Tracadie-Sheila, New Brunswick E1X 1C7 Canada", "lat": 47.52179, "lng": -64.9109, "ref_id": 27236033, "rating": 1, "num_reviews": 0, "website": "http://www.greco.ca/", "contact_phone": "+1 506-399-3030", "contact_email": null, "status": 1, "source_type": 1, "numberReviews": 1}, {"name": "McDonald's", "type": "restaurant", "image": null, "address": "3458 Rue Principale, Tracadie-Sheila, New Brunswick E1X 1C8 Canada", "lat": 47.51926, "lng": -64.91068, "ref_id": 764243, "rating": 2, "num_reviews": 0, "website": "https://www.mcdonalds.com/ca/en-ca/restaurant-locator.html?y_source=1_MTQ1MjAzNDgtNzY5LWxvY2F0aW9uLndlYnNpdGU%3D", "contact_phone": "+1 506-394-1111", "contact_email": "17756@post.mcdonalds.ca", "status": 1, "source_type": 1, "numberReviews": 16}, {"name": "Caf\u00e9 Micheline", "type": "restaurant", "image": null, "address": "3709 Rue Principale, Tracadie-Sheila, New Brunswick E1X 1E3 Canada", "lat": 47.508217, "lng": -64.909996, "ref_id": 27278108, "rating": -1, "num_reviews": 0, "website": "https://www.facebook.com/129683083731484", "contact_phone": "+1 506-393-6416", "contact_email": null, "status": 1, "source_type": 1, "numberReviews": 0}, {"name": "Mcgraw Seafood 2008 Inc.", "type": "restaurant", "image": null, "address": "3113 Rue Principale, Tracadie-Sheila, New Brunswick E1X 1A2 Canada", "lat": 47.53379, "lng": -64.91536, "ref_id": 27236036, "rating": -1, "num_reviews": 0, "website": "http://www.mcgrawseafood.com/", "contact_phone": "+1 506-395-3374", "contact_email": null, "status": 1, "source_type": 1, "numberReviews": 0}, {"name": "Epicerie Nedgar Doiron", "type": "restaurant", "image": null, "address": "1057 Chemin Saulnier O, Tracadie-Sheila, New Brunswick E1X 2J2 Canada", "lat": 47.499454, "lng": -64.9438, "ref_id": 27241517, "rating": -1, "num_reviews": 0, "website": "https://www.facebook.com/590740004358606", "contact_phone": "+1 506-395-4606", "contact_email": null, "status": 1, "source_type": 1, "numberReviews": 0}, {"name": "Subway", "type": "restaurant", "image": null, "address": "3400 Rue Principale, Tracadie-Sheila, New Brunswick E1X 1C8 Canada", "lat": 47.52191, "lng": -64.910194, "ref_id": 27255246, "rating": -1, "num_reviews": 0, "website": "http://www.subway.com/", "contact_phone": "+1 506-393-7348", "contact_email": null, "status": 1, "source_type": 1, "numberReviews": 0}, {"name": "Le Couvent", "type": "restaurant", "image": null, "address": "3205 Rue Alcide, Tracadie-Sheila, New Brunswick E1X 1A5 Canada", "lat": 47.52858, "lng": -64.92144, "ref_id": 27236041, "rating": -1, "num_reviews": 0, "website": "https://www.facebook.com/101937385253257", "contact_phone": "+1 506-393-4044", "contact_email": null, "status": 1, "source_type": 1, "numberReviews": 0}, {"name": "Grain de Bl\u00e9", "type": "restaurant", "image": null, "address": "3588 Rue Principale, Tracadie-Sheila, New Brunswick E1X 1C9 Canada", "lat": 47.51323, "lng": -64.91027, "ref_id": 27190463, "rating": -1, "num_reviews": 0, "website": "https://www.facebook.com/397052753722534", "contact_phone": "+1 506-395-9521", "contact_email": null, "status": 1, "source_type": 1, "numberReviews": 0}, {"name": "Chic Shake", "type": "restaurant", "image": null, "address": "352 Rue du Quai, Tracadie-Sheila, New Brunswick E1X 1A4 Canada", "lat": 47.52291, "lng": -64.9097, "ref_id": 12817200, "rating": -1, "num_reviews": 0, "website": "https://www.facebook.com/Chic-Shake-319748155023198/", "contact_phone": "+1 506-395-3689", "contact_email": null, "status": 1, "source_type": 1, "numberReviews": 0}, {"name": "Seafood Paradise", "type": "restaurant", "image": "https://dynamic-media-cdn.tripadvisor.com/media/photo-o/03/e8/c6/2f/aboiteau-fisheries.jpg?w=1000&s=1", "address": "77 Ch du Quai, Cap-Pel\u00e9, New Brunswick E4N 1S5 Canada", "lat": 46.22814, "lng": -64.29508, "ref_id": 2323047, "rating": 4, "num_reviews": 0, "website": "http://www.aboiteau.com", "contact_phone": "+1 506-577-2950", "contact_email": "aboiteaufisheries@gmail.com", "status": 1, "source_type": 1, "numberReviews": 108}, {"name": "Fred's Seafood Restaurant 2004 Inc.", "type": "restaurant", "image": "https://dynamic-media-cdn.tripadvisor.com/media/photo-o/19/3d/70/a3/20190914-112736-largejpg.jpg?w=1000&s=1", "address": "2470 Ch Acadie, Cap-Pel\u00e9, New Brunswick E4N 1C9 Canada", "lat": 46.215614, "lng": -64.293526, "ref_id": 2329246, "rating": 3.5, "num_reviews": 0, "website": "http://www.facebook.com/fredseafoodrestaurant/", "contact_phone": "+1 506-577-4269", "contact_email": null, "status": 1, "source_type": 1, "numberReviews": 191}, {"name": "Freds Bakery", "type": "restaurant", "image": "https://dynamic-media-cdn.tripadvisor.com/media/photo-o/0f/27/d6/60/great-location-in-cap.jpg?w=1000&s=1", "address": "2488 Ch Acadie, Cap-Pel\u00e9, New Brunswick E4N 1C9 Canada", "lat": 46.215725, "lng": -64.291756, "ref_id": 10799969, "rating": 4.5, "num_reviews": 0, "website": "https://www.facebook.com/Freds-Bakery-137699079580612", "contact_phone": "+1 506-577-4347", "contact_email": "fredsbakery@nb.aibn.com", "status": 1, "source_type": 1, "numberReviews": 9}, {"name": "Sub Shop la", "type": "restaurant", "image": "https://dynamic-media-cdn.tripadvisor.com/media/photo-o/10/10/54/7b/la-sub-shop-street-view.jpg?w=1000&s=1", "address": "2582 Ch Acadie, Cap-Pel\u00e9, New Brunswick E4N 1E3 Canada", "lat": 46.21715, "lng": -64.27985, "ref_id": 4882099, "rating": 5, "num_reviews": 0, "website": null, "contact_phone": "+1 506-577-6000", "contact_email": null, "status": 1, "source_type": 1, "numberReviews": 3}, {"name": "Pizza Delight", "type": "restaurant", "image": "https://dynamic-media-cdn.tripadvisor.com/media/photo-o/19/42/e1/5b/other1.jpg?w=1000&s=1", "address": "2661 Acadie Road, Cap-Pel\u00e9, New Brunswick E4N 1C2 Canada", "lat": 46.214973, "lng": -64.26948, "ref_id": 5775417, "rating": 4, "num_reviews": 0, "website": "http://www.pizzadelight.com/?utm_source=trpa&utm_medium=lpm&utm_campaign=mty", "contact_phone": "+1 506-577-6292", "contact_email": "contactus@pizzadelight.ca", "status": 1, "source_type": 1, "numberReviews": 13}, {"name": "Resto 577", "type": "restaurant", "image": null, "address": "2680 Acadie Rd, Cap-Pel\u00e9, New Brunswick E4N 1E5 Canada", "lat": 46.21496, "lng": -64.26766, "ref_id": 27254792, "rating": 4, "num_reviews": 0, "website": "https://www.facebook.com/109027151774765", "contact_phone": "+1 506-577-1234", "contact_email": null, "status": 1, "source_type": 1, "numberReviews": 1}, {"name": "Emperor's Pizza", "type": "restaurant", "image": null, "address": "2559 Acadie Rd, Cap-Pel\u00e9, New Brunswick E4N 1B8 Canada", "lat": 46.21617, "lng": -64.28268, "ref_id": 27242054, "rating": -1, "num_reviews": 0, "website": "https://www.facebook.com/343605179659557", "contact_phone": "+1 506-577-8888", "contact_email": null, "status": 1, "source_type": 1, "numberReviews": 0}, {"name": "Greco Pizza Xpress", "type": "restaurant", "image": null, "address": "2420 Acadie Rd Irving Crossroads, Cap-Pel\u00e9, New Brunswick E0A 1J0 Canada", "lat": 46.21768, "lng": -64.29976, "ref_id": 17720989, "rating": -1, "num_reviews": 0, "website": "http://www.greco.ca", "contact_phone": "+1 506-756-8033", "contact_email": null, "status": 1, "source_type": 1, "numberReviews": 0}, {"name": "Subway", "type": "restaurant", "image": null, "address": "2420 Acadie St., Cap-Pel\u00e9, New Brunswick E4N 1C8 Canada", "lat": 46.217735, "lng": -64.29981, "ref_id": 20040063, "rating": -1, "num_reviews": 0, "website": "https://restaurants.subway.com/canada/nb/cap-pele/2420-acadie-st?utm_source=yext-other&utm_medium=local&utm_term=acq&utm_content=69037&utm_campaign=evergreen-2020&y_source=1_MTQ5MTg1MDUtNzY5LWxvY2F0aW9uLndlYnNpdGU%3D", "contact_phone": "+1 506-332-7827", "contact_email": null, "status": 1, "source_type": 1, "numberReviews": 0}, {"name": "March\u00e9 Au Corner Market - Cap-pel\u00e9 Freshmart", "type": "restaurant", "image": null, "address": "2665 Chemin Acadie, Cap-Pel\u00e9, New Brunswick E4N 1C2 Canada", "lat": 46.2147, "lng": -64.2686, "ref_id": 27254788, "rating": -1, "num_reviews": 0, "website": "https://www.facebook.com/1885056815138208", "contact_phone": "+1 506-577-4996", "contact_email": null, "status": 1, "source_type": 1, "numberReviews": 0}, {"name": "Postoffice Pizza", "type": "restaurant", "image": "https://dynamic-media-cdn.tripadvisor.com/media/photo-o/0f/61/1b/fc/the-halifax-our-donair.jpg?w=1000&s=1", "address": "52 Route 776, Grand Manan, New Brunswick E5G 1A1 Canada", "lat": 44.764442, "lng": -66.749306, "ref_id": 12031455, "rating": 4.5, "num_reviews": 0, "website": "http://www.facebook.com/GrandMananPOPizza/", "contact_phone": "+1 506-799-5003", "contact_email": "Info@northheadproperties.com", "status": 1, "source_type": 1, "numberReviews": 94}, {"name": "Compass Rose", "type": "restaurant", "image": "https://dynamic-media-cdn.tripadvisor.com/media/photo-o/1b/e5/0d/da/compass-rose.jpg?w=1000&s=1", "address": "Rt 776, North Head, New Brunswick Canada", "lat": 44.76499, "lng": -66.75199, "ref_id": 764031, "rating": 4, "num_reviews": 0, "website": "http://www.compassroseheritageinn.com", "contact_phone": "+1 506-662-8570", "contact_email": "", "status": 1, "source_type": 1, "numberReviews": 87}, {"name": "The Harbour Grille", "type": "restaurant", "image": "https://dynamic-media-cdn.tripadvisor.com/media/photo-o/18/42/d5/03/anyone-for-breakfast.jpg?w=1000&s=1", "address": "1140 Route 776, New Brunswick E5G 4E8 Canada", "lat": 44.68811, "lng": -66.76509, "ref_id": 6748956, "rating": 4, "num_reviews": 0, "website": "https://www.facebook.com/theharbourgrille", "contact_phone": "+1 506-662-3103", "contact_email": "harbourgrillebernie@gmail.com", "status": 1, "source_type": 1, "numberReviews": 115}, {"name": "Grand Manan 5 Ferry Restaurant", "type": "restaurant", "image": "https://dynamic-media-cdn.tripadvisor.com/media/photo-o/11/19/45/f6/seating-area-on-grand.jpg?w=1000&s=1", "address": "Grand Manan Ferry/ Black's Harbour, New Brunswick Canada", "lat": 44.728706, "lng": -66.78319, "ref_id": 763927, "rating": 4, "num_reviews": 0, "website": null, "contact_phone": "+1 506-456-3842", "contact_email": "", "status": 1, "source_type": 1, "numberReviews": 37}, {"name": "Food For Thought Catering", "type": "restaurant", "image": null, "address": "922 Route 776, New Brunswick E5G 2E4 Canada", "lat": 44.70023, "lng": -66.7462, "ref_id": 10539232, "rating": 4.5, "num_reviews": 0, "website": "https://www.facebook.com/Food-For-Thought-Catering-204554702973196/", "contact_phone": "+1 506-662-8500", "contact_email": "fftgm@hotmail.com", "status": 1, "source_type": 1, "numberReviews": 10}, {"name": "High Seas Convenience", "type": "restaurant", "image": null, "address": "1930 Route 776, New Brunswick E5G 3H2 Canada", "lat": null, "lng": null, "ref_id": 21185690, "rating": 4, "num_reviews": 0, "website": "https://www.facebook.com/High-Seas-Convenience-1676422872644051/", "contact_phone": "+1 506-662-8849", "contact_email": null, "status": 1, "source_type": 1, "numberReviews": 2}, {"name": "Greco Pizza Xpress", "type": "restaurant", "image": null, "address": "791 Route 776 Atlantic Save Easy, New Brunswick E5G 3C4 Canada", "lat": 44.711464, "lng": -66.745605, "ref_id": 17724627, "rating": -1, "num_reviews": 0, "website": "http://www.greco.ca", "contact_phone": "+1 506-662-8152", "contact_email": null, "status": 1, "source_type": 1, "numberReviews": 0}, {"name": "Mimziz Macaron", "type": "restaurant", "image": "https://dynamic-media-cdn.tripadvisor.com/media/photo-o/22/f6/91/76/tiramisu-is-a-rich-treat.jpg?w=1000&s=1", "address": "504 Champlain St., Dieppe, New Brunswick E1A 1P4 Canada", "lat": 46.098, "lng": -64.733986, "ref_id": 21356726, "rating": 5, "num_reviews": 0, "website": "http://www.mimziz.ca", "contact_phone": "+1 506-855-4615", "contact_email": "info@mimziz.com", "status": 1, "source_type": 1, "numberReviews": 1}, {"name": "Nyf", "type": "restaurant", "image": null, "address": "477 Paul St Unit B-004B, Dieppe, New Brunswick E1A 4X5 Canada", "lat": 46.097294, "lng": -64.75792, "ref_id": 15206475, "rating": 5, "num_reviews": 0, "website": "https://www.facebook.com/nyfchamplain/", "contact_phone": "+1 506-388-0990", "contact_email": null, "status": 1, "source_type": 1, "numberReviews": 1}, {"name": "Second Cup Coffee Co.", "type": "restaurant", "image": "https://dynamic-media-cdn.tripadvisor.com/media/photo-o/0e/1e/6a/7c/pumpkin-pastry.jpg?w=1000&s=1", "address": "477 Paul St. Champlain Place, Dieppe, New Brunswick E1A 4X5 Canada", "lat": 46.096092, "lng": -64.760086, "ref_id": 5103296, "rating": 3.5, "num_reviews": 0, "website": "https://secondcup.com/location/champlain-place", "contact_phone": "+1 506-388-8889", "contact_email": null, "status": 1, "source_type": 1, "numberReviews": 5}, {"name": "Tim Hortons", "type": "restaurant", "image": null, "address": "423 Boulevard Ad\u00e9lard-savoie, Dieppe, New Brunswick E1A 0N7 Canada", "lat": 46.107555, "lng": -64.7085, "ref_id": 15261033, "rating": 5, "num_reviews": 0, "website": "https://www.facebook.com/1763063847344035", "contact_phone": "+1 506-857-2378", "contact_email": "TimHortons102830@timzone.com", "status": 1, "source_type": 1, "numberReviews": 1}, {"name": "Tim Hortons", "type": "restaurant", "image": null, "address": "477 Paul St, Dieppe, New Brunswick E1A 4X5 Canada", "lat": 46.09695, "lng": -64.7578, "ref_id": 15260146, "rating": 5, "num_reviews": 0, "website": "https://www.facebook.com/622797431258643", "contact_phone": "+1 506-862-7637", "contact_email": "TimHortons100273@timzone.com", "status": 1, "source_type": 1, "numberReviews": 1}, {"name": "ED's SUB Dieppe", "type": "restaurant", "image": "https://dynamic-media-cdn.tripadvisor.com/media/photo-o/08/a8/31/2c/ed-s-sub.jpg?w=1000&s=1", "address": "504A Champlain St Dieppe Plaza, Dieppe, New Brunswick E1A 1P4 Canada", "lat": 46.098206, "lng": -64.734116, "ref_id": 8509707, "rating": 4, "num_reviews": 0, "website": "http://edssubdieppe.wixsite.com/edssub", "contact_phone": "+1 506-858-9284", "contact_email": null, "status": 1, "source_type": 1, "numberReviews": 2}, {"name": "Quiznos -", "type": "restaurant", "image": null, "address": "18 Champlain St 4B, Dieppe, New Brunswick E1A 1N3 Canada", "lat": 46.092636, "lng": -64.75974, "ref_id": 4852139, "rating": 3.5, "num_reviews": 0, "website": "https://locations.quiznos.com/quiznos-c06093ad5171?y_source=1_Mjk3NjAzOC03NjktbG9jYXRpb24ud2Vic2l0ZQ%3D%3D", "contact_phone": "+1 506-387-7849", "contact_email": null, "status": 1, "source_type": 1, "numberReviews": 6}, {"name": "Pita Pit", "type": "restaurant", "image": "https://dynamic-media-cdn.tripadvisor.com/media/photo-o/17/d0/9b/59/image.jpg?w=1000&s=1", "address": "30 Champlain St Unit 11, Dieppe, New Brunswick E1A 1N3 Canada", "lat": 46.093384, "lng": -64.75825, "ref_id": 14971155, "rating": 3, "num_reviews": 0, "website": "https://pitapit.ca/locations/dieppe-champlain-st?y_source=1_MTMwNzg1ODUtNzY5LWxvY2F0aW9uLndlYnNpdGU%3D", "contact_phone": "+1 506-382-7482", "contact_email": "CA271@mypitapit.ca", "status": 1, "source_type": 1, "numberReviews": 1}, {"name": "Tim Hortons", "type": "restaurant", "image": "https://dynamic-media-cdn.tripadvisor.com/media/photo-o/11/4b/56/71/french-onion-soup.jpg?w=1000&s=1", "address": "777 Aviation Ave, Dieppe, New Brunswick E1A 7Z5 Canada", "lat": 46.11621, "lng": -64.68914, "ref_id": 13143344, "rating": 3, "num_reviews": 0, "website": "http://www.timhortons.com/ca/en/index.php", "contact_phone": "+1 506-859-8709", "contact_email": null, "status": 1, "source_type": 1, "numberReviews": 10}, {"name": "Greco Pizza", "type": "restaurant", "image": "https://dynamic-media-cdn.tripadvisor.com/media/photo-o/2a/91/8e/e6/atlantic-canada-s-leading.jpg?w=1000&s=1", "address": "311 Acadie Ave, Dieppe, New Brunswick E1A 1G8 Canada", "lat": 46.094013, "lng": -64.7475, "ref_id": 4851953, "rating": 3, "num_reviews": 0, "website": "http://greco.ca/", "contact_phone": "+1 506-387-3030", "contact_email": null, "status": 1, "source_type": 1, "numberReviews": 14}, {"name": "Pur & Simple", "type": "restaurant", "image": "https://dynamic-media-cdn.tripadvisor.com/media/photo-o/2b/a0/c8/64/caption.jpg?w=1000&s=1", "address": "477 Paul St CF Champlain Mall, Dieppe, New Brunswick E1A 4X5 Canada", "lat": 46.0958, "lng": -64.76007, "ref_id": 18319649, "rating": 2, "num_reviews": 0, "website": "https://pursimple.com/dieppe/", "contact_phone": "+1 506-830-0300", "contact_email": "dieppe@pursimple.com", "status": 1, "source_type": 1, "numberReviews": 6}, {"name": "Partner Seafood Inc.", "type": "restaurant", "image": null, "address": "999 Aviation Ave, Dieppe, New Brunswick E1A Canada", "lat": 46.120872, "lng": -64.685135, "ref_id": 27254849, "rating": -1, "num_reviews": 0, "website": "http://www.partner-seafood.com", "contact_phone": "+1 506-386-3100", "contact_email": null, "status": 1, "source_type": 1, "numberReviews": 0}, {"name": "Coasters", "type": "restaurant", "image": null, "address": "451 Paul St, Dieppe, New Brunswick E1A 6W8 Canada", "lat": 46.094826, "lng": -64.75651, "ref_id": 27255733, "rating": -1, "num_reviews": 0, "website": "https://www.facebook.com/200248280004905", "contact_phone": "+1 506-389-7777", "contact_email": null, "status": 1, "source_type": 1, "numberReviews": 0}, {"name": "Goji's Neighbourhood Treatery", "type": "restaurant", "image": null, "address": "30 Champlain St, Dieppe, New Brunswick E1A 1N3 Canada", "lat": 46.09342, "lng": -64.75805, "ref_id": 20997007, "rating": -1, "num_reviews": 0, "website": "https://www.facebook.com/gojisdieppe", "contact_phone": "+1 506-382-4664", "contact_email": null, "status": 1, "source_type": 1, "numberReviews": 0}, {"name": "La Diperie Dieppe", "type": "restaurant", "image": "https://dynamic-media-cdn.tripadvisor.com/media/photo-o/2c/ae/7d/2a/caption.jpg?w=1000&s=1", "address": "209 Champlain Street, Dieppe, New Brunswick E1A 1N9 Canada", "lat": 46.09581, "lng": -64.74855, "ref_id": 23486673, "rating": -1, "num_reviews": 0, "website": "https://www.ladiperie.com/?utm_source=TRPA&utm_medium=LPM&utm_campaign=MTY", "contact_phone": "+1 506-204-8080", "contact_email": "info@ladiperie.com", "status": 1, "source_type": 1, "numberReviews": 0},