[{"name": "Lucky Fortune Restaurant", "type": "restaurant", "image": null, "address": "14 Main St, Bishop's Falls, Newfoundland and Labrador A0H 1C0 Canada", "lat": 48.989655, "lng": -55.539158, "ref_id": 10634877, "rating": 4.5, "num_reviews": 0, "website": "http://www.facebook.com/Lucky-Fortune-345004322827182/", "contact_phone": "+1 709-258-6585", "contact_email": null, "status": 1, "source_type": 1, "numberReviews": 17}, {"name": "Furey's", "type": "restaurant", "image": null, "address": "237 Main St, Bishop's Falls, Newfoundland and Labrador A0H 1C0 Canada", "lat": 49.00476, "lng": -55.5084, "ref_id": 8674113, "rating": 4, "num_reviews": 0, "website": "https://www.facebook.com/pages/Fureys-Trailway-Take-Out/310748135606687", "contact_phone": "+1 709-258-2205", "contact_email": null, "status": 1, "source_type": 1, "numberReviews": 4}, {"name": "Krista's Clover Farm", "type": "restaurant", "image": null, "address": "499 Main St, Bishop's Falls, Newfoundland and Labrador A0H 1C0 Canada", "lat": 49.016235, "lng": -55.47912, "ref_id": 27234511, "rating": -1, "num_reviews": 0, "website": "https://www.facebook.com/1445128125742720", "contact_phone": "+1 709-258-2150", "contact_email": null, "status": 1, "source_type": 1, "numberReviews": 0}, {"name": "Frontier Restaurant", "type": "restaurant", "image": "https://dynamic-media-cdn.tripadvisor.com/media/photo-o/06/8d/c7/f3/frontier-restaurant.jpg?w=1000&s=1", "address": "52A Route 430, Wiltondale, Gros Morne National Park, Newfoundland and Labrador A8A 3L1 Canada", "lat": 49.395576, "lng": -57.606335, "ref_id": 7066016, "rating": 3, "num_reviews": 0, "website": "http://www.frontiercottages.com", "contact_phone": "+1 709-453-2520", "contact_email": null, "status": 1, "source_type": 1, "numberReviews": 7}, {"name": "Riverside Takeout", "type": "restaurant", "image": null, "address": "157 MainStreet, Trout River, Gros Morne National Park, Newfoundland and Labrador A0K 5P0 Canada", "lat": 49.47211, "lng": -58.12755, "ref_id": 8413109, "rating": 4, "num_reviews": 0, "website": "http://www.facebook.com/Riverside-Takeout-Trout-River-140323606517359/", "contact_phone": "+1 709-636-9874", "contact_email": null, "status": 1, "source_type": 1, "numberReviews": 1}, {"name": "Greco Pizza Xpress", "type": "restaurant", "image": "https://dynamic-media-cdn.tripadvisor.com/media/photo-o/18/11/45/d7/free-flavoured-crust.jpg?w=1000&s=1", "address": "193 Main Street, Cow Head, Gros Morne National Park, Newfoundland and Labrador A0K 2A0 Canada", "lat": 49.915253, "lng": -57.787807, "ref_id": 17648575, "rating": 1, "num_reviews": 0, "website": "https://www.facebook.com/GrecoPizzaXpressCowHead/", "contact_phone": "+1 709-243-2471", "contact_email": "customerservice@greco.ca", "status": 1, "source_type": 1, "numberReviews": 1}, {"name": "Greco Pizza Xpress", "type": "restaurant", "image": "https://dynamic-media-cdn.tripadvisor.com/media/photo-o/18/02/c5/4d/greco-xpress.jpg?w=1000&s=1", "address": "44 Main Street N, Rocky Harbour, Gros Morne National Park, Newfoundland and Labrador A0K 4N0 Canada", "lat": 49.591286, "lng": -57.9163, "ref_id": 973820, "rating": 2.5, "num_reviews": 0, "website": "http://greco.ca/", "contact_phone": "+1 709-458-3121", "contact_email": "", "status": 1, "source_type": 1, "numberReviews": 15}, {"name": "Gahan House Harbourview", "type": "restaurant", "image": null, "address": "135 Harbour Drive, Rocky Harbour, Gros Morne National Park, Newfoundland and Labrador Canada", "lat": 49.59127, "lng": -57.912617, "ref_id": 23934221, "rating": -1, "num_reviews": 0, "website": "http://stjohns.gahan.ca/", "contact_phone": "+1 902-305-2094", "contact_email": "gmharbourview@gahan.ca", "status": 1, "source_type": 1, "numberReviews": 0}, {"name": "Galliott Studios", "type": "restaurant", "image": null, "address": "10 Water St, Woody Point, Gros Morne National Park, Newfoundland and Labrador Canada", "lat": 49.50062, "lng": -57.91361, "ref_id": 27300034, "rating": -1, "num_reviews": 0, "website": "http://www.galliottstudios.ca/", "contact_phone": "+1 709-638-2409", "contact_email": null, "status": 1, "source_type": 1, "numberReviews": 0}, {"name": "Crabbe's River Restaurant", "type": "restaurant", "image": "https://dynamic-media-cdn.tripadvisor.com/media/photo-o/29/fb/72/c3/crabbe-s-river-restaurant.jpg?w=1000&s=1", "address": "Division No. 4, Subd B Tch 1, Doyles, Newfoundland and Labrador A0N 1G0 Canada", "lat": 47.82987, "lng": -59.19093, "ref_id": 25228529, "rating": 5, "num_reviews": 0, "website": null, "contact_phone": null, "contact_email": null, "status": 1, "source_type": 1, "numberReviews": 2}, {"name": "Shallow Bay Restaurant", "type": "restaurant", "image": "https://dynamic-media-cdn.tripadvisor.com/media/photo-o/0f/a9/3d/6d/20170623-144041-largejpg.jpg?w=1000&s=1", "address": "193 Main Street, Cow Head, Gros Morne National Park, Newfoundland and Labrador A0K 2A0 Canada", "lat": 49.91982, "lng": -57.77654, "ref_id": 4937634, "rating": 4, "num_reviews": 0, "website": "http://www.shallowbaymotel.com/", "contact_phone": "+1 709-243-2471", "contact_email": "info@shallowbaymotel.com", "status": 1, "source_type": 1, "numberReviews": 122}, {"name": "Back Cove Cafe", "type": "restaurant", "image": "https://dynamic-media-cdn.tripadvisor.com/media/photo-o/0c/91/74/9b/20160816-143806-largejpg.jpg?w=1000&s=1", "address": "Main Street, Cow Head, Gros Morne National Park, Newfoundland and Labrador A0K 2A0 Canada", "lat": 49.90888, "lng": -57.79493, "ref_id": 3435233, "rating": 3.5, "num_reviews": 0, "website": "https://www.facebook.com/Back-Cove-Cafe-149739228427736/", "contact_phone": "+1 709-243-2700", "contact_email": null, "status": 1, "source_type": 1, "numberReviews": 44}, {"name": "Bayside Fries", "type": "restaurant", "image": "https://dynamic-media-cdn.tripadvisor.com/media/photo-o/1d/0f/a7/a6/poutine-fries-dressing.jpg?w=1000&s=1", "address": "38 Main Street South, Glovertown, Newfoundland and Labrador A0G 2L0 Canada", "lat": 48.672066, "lng": -54.029266, "ref_id": 23422321, "rating": 4, "num_reviews": 0, "website": null, "contact_phone": null, "contact_email": null, "status": 1, "source_type": 1, "numberReviews": 5}, {"name": "Glovertown Irving & Robin's Donuts", "type": "restaurant", "image": "https://dynamic-media-cdn.tripadvisor.com/media/photo-o/1d/0f/b0/6e/glovertown-irving-robin.jpg?w=1000&s=1", "address": "6 Main Street, Glovertown, Newfoundland and Labrador Canada", "lat": 48.673485, "lng": -54.033203, "ref_id": 23423010, "rating": 3.5, "num_reviews": 0, "website": null, "contact_phone": "+1 709-533-2991", "contact_email": null, "status": 1, "source_type": 1, "numberReviews": 3}, {"name": "Country Style", "type": "restaurant", "image": null, "address": "79A Main St S Timber & Twine, Glovertown, Newfoundland and Labrador A0G 2L0 Canada", "lat": 48.6737, "lng": -54.015198, "ref_id": 15589670, "rating": 4, "num_reviews": 0, "website": "http://www.countrystyle.com/stores/?utm_source=TRPA&utm_medium=LPM&utm_campaign=MTY", "contact_phone": "+1 709-424-8850", "contact_email": null, "status": 1, "source_type": 1, "numberReviews": 1}, {"name": "Greco Pizza Xpress", "type": "restaurant", "image": "https://dynamic-media-cdn.tripadvisor.com/media/photo-o/18/46/3b/80/free-flavoured-crust.jpg?w=1000&s=1", "address": "56 Main St N Glovertown Esso, Glovertown, Newfoundland and Labrador A0G 2L0 Canada", "lat": 48.679375, "lng": -54.037937, "ref_id": 17724626, "rating": 3.5, "num_reviews": 0, "website": "http://greco.ca/", "contact_phone": "+1 709-533-9203", "contact_email": null, "status": 1, "source_type": 1, "numberReviews": 3}, {"name": "Sushi Lab", "type": "restaurant", "image": "https://dynamic-media-cdn.tripadvisor.com/media/photo-o/06/24/ec/36/sushi-lab.jpg?w=1000&s=1", "address": "118 Humphrey Rd, Labrador City, Newfoundland and Labrador A2V 2J8 Canada", "lat": 52.947178, "lng": -66.898346, "ref_id": 5857799, "rating": 4, "num_reviews": 0, "website": "https://www.facebook.com/581237251943464", "contact_phone": "+1 709-944-4179", "contact_email": "sushilab.nl@gmail.com", "status": 1, "source_type": 1, "numberReviews": 56}, {"name": "Baba Q's Smoke & Grill", "type": "restaurant", "image": "https://dynamic-media-cdn.tripadvisor.com/media/photo-o/18/eb/df/5b/photo0jpg.jpg?w=1000&s=1", "address": "211 Drake Ave, Labrador City, Newfoundland and Labrador A2V 2B6 Canada", "lat": 52.944176, "lng": -66.904785, "ref_id": 15207042, "rating": 4, "num_reviews": 0, "website": "https://www.babaqs.com", "contact_phone": "+1 709-944-2355", "contact_email": null, "status": 1, "source_type": 1, "numberReviews": 28}, {"name": "Two Seasons Restaurant", "type": "restaurant", "image": null, "address": "96 Avalon Dr, Labrador City, Newfoundland and Labrador A2V 2X7 Canada", "lat": 52.94372, "lng": -66.9037, "ref_id": 17847605, "rating": 4, "num_reviews": 0, "website": "https://www.facebook.com/twoseasonslabrador/", "contact_phone": "+1 709-944-2756", "contact_email": null, "status": 1, "source_type": 1, "numberReviews": 4}, {"name": "Pizza Delight", "type": "restaurant", "image": "https://dynamic-media-cdn.tripadvisor.com/media/photo-o/1b/2c/ce/86/fb.jpg?w=1000&s=1", "address": "800 Trans-Labrador Highway, Labrador City, Newfoundland and Labrador A2V 2K7 Canada", "lat": 52.93268, "lng": -66.9191, "ref_id": 12800662, "rating": 4, "num_reviews": 0, "website": "http://www.pizzadelight.com/?utm_source=trpa&utm_medium=lpm&utm_campaign=mty", "contact_phone": "+1 709-944-7773", "contact_email": "contactus@pizzadelight.ca", "status": 1, "source_type": 1, "numberReviews": 5}, {"name": "Jarge's Pub", "type": "restaurant", "image": null, "address": "208 Humber Ave, Labrador City, Newfoundland and Labrador A2V 1K9 Canada", "lat": 52.94298, "lng": -66.90949, "ref_id": 764483, "rating": 3, "num_reviews": 0, "website": "https://www.facebook.com/1671085536271620", "contact_phone": "+1 709-944-5888", "contact_email": "", "status": 1, "source_type": 1, "numberReviews": 4}, {"name": "Pizza Delight", "type": "restaurant", "image": "https://dynamic-media-cdn.tripadvisor.com/media/photo-s/01/e4/3b/f5/pizza-delight-in-labrador.jpg?w=1000&s=1", "address": "215 Drake Ave, Labrador City, Newfoundland and Labrador A2V 2B6 Canada", "lat": 52.944252, "lng": -66.90483, "ref_id": 764486, "rating": 3, "num_reviews": 0, "website": "http://www.pizzadelight.com/en/find-a-restaurant/pizzeria/49-labrador-city.html", "contact_phone": "+1 709-944-7773", "contact_email": "", "status": 1, "source_type": 1, "numberReviews": 40}, {"name": "Jungle Jim's Eatery", "type": "restaurant", "image": null, "address": "500 Vanier Ave, Labrador City, Newfoundland and Labrador A2V 2W7 Canada", "lat": 52.94808, "lng": -66.92524, "ref_id": 27234836, "rating": -1, "num_reviews": 0, "website": "http://www.junglejims.ca", "contact_phone": "+1 709-944-5467", "contact_email": null, "status": 1, "source_type": 1, "numberReviews": 0}, {"name": "PizzaForno", "type": "restaurant", "image": "https://dynamic-media-cdn.tripadvisor.com/media/photo-o/29/dd/07/96/fresh-artisan-pizza-ready.jpg?w=1000&s=1", "address": "1601 Luce Lot 8-1, Labrador City, Newfoundland and Labrador A2V 2K1 Canada", "lat": 52.945602, "lng": -66.89259, "ref_id": 26370410, "rating": -1, "num_reviews": 0, "website": "http://pizzaforno.com/locations/pizzaforno-labrador-city-nl-iron-ore-company", "contact_phone": "+1 888-652-0957", "contact_email": "help@pizzaforno.com", "status": 1, "source_type": 1, "numberReviews": 0}, {"name": "Greco Pizza", "type": "restaurant", "image": "https://dynamic-media-cdn.tripadvisor.com/media/photo-o/2a/91/8a/0b/atlantic-canada-s-leading.jpg?w=1000&s=1", "address": "208 Humber Ave, Labrador City, Newfoundland and Labrador A2V 1K9 Canada", "lat": 52.94269, "lng": -66.91205, "ref_id": 17648466, "rating": -1, "num_reviews": 0, "website": "http://www.greco.ca", "contact_phone": "+1 709-944-2030", "contact_email": null, "status": 1, "source_type": 1, "numberReviews": 0}, {"name": "The Kash Nightclub", "type": "restaurant", "image": null, "address": "401 Avalon Dr, Labrador City, Newfoundland and Labrador A2V 2Y9 Canada", "lat": 52.94285, "lng": -66.90954, "ref_id": 27248849, "rating": -1, "num_reviews": 0, "website": "https://www.facebook.com/101577897972138", "contact_phone": "+1 709-944-5274", "contact_email": null, "status": 1, "source_type": 1, "numberReviews": 0}, {"name": "4th Stage Resto Bar", "type": "restaurant", "image": null, "address": "215 Drake Ave, Labrador City, Newfoundland and Labrador A2V 2B6 Canada", "lat": 52.94498, "lng": -66.90504, "ref_id": 23477537, "rating": -1, "num_reviews": 0, "website": null, "contact_phone": "+1 709-288-0288", "contact_email": "fourthstage_2020@yahoo.com", "status": 1, "source_type": 1, "numberReviews": 0}, {"name": "Subway", "type": "restaurant", "image": null, "address": "151 Avalon Drive, Labrador City, Newfoundland and Labrador A2V 1K4 Canada", "lat": 52.943176, "lng": -66.90896, "ref_id": 20040617, "rating": -1, "num_reviews": 0, "website": "https://restaurants.subway.com/canada/nl/labrador-city/151-avalon-drive?utm_source=yext-other&utm_medium=local&utm_term=acq&utm_content=34500&utm_campaign=evergreen-2020&y_source=1_MTQ5MjExNTItNzY5LWxvY2F0aW9uLndlYnNpdGU%3D", "contact_phone": "+1 709-944-6777", "contact_email": null, "status": 1, "source_type": 1, "numberReviews": 0}, {"name": "Taste Of Asia", "type": "restaurant", "image": null, "address": "201 Humber Ave, Labrador City, Newfoundland and Labrador A2V 2Y3 Canada", "lat": 52.94404, "lng": -66.90818, "ref_id": 27248856, "rating": -1, "num_reviews": 0, "website": "https://www.facebook.com/108332810983361", "contact_phone": "+1 709-288-0116", "contact_email": null, "status": 1, "source_type": 1, "numberReviews": 0}, {"name": "The Sailor's Galley Restaurant", "type": "restaurant", "image": "https://dynamic-media-cdn.tripadvisor.com/media/photo-o/0c/11/c6/c8/today-s-special-calamari.jpg?w=1000&s=1", "address": "22 Lower Road O'Brien's Whale and Bird Tours Inc., Bay Bulls, Newfoundland and Labrador A0A 1C0 Canada", "lat": 47.3127, "lng": -52.81355, "ref_id": 3386881, "rating": 4, "num_reviews": 0, "website": "http://www.obriensboattours.com/ss/restaurant", "contact_phone": "+1 709-753-4850", "contact_email": "info@obriensboattours.com", "status": 1, "source_type": 1, "numberReviews": 80}, {"name": "The Jigger - Bay Bulls", "type": "restaurant", "image": "https://dynamic-media-cdn.tripadvisor.com/media/photo-o/29/fa/42/b7/caption.jpg?w=1000&s=1", "address": "573 Main Rd, Bay Bulls, Newfoundland and Labrador NL A0A 1C0 Canada", "lat": 47.31702, "lng": -52.8186, "ref_id": 24093352, "rating": 4.5, "num_reviews": 0, "website": "https://www.facebook.com/TheJigger.BayBulls", "contact_phone": "+1 709-334-3330", "contact_email": null, "status": 1, "source_type": 1, "numberReviews": 10}, {"name": "Sapphire Restaurant & Pub", "type": "restaurant", "image": "https://dynamic-media-cdn.tripadvisor.com/media/photo-o/10/04/ef/8d/great-food-and-service.jpg?w=1000&s=1", "address": "24 St. John's Rd., Bay Bulls, Newfoundland and Labrador A0A 1C0 Canada", "lat": 47.31855, "lng": -52.80683, "ref_id": 7242065, "rating": 4, "num_reviews": 0, "website": "http://sapphirepub.tripod.com", "contact_phone": "+1 709-334-1171", "contact_email": null, "status": 1, "source_type": 1, "numberReviews": 39}, {"name": "Arbour Restaurant & Lounge", "type": "restaurant", "image": null, "address": "1 Island Cove Rd, Bay Bulls, Newfoundland and Labrador A0A 1C0 Canada", "lat": 47.2767, "lng": -52.83113, "ref_id": 26442190, "rating": 5, "num_reviews": 0, "website": "arbournl.ca", "contact_phone": "+1 709-334-3388", "contact_email": "info@arbour.ca", "status": 1, "source_type": 1, "numberReviews": 5}, {"name": "Stone Ducky Nl", "type": "restaurant", "image": null, "address": "56 St.john's Rd, Bay Bulls, Newfoundland and Labrador A0A 1C0 Canada", "lat": null, "lng": null, "ref_id": 27994777, "rating": 5, "num_reviews": 0, "website": "stoneducky.ca", "contact_phone": "+1 709-334-3825", "contact_email": "info@stoneducky.ca", "status": 1, "source_type": 1, "numberReviews": 4}, {"name": "Tongue & Cheek", "type": "restaurant", "image": "https://dynamic-media-cdn.tripadvisor.com/media/photo-o/18/59/04/ff/photo1jpg.jpg?w=1000&s=1", "address": "22 Lower Road, Bay Bulls, Newfoundland and Labrador A0A 1C0 Canada", "lat": 47.315063, "lng": -52.814365, "ref_id": 17724725, "rating": 4, "num_reviews": 0, "website": "https://www.facebook.com/Tongue-Cheek-420128112139626/", "contact_phone": "+1 709-753-4850", "contact_email": "restaurant@obriensboattours.com", "status": 1, "source_type": 1, "numberReviews": 10}, {"name": "Paddy's Convenience & Sub Shop Ltd", "type": "restaurant", "image": "https://dynamic-media-cdn.tripadvisor.com/media/photo-o/13/0c/a0/98/tradional-fish-chips.jpg?w=1000&s=1", "address": "Main Rd, Bay Bulls, Newfoundland and Labrador A0A 1C0 Canada", "lat": 47.146, "lng": -53.34363, "ref_id": 7222962, "rating": 4, "num_reviews": 0, "website": "http://www.facebook.com/paddysandpuffinsperch/", "contact_phone": "+1 709-334-2081", "contact_email": null, "status": 1, "source_type": 1, "numberReviews": 9}, {"name": "PondHouse Eatery", "type": "restaurant", "image": null, "address": "1 Island Cove Road, Bay Bulls, Newfoundland and Labrador A0A 1C0 Canada", "lat": 47.303177, "lng": -52.820656, "ref_id": 21181495, "rating": 3.5, "num_reviews": 0, "website": "https://www.facebook.com/pondhouseeatery/", "contact_phone": "+1 709-334-2786", "contact_email": null, "status": 1, "source_type": 1, "numberReviews": 3}, {"name": "Docker's Diner", "type": "restaurant", "image": null, "address": "General Delivery, St Barbe, Newfoundland and Labrador A0K 1M0 Canada", "lat": 51.36848, "lng": -55.5947, "ref_id": 17836698, "rating": 4, "num_reviews": 0, "website": "http://www.docksidemotel.ca", "contact_phone": "+1 709-877-2444", "contact_email": null, "status": 1, "source_type": 1, "numberReviews": 1}, {"name": "Red Ochre Cafe", "type": "restaurant", "image": "https://dynamic-media-cdn.tripadvisor.com/media/photo-o/1c/c4/89/9e/photo0jpg.jpg?w=1000&s=1", "address": "2 Main Road Route 70, Ochre Pit Cove, Newfoundland and Labrador A0A 3G0 Canada", "lat": 47.904865, "lng": -53.06865, "ref_id": 20674420, "rating": 4, "num_reviews": 0, "website": "http://www.facebook.com/redochrecafe", "contact_phone": "+1 709-598-2888", "contact_email": "redochrecafe@outlook.com", "status": 1, "source_type": 1, "numberReviews": 14}, {"name": "Monty's Place", "type": "restaurant", "image": "https://dynamic-media-cdn.tripadvisor.com/media/photo-o/0d/39/b3/4a/photo2jpg.jpg?w=1000&s=1", "address": "1 Trans-Canada Highway, Whitbourne, Newfoundland and Labrador A0B 3K0 Canada", "lat": 47.447403, "lng": -53.54816, "ref_id": 3490848, "rating": 4, "num_reviews": 0, "website": "https://www.facebook.com/MontysPlace/", "contact_phone": "+1 709-759-2560", "contact_email": "montys249@hotmail.com", "status": 1, "source_type": 1, "numberReviews": 22}, {"name": "Tim Hortons", "type": "restaurant", "image": null, "address": "679 Trans Canada Hwy, Whitbourne, Newfoundland and Labrador A0B 3K0 Canada", "lat": 47.4494, "lng": -53.560013, "ref_id": 15261625, "rating": 3.5, "num_reviews": 0, "website": "https://locations.timhortons.ca/nl/whitbourne/679-trans-canada-hwy", "contact_phone": "+1 709-759-2103", "contact_email": "TimHortons105343@timzone.com", "status": 1, "source_type": 1, "numberReviews": 6}, {"name": "Greco Pizza", "type": "restaurant", "image": "https://dynamic-media-cdn.tripadvisor.com/media/photo-o/18/11/4e/1d/greco-pizza.jpg?w=1000&s=1", "address": "691 Trans-Canada Hwy #683, Whitbourne, Newfoundland and Labrador A0B 3K0 Canada", "lat": 47.448753, "lng": -53.552727, "ref_id": 17648495, "rating": 2.5, "num_reviews": 0, "website": "http://greco.ca/", "contact_phone": "+1 709-759-3388", "contact_email": null, "status": 1, "source_type": 1, "numberReviews": 3}, {"name": "Subway", "type": "restaurant", "image": null, "address": "679-713 Whitbourne Ave Irving Gas Station/C-Store, Whitbourne, Newfoundland and Labrador A0B 3K0 Canada", "lat": 47.417923, "lng": -53.53146, "ref_id": 13502972, "rating": 2, "num_reviews": 0, "website": "https://restaurants.subway.com/canada/nl/whitbourne/679-713-whitbourne-road?utm_source=yext-other&utm_medium=local&utm_term=acq&utm_content=58838&utm_campaign=evergreen-2020&y_source=1_MTQ5MTg5MzItNzY5LWxvY2F0aW9uLndlYnNpdGU%3D", "contact_phone": "+1 709-759-1960", "contact_email": null, "status": 1, "source_type": 1, "numberReviews": 2}, {"name": "Mary Brown's", "type": "restaurant", "image": null, "address": "35 Commonwealth Dr, Botwood, Newfoundland and Labrador A0H 1E0 Canada", "lat": 49.1554, "lng": -55.36171, "ref_id": 5078808, "rating": 5, "num_reviews": 0, "website": "http://marybrowns.com/", "contact_phone": "+1 709-257-2444", "contact_email": null, "status": 1, "source_type": 1, "numberReviews": 7}, {"name": "Island Breeze Restaurant and Take Out Grill", "type": "restaurant", "image": "https://dynamic-media-cdn.tripadvisor.com/media/photo-o/10/02/0f/f7/small-newfie-mess.jpg?w=1000&s=1", "address": "1A Marine Drive, Air Base, Botwood, Newfoundland and Labrador A0H 1E0 Canada", "lat": 49.156094, "lng": -55.341747, "ref_id": 5857833, "rating": 4, "num_reviews": 0, "website": "http://www.facebook.com/Island-Breeze-Restaurant-and-Take-Out-Grill-517625408322081/", "contact_phone": "+1 709-389-3663", "contact_email": null, "status": 1, "source_type": 1, "numberReviews": 14}, {"name": "Botwood Irving & Harbourview Cafe", "type": "restaurant", "image": "https://dynamic-media-cdn.tripadvisor.com/media/photo-o/28/e3/3a/89/we-have-regular-gasoline.jpg?w=1000&s=1", "address": "221 Water Street, Botwood, Newfoundland and Labrador A0H 1E0 Canada", "lat": 49.14088, "lng": -55.34285, "ref_id": 25397942, "rating": 3, "num_reviews": 0, "website": "https://www.allbiz.ca/botwood-irving-harbourview-caf%C3%A9-709-257-3818", "contact_phone": "+1 709-257-3818", "contact_email": "botwoodirving@gmail.com", "status": 1, "source_type": 1, "numberReviews": 4}, {"name": "Donninis Express", "type": "restaurant", "image": null, "address": "250 Water st, Botwood, Newfoundland and Labrador Canada", "lat": 49.14725, "lng": -55.341248, "ref_id": 17274058, "rating": -1, "num_reviews": 0, "website": null, "contact_phone": "+1 709-389-1313", "contact_email": null, "status": 1, "source_type": 1, "numberReviews": 0}, {"name": "The Station Diner", "type": "restaurant", "image": "https://dynamic-media-cdn.tripadvisor.com/media/photo-o/0c/34/df/51/the-seafood-basket-with.jpg?w=1000&s=1", "address": "Main Highway, On the Beach, Next to the Old Railway Line, Holyrood, Newfoundland and Labrador A0A 2R0 Canada", "lat": 47.3856, "lng": -53.128654, "ref_id": 4506882, "rating": 4, "num_reviews": 0, "website": "http://www.facebook.com/StationDinerHolyrood/", "contact_phone": "+1 709-229-3814", "contact_email": "stationdiner@outlook.com", "status": 1, "source_type": 1, "numberReviews": 109}, {"name": "Wong's House Restaurant", "type": "restaurant", "image": "https://dynamic-media-cdn.tripadvisor.com/media/photo-o/08/5c/bd/8d/chicken-balls-and-beef.jpg?w=1000&s=1", "address": "Conception Bay, Holyrood, Newfoundland and Labrador A0A 2R0 Canada", "lat": 47.4126, "lng": -53.111565, "ref_id": 764471, "rating": 4, "num_reviews": 0, "website": "https://www.facebook.com/1648319548822408", "contact_phone": "+1 709-229-7628", "contact_email": "", "status": 1, "source_type": 1, "numberReviews": 59}, {"name": "Mary Brown's Fried Chicken", "type": "restaurant", "image": null, "address": "Conception Bay Hwy, Holyrood, Newfoundland and Labrador A0A 2R0 Canada", "lat": 47.4126, "lng": -53.111565, "ref_id": 764468, "rating": 4, "num_reviews": 0, "website": "https://www.facebook.com/pages/category/Chicken-Joint/Mary-Browns-167607703937452/", "contact_phone": "+1 709-229-7232", "contact_email": "", "status": 1, "source_type": 1, "numberReviews": 17}, {"name": "Mama's Lunch Pizzeria", "type": "restaurant", "image": null, "address": "419 Main Rd, Holyrood, Newfoundland and Labrador A1B 4S1 Canada", "lat": 47.38604, "lng": -53.123707, "ref_id": 8307239, "rating": 4, "num_reviews": 0, "website": "http://www.facebook.com/Mamas-Pizza-Holyrood-598580940507292/", "contact_phone": "+1 709-229-5504", "contact_email": "wanigasiri@gmail.com", "status": 1, "source_type": 1, "numberReviews": 9}, {"name": "Fola's Diner", "type": "restaurant", "image": null, "address": "546 Salmonier Line, Holyrood, Newfoundland and Labrador A0A 2R0 Canada", "lat": 47.34738, "lng": -53.20601, "ref_id": 12831022, "rating": 5, "num_reviews": 0, "website": "http://www.facebook.com/folasdiner", "contact_phone": "+1 709-229-2200", "contact_email": null, "status": 1, "source_type": 1, "numberReviews": 2}, {"name": "Tim Hortons", "type": "restaurant", "image": null, "address": "3 Holyrood Pl, Holyrood, Newfoundland and Labrador A0A 2R0 Canada", "lat": 47.38343, "lng": -53.12327, "ref_id": 15262209, "rating": 4, "num_reviews": 0, "website": "http://www.timhortons.com/", "contact_phone": "+1 709-229-7227", "contact_email": "timhortons108111@timzone.com", "status": 1, "source_type": 1, "numberReviews": 1}, {"name": "Star Of The Sea Shamrock Room", "type": "restaurant", "image": null, "address": "Conception Bay Hwy, Holyrood, Newfoundland and Labrador A0A 2R0 Canada", "lat": 47.4126, "lng": -53.111565, "ref_id": 764469, "rating": -1, "num_reviews": 0, "website": "", "contact_phone": "+1 709-229-3395", "contact_email": "", "status": 1, "source_type": 1, "numberReviews": 0}, {"name": "The Hat Lounge Lounge & Eatery", "type": "restaurant", "image": null, "address": "379 Conception Bay Highway, Holyrood, Newfoundland and Labrador A0A 2R0 Canada", "lat": 47.38944, "lng": -53.121964, "ref_id": 24862509, "rating": -1, "num_reviews": 0, "website": "http://www.facebook.com/profile.php?id=100057383292227", "contact_phone": "+1 709-231-2606", "contact_email": "thehat.holyrood@gmail.com", "status": 1, "source_type": 1, "numberReviews": 0}, {"name": "Subway", "type": "restaurant", "image": null, "address": "386 Conception Bay Highway, Holyrood, Newfoundland and Labrador A0A 2R0 Canada", "lat": 47.38784, "lng": -53.123898, "ref_id": 20040612, "rating": -1, "num_reviews": 0, "website": "https://restaurants.subway.com/canada/nl/holyrood/386-conception-bay-highway?utm_source=yext-other&utm_medium=local&utm_term=acq&utm_content=39386&utm_campaign=evergreen-2020&y_source=1_mtq5mjexmtytnzy5lwxvy2f0aw9ulndlynnpdgu%3d", "contact_phone": "+1 709-229-7098", "contact_email": null, "status": 1, "source_type": 1, "numberReviews": 0}, {"name": "Saltbox and Everoutdoor Adventures", "type": "restaurant", "image": "https://dynamic-media-cdn.tripadvisor.com/media/photo-o/17/e6/43/fa/cod-fish-and-chips.jpg?w=1000&s=1", "address": "410 Main Street Benoit's Cove, Humber Arm South, Newfoundland and Labrador A0L 1A0 Canada", "lat": 49.007416, "lng": -58.127476, "ref_id": 17600411, "rating": 4.5, "num_reviews": 0, "website": "https://www.facebook.com/saltboxbenoitscove/", "contact_phone": "+1 709-789-3752", "contact_email": null, "status": 1, "source_type": 1, "numberReviews": 7}, {"name": "Boston Pizza", "type": "restaurant", "image": "https://dynamic-media-cdn.tripadvisor.com/media/photo-o/16/40/f6/e7/photo2jpg.jpg?w=1000&s=1", "address": "415 Stavanger Dr, St. John&#39;s, Newfoundland and Labrador A1A 0A1 Canada", "lat": 47.613934, "lng": -52.710953, "ref_id": 682867, "rating": 3.5, "num_reviews": 0, "website": "http://bostonpizza.com/stavanger", "contact_phone": "+1 709-738-5544", "contact_email": "", "status": 1, "source_type": 1, "numberReviews": 88}, {"name": "Cora's", "type": "restaurant", "image": "https://dynamic-media-cdn.tripadvisor.com/media/photo-o/18/c7/77/ce/decorations-and-tasty.jpg?w=1000&s=1", "address": "80 Kenmount Rd, St. John&#39;s, Newfoundland and Labrador A1B 3R1 Canada", "lat": 47.55839, "lng": -52.76024, "ref_id": 968950, "rating": 3.5, "num_reviews": 0, "website": "http://www.cora.com", "contact_phone": "+1 709-738-5555", "contact_email": "", "status": 1, "source_type": 1, "numberReviews": 138}, {"name": "Vu Resto & Bar", "type": "restaurant", "image": "https://dynamic-media-cdn.tripadvisor.com/media/photo-o/1c/97/c5/1d/pan-fried-cod-with-house.jpg?w=1000&s=1", "address": "115 Duckworth St, St. John&#39;s, Newfoundland and Labrador A1C 1E9 Canada", "lat": 47.56936, "lng": -52.70138, "ref_id": 20107019, "rating": 3.5, "num_reviews": 0, "website": "http://www.vustjohns.ca", "contact_phone": "+1 709-552-1635", "contact_email": "barry@vustjohns.ca", "status": 1, "source_type": 1, "numberReviews": 36}, {"name": "No. 4 Cathedral", "type": "restaurant", "image": "https://dynamic-media-cdn.tripadvisor.com/media/photo-o/18/d2/93/02/mac-n-cheese.jpg?w=1000&s=1", "address": "4 Cathedral Street, St. John&#39;s, Newfoundland and Labrador Canada", "lat": 47.56554, "lng": -52.70715, "ref_id": 16809033, "rating": 4, "num_reviews": 0, "website": "http://www.no4cathedral.com", "contact_phone": "+1 709-753-6600", "contact_email": null, "status": 1, "source_type": 1, "numberReviews": 27}, {"name": "Song Hee Take Out", "type": "restaurant", "image": "https://dynamic-media-cdn.tripadvisor.com/media/photo-o/15/f4/87/7f/combo-8-sweet-and-sour.jpg?w=1000&s=1", "address": "209 Empire Ave, St. John&#39;s, Newfoundland and Labrador A1C 3H2 Canada", "lat": 47.56581, "lng": -52.72877, "ref_id": 709125, "rating": 4.5, "num_reviews": 0, "website": "https://www.facebook.com/pages/Song-Hee/143448415798457", "contact_phone": "+1 709-722-6868", "contact_email": "", "status": 1, "source_type": 1, "numberReviews": 22}, {"name": "Shamrock City", "type": "restaurant", "image": null, "address": "355 Main Rd, Goulds, St. John&#39;s, Newfoundland and Labrador A1S 1J9 Canada", "lat": 47.463314, "lng": -52.77126, "ref_id": 7710598, "rating": 4.5, "num_reviews": 0, "website": "https://shamrockcity.ca", "contact_phone": "+1 709-237-8164", "contact_email": null, "status": 1, "source_type": 1, "numberReviews": 15}, {"name": "Wedgwood Cafe", "type": "restaurant", "image": null, "address": "17 Elizabeth Ave, St. John&#39;s, Newfoundland and Labrador A1A 1W6 Canada", "lat": 47.5848, "lng": -52.7088, "ref_id": 1575624, "rating": 4, "num_reviews": 0, "website": "https://www.wedgwoodcafe.com/", "contact_phone": "+1 709-726-1860", "contact_email": "p_wedgwood@hotmail.com", "status": 1, "source_type": 1, "numberReviews": 42}, {"name": "East Side Mario's", "type": "restaurant", "image": "https://dynamic-media-cdn.tripadvisor.com/media/photo-o/18/33/16/bd/food.jpg?w=1000&s=1", "address": "180 Portugal Cove Rd., St. John&#39;s, Newfoundland and Labrador A1B 2N2 Canada", "lat": 47.590317, "lng": -52.718704, "ref_id": 684378, "rating": 3.5, "num_reviews": 0, "website": "https://www.eastsidemarios.com/en/locations/nl/st.-johns/180-portugal-cove-rd.", "contact_phone": "+1 709-722-6900", "contact_email": "stjohns@eastsidemarios.com", "status": 1, "source_type": 1, "numberReviews": 215}, {"name": "Quintanas & Arribas", "type": "restaurant", "image": "https://dynamic-media-cdn.tripadvisor.com/media/photo-o/10/39/c3/a4/fajita-salad.jpg?w=1000&s=1", "address": "57 Rowan St, St. John&#39;s, Newfoundland and Labrador A1B 2X2 Canada", "lat": 47.574272, "lng": -52.72307, "ref_id": 981503, "rating": 3.5, "num_reviews": 0, "website": "http://www.quintanasandarribas.com/", "contact_phone": "+1 709-579-7000", "contact_email": "", "status": 1, "source_type": 1, "numberReviews": 113}, {"name": "The Salt House", "type": "restaurant", "image": "https://dynamic-media-cdn.tripadvisor.com/media/photo-o/17/36/e3/f1/the-salt-house.jpg?w=1000&s=1", "address": "171 Water St, St. John&#39;s, Newfoundland and Labrador A1C 1B1 Canada", "lat": 47.565044, "lng": -52.706104, "ref_id": 16867094, "rating": 3.5, "num_reviews": 0, "website": "http://www.facebook.com/thesalthousenl", "contact_phone": "+1 709-237-7258", "contact_email": null, "status": 1, "source_type": 1, "numberReviews": 91}, {"name": "Kimchi N Sushi LTD", "type": "restaurant", "image": "https://dynamic-media-cdn.tripadvisor.com/media/photo-o/0c/58/ee/95/20160731-160245-largejpg.jpg?w=1000&s=1", "address": "215 Water St Atlantic Place, St. John&#39;s, Newfoundland and Labrador A1C 6C9 Canada", "lat": 47.56319, "lng": -52.70733, "ref_id": 4848861, "rating": 4, "num_reviews": 0, "website": "http://www.facebook.com/kimchiandsushiwaterstreet", "contact_phone": "+1 709-221-5400", "contact_email": null, "status": 1, "source_type": 1, "numberReviews": 30}, {"name": "Mary Brown's", "type": "restaurant", "image": null, "address": "644 Topsail Rd, St. John&#39;s, Newfoundland and Labrador A1E 2E2 Canada", "lat": 47.52535, "lng": -52.77062, "ref_id": 4876273, "rating": 4, "num_reviews": 0, "website": "http://www.marybrowns.com/", "contact_phone": "+1 709-364-9233", "contact_email": null, "status": 1, "source_type": 1, "numberReviews": 16}, {"name": "Loong Wah Restaurant", "type": "restaurant", "image": "https://dynamic-media-cdn.tripadvisor.com/media/photo-o/23/d2/6d/d3/our-relaxing-and-cozy.jpg?w=1000&s=1", "address": "13 Lemarchant Rd, St. John&#39;s, Newfoundland and Labrador A1C 2G4 Canada", "lat": 47.56372, "lng": -52.71492, "ref_id": 706394, "rating": 4, "num_reviews": 0, "website": "http://www.lwnl.ca", "contact_phone": "+1 709-726-4811", "contact_email": "", "status": 1, "source_type": 1, "numberReviews": 24}, {"name": "Red Pepper Restaurant", "type": "restaurant", "image": "https://dynamic-media-cdn.tripadvisor.com/media/photo-o/1b/c7/a4/ac/photo0jpg.jpg?w=1000&s=1", "address": "31 Peet St, St. John&#39;s, Newfoundland and Labrador A1B 3W8 Canada", "lat": 47.558895, "lng": -52.760746, "ref_id": 708262, "rating": 4, "num_reviews": 0, "website": "https://redpeppernl.wordpress.com/", "contact_phone": "+1 709-753-5999", "contact_email": "", "status": 1, "source_type": 1, "numberReviews": 40}, {"name": "Rocky Mountain Chocolate Factory", "type": "restaurant", "image": "https://dynamic-media-cdn.tripadvisor.com/media/photo-o/19/c2/12/0d/photo0jpg.jpg?w=1000&s=1", "address": "282 Water St, St. John&#39;s, Newfoundland and Labrador A1C 1B7 Canada", "lat": 47.562542, "lng": -52.709343, "ref_id": 12718873, "rating": 4, "num_reviews": 0, "website": null, "contact_phone": null, "contact_email": null, "status": 1, "source_type": 1, "numberReviews": 21}, {"name": "Bivver", "type": "restaurant", "image": "https://dynamic-media-cdn.tripadvisor.com/media/photo-o/09/65/92/7d/bivver.jpg?w=1000&s=1", "address": "115 Cavendish Sq, St. John&#39;s, Newfoundland and Labrador A1C 3K2 Canada", "lat": 47.57139, "lng": -52.7001, "ref_id": 1887800, "rating": 3.5, "num_reviews": 0, "website": "http://www.marriott.com/hotels/travel/yytsi-sheraton-hotel-newfoundland?program=spg", "contact_phone": "+1 709-726-4980", "contact_email": "", "status": 1, "source_type": 1, "numberReviews": 53}, {"name": "Mea Mei Wok Eatery", "type": "restaurant", "image": null, "address": "12 Freshwater Rd, St. John&#39;s, Newfoundland and Labrador A1C 2M9 Canada", "lat": 47.564106, "lng": -52.715454, "ref_id": 687106, "rating": 4, "num_reviews": 0, "website": "https://www.facebook.com/135416559817849", "contact_phone": "+1 709-726-8424", "contact_email": "", "status": 1, "source_type": 1, "numberReviews": 10}, {"name": "Jungle Jim's Bar & Eatery", "type": "restaurant", "image": "https://dynamic-media-cdn.tripadvisor.com/media/photo-o/0b/fc/76/6a/guests-enjoying-a-conversation.jpg?w=1000&s=1", "address": "657 Topsail Rd, St. John&#39;s, Newfoundland and Labrador A1E 2E3 Canada", "lat": 47.5241, "lng": -52.77075, "ref_id": 5068383, "rating": 3.5, "num_reviews": 0, "website": "http://www.junglejims.ca", "contact_phone": "+1 709-745-6060", "contact_email": null, "status": 1, "source_type": 1, "numberReviews": 34}, {"name": "Ches's Fish and Chips", "type": "restaurant", "image": "https://dynamic-media-cdn.tripadvisor.com/media/photo-o/19/ba/c8/eb/ches-s-fish-and-chips.jpg?w=1000&s=1", "address": "207 Kenmount Road, St. John&#39;s, Newfoundland and Labrador Canada", "lat": 47.553383, "lng": -52.77092, "ref_id": 6865140, "rating": 3.5, "num_reviews": 0, "website": "http://www.chessfishandchips.ca", "contact_phone": "+1 709-576-7659", "contact_email": null, "status": 1, "source_type": 1, "numberReviews": 66}, {"name": "Belbin's Grocery", "type": "restaurant", "image": "https://dynamic-media-cdn.tripadvisor.com/media/photo-o/2a/4a/50/3b/gyt67y789.jpg?w=1000&s=1", "address": "85 Quidi Vidi Rd, St. John&#39;s, Newfoundland and Labrador A1A 1C2 Canada", "lat": 47.57427, "lng": -52.69763, "ref_id": 12970717, "rating": 5, "num_reviews": 0, "website": "http://www.belbins.com", "contact_phone": "+1 709-576-7640", "contact_email": null, "status": 1, "source_type": 1, "numberReviews": 5}, {"name": "Toslow", "type": "restaurant", "image": "https://dynamic-media-cdn.tripadvisor.com/media/photo-o/1d/a4/ac/dc/toslow-upstairs.jpg?w=1000&s=1", "address": "108 Duckworth St, St. John&#39;s, Newfoundland and Labrador A1C 1E8 Canada", "lat": 47.56987, "lng": -52.70157, "ref_id": 23597877, "rating": 5, "num_reviews": 0, "website": "https://www.facebook.com/255960021939691", "contact_phone": "+1 709-400-6655", "contact_email": null, "status": 1, "source_type": 1, "numberReviews": 3}, {"name": "Sis's Seafood", "type": "restaurant", "image": null, "address": "288 Main Rd, Goulds, St. John&#39;s, Newfoundland and Labrador A1S 1H9 Canada", "lat": 47.46921, "lng": -52.77095, "ref_id": 17726234, "rating": 5, "num_reviews": 0, "website": "https://www.facebook.com/1848024048595347", "contact_phone": "+1 709-221-4568", "contact_email": null, "status": 1, "source_type": 1, "numberReviews": 4}, {"name": "Jungle Jim's", "type": "restaurant", "image": "https://dynamic-media-cdn.tripadvisor.com/media/photo-o/13/d1/65/8f/my-husband-s-burger.jpg?w=1000&s=1", "address": "286 Torbay Rd, St. John&#39;s, Newfoundland and Labrador A1A 4L6 Canada", "lat": 47.60269, "lng": -52.71416, "ref_id": 705451, "rating": 3, "num_reviews": 0, "website": "http://www.junglejims.ca/Locations", "contact_phone": "+1 709-722-0261", "contact_email": "", "status": 1, "source_type": 1, "numberReviews": 114}, {"name": "Ches's Fish and Chips", "type": "restaurant", "image": "https://dynamic-media-cdn.tripadvisor.com/media/photo-o/12/8c/49/e2/photo0jpg.jpg?w=1000&s=1", "address": "11-655 Topsail Rd, St. John&#39;s, Newfoundland and Labrador A1E 2E3 Canada", "lat": 47.5244, "lng": -52.76976, "ref_id": 764614, "rating": 3.5, "num_reviews": 0, "website": "http://www.chessfishandchips.ca/home.html", "contact_phone": "+1 709-368-9473", "contact_email": "kathy@chessfishandchips.ca", "status": 1, "source_type": 1, "numberReviews": 59}, {"name": "Mary Brown's Diner", "type": "restaurant", "image": "https://dynamic-media-cdn.tripadvisor.com/media/photo-o/1b/15/94/3f/20200226-171748-largejpg.jpg?w=1000&s=1", "address": "571 Torbay Rd, St. John&#39;s, Newfoundland and Labrador A1A 5G9 Canada", "lat": 47.61248, "lng": -52.72315, "ref_id": 12078590, "rating": 3.5, "num_reviews": 0, "website": "http://www.marybrowns.com", "contact_phone": "+1 709-754-5447", "contact_email": null, "status": 1, "source_type": 1, "numberReviews": 19}, {"name": "Acropolis Pizza", "type": "restaurant", "image": "https://dynamic-media-cdn.tripadvisor.com/media/photo-o/12/51/f4/59/photo0jpg.jpg?w=1000&s=1", "address": "Glenhill Plaza, St. John&#39;s, Newfoundland and Labrador Canada", "lat": 47.60109, "lng": -52.70175, "ref_id": 681685, "rating": 4, "num_reviews": 0, "website": "http://www.acropolispizza.ca/", "contact_phone": "+1 709-745-2002", "contact_email": "", "status": 1, "source_type": 1, "numberReviews": 28}, {"name": "Wendy's", "type": "restaurant", "image": null, "address": "272 Torbay Road, St. John&#39;s, Newfoundland and Labrador A1A 4E1 Canada", "lat": 47.602074, "lng": -52.71334, "ref_id": 5107703, "rating": 4, "num_reviews": 0, "website": "https://locations.wendys.com/canada/nl/st-john's/272-torbay-road", "contact_phone": "+1 709-753-5985", "contact_email": null, "status": 1, "source_type": 1, "numberReviews": 8}, {"name": "Greco Pizza", "type": "restaurant", "image": "https://dynamic-media-cdn.tripadvisor.com/media/photo-o/2a/91/89/75/atlantic-canada-s-leading.jpg?w=1000&s=1", "address": "350 Torbay Rd, St. John&#39;s, Newfoundland and Labrador A1A 4E1 Canada", "lat": 47.60401, "lng": -52.714764, "ref_id": 5293072, "rating": 4.5, "num_reviews": 0, "website": "http://greco.ca/", "contact_phone": "+1 709-738-3030", "contact_email": null, "status": 1, "source_type": 1, "numberReviews": 7}, {"name": "Mary Brown's", "type": "restaurant", "image": null, "address": "250 Blackmarsh Rd, St. John&#39;s, Newfoundland and Labrador A1E 1T2 Canada", "lat": 47.54519, "lng": -52.74236, "ref_id": 4851217, "rating": 4, "num_reviews": 0, "website": "https://marybrowns.com/", "contact_phone": "+1 709-738-4242", "contact_email": null, "status": 1, "source_type": 1, "numberReviews": 10}, {"name": "Ches's Snacks Ltd", "type": "restaurant", "image": "https://dynamic-media-cdn.tripadvisor.com/media/photo-o/0c/ff/24/e3/disappointed.jpg?w=1000&s=1", "address": "8 Highland Dr, St. John&#39;s, Newfoundland and Labrador A1A 3C4 Canada", "lat": 47.6052, "lng": -52.71588, "ref_id": 4874200, "rating": 3.5, "num_reviews": 0, "website": "http://www.chessfishandchips.ca", "contact_phone": "+1 709-738-5022", "contact_email": null, "status": 1, "source_type": 1, "numberReviews": 27}, {"name": "Greco Pizza Xpress - Plum Point", "type": "restaurant", "image": null, "address": "Hwy 430 Plum Point Motel, Plum Point, Newfoundland and Labrador A0K 4A0 Canada", "lat": 51.075, "lng": -56.884438, "ref_id": 17720948, "rating": -1, "num_reviews": 0, "website": "https://www.facebook.com/GrecoPizzaXpressPlumPoint/", "contact_phone": "+1 709-247-2533", "contact_email": null, "status": 1, "source_type": 1, "numberReviews": 0}, {"name": "Viking 430 Restaurant/Gas Station", "type": "restaurant", "image": "https://dynamic-media-cdn.tripadvisor.com/media/photo-o/2a/3b/53/5f/caption.jpg?w=1000&s=1", "address": "Route 430, Reef's Harbour, Newfoundland and Labrador A0K 4L0 Canada", "lat": 50.596554, "lng": -57.176266, "ref_id": 26588836, "rating": 5, "num_reviews": 0, "website": null, "contact_phone": "+1 709-847-2151", "contact_email": null, "status": 1, "source_type": 1, "numberReviews": 1}, {"name": "Greco Pizza Xpress", "type": "restaurant", "image": null, "address": "289 Main St Route 320 Gas Bar, Hare Bay, Newfoundland and Labrador A0G 2P0 Canada", "lat": 48.866592, "lng": -53.99213, "ref_id": 17720961, "rating": -1, "num_reviews": 0, "website": "http://greco.ca/", "contact_phone": "+1 709-537-2324", "contact_email": null, "status": 1, "source_type": 1, "numberReviews": 0}, {"name": "Main Brook Park Restaurant", "type": "restaurant", "image": "https://dynamic-media-cdn.tripadvisor.com/media/photo-o/1b/78/11/6c/a-view-from-the-other.jpg?w=1000&s=1", "address": "Route 432, Main Brook, Newfoundland and Labrador A0K 3N0 Canada", "lat": 51.18249, "lng": -56.02118, "ref_id": 14925751, "rating": -1, "num_reviews": 0, "website": "https://www.facebook.com/mainbrookpark/", "contact_phone": "+1 709-865-3200", "contact_email": null, "status": 1, "source_type": 1, "numberReviews": 0}, {"name": "T.L.P. Restaurant", "type": "restaurant", "image": "https://dynamic-media-cdn.tripadvisor.com/media/photo-o/13/fa/9b/63/inside-the-dining-room.jpg?w=1000&s=1", "address": "94 Main Street, Newfoundland and Labrador A0G 1R0 Canada", "lat": 49.196114, "lng": -55.28211, "ref_id": 1110190, "rating": 4.5, "num_reviews": 0, "website": "http://www.tlprestaurant.ca", "contact_phone": "+1 709-621-3381", "contact_email": "", "status": 1, "source_type": 1, "numberReviews": 21}, {"name": "Bernard Kavanagh's Million Dollar View Restaurant & Takeout", "type": "restaurant", "image": "https://dynamic-media-cdn.tripadvisor.com/media/photo-o/11/0e/35/7a/interior-of-restaurant.jpg?w=1000&s=1", "address": "Highway 10 Between Barkhouse Rd and Sunny Hill, Ferryland, Newfoundland and Labrador A0A 2H0 Canada", "lat": 47.02578, "lng": -52.88438, "ref_id": 9803765, "rating": 4, "num_reviews": 0, "website": "http://www.facebook.com/pages/Bernard-Kavanaghs-Restaurant/185816134813001", "contact_phone": "+1 709-432-2220", "contact_email": null, "status": 1, "source_type": 1, "numberReviews": 62}, {"name": "Irish Loop", "type": "restaurant", "image": "https://dynamic-media-cdn.tripadvisor.com/media/photo-o/11/05/a2/9f/photo5jpg.jpg?w=1000&s=1", "address": "Nl-10, Ferryland, Newfoundland and Labrador A0A 2H0 Canada", "lat": 47.03556, "lng": -52.88361, "ref_id": 2309193, "rating": 4, "num_reviews": 0, "website": "https://www.facebook.com/bernardkavanaghs/", "contact_phone": "+1 709-432-2220", "contact_email": "", "status": 1, "source_type": 1, "numberReviews": 38}, {"name": "Squid Jigger", "type": "restaurant", "image": "https://dynamic-media-cdn.tripadvisor.com/media/photo-o/18/d6/0b/d4/clubhouse-sandwich.jpg?w=1000&s=1", "address": "75 Main Rd, Ferryland, Newfoundland and Labrador A0A 1P0 Canada", "lat": 47.048553, "lng": -52.89947, "ref_id": 12911930, "rating": 4, "num_reviews": 0, "website": null, "contact_phone": "+1 709-432-3330", "contact_email": null, "status": 1, "source_type": 1, "numberReviews": 18}, {"name": "Titles tea room by the sea", "type": "restaurant", "image": "https://dynamic-media-cdn.tripadvisor.com/media/photo-o/10/13/fa/78/best-tea-bun-scone-ever.jpg?w=1000&s=1", "address": "15-25 Pool Road, Ferryland, Newfoundland and Labrador A0A 2H0 Canada", "lat": 47.02354, "lng": -52.88469, "ref_id": 10910827, "rating": 4, "num_reviews": 0, "website": "https://www.facebook.com/TetleyTeaRoom/", "contact_phone": "+1 709-432-2052", "contact_email": null, "status": 1, "source_type": 1, "numberReviews": 22}, {"name": "Fork", "type": "restaurant", "image": "https://dynamic-media-cdn.tripadvisor.com/media/photo-o/1c/6c/7a/04/lovely-fish-cakes.jpg?w=1000&s=1", "address": "52 Cod Seine Cove Road Mobile, Mobile, Newfoundland and Labrador A0A 4K0 Canada", "lat": 47.2409, "lng": -52.83368, "ref_id": 12505832, "rating": 5, "num_reviews": 0, "website": "http://www.forkrestaurantnl.com", "contact_phone": "+1 709-743-3490", "contact_email": "forkrestaurantnl@gmail.com", "status": 1, "source_type": 1, "numberReviews": 69}, {"name": "The Captain's Table", "type": "restaurant", "image": "https://dynamic-media-cdn.tripadvisor.com/media/photo-o/18/83/ab/3d/waterfront-diorama-near.jpg?w=1000&s=1", "address": "21 Main Road Route 10, Irish Loop, Mobile, Newfoundland and Labrador A0A 3A0 Canada", "lat": 47.58156, "lng": -53.22589, "ref_id": 4783884, "rating": 4, "num_reviews": 0, "website": "http://www.facebook.com/TheCaptainsTable", "contact_phone": "+1 709-334-2278", "contact_email": "thecaptainstable709@gmail.com", "status": 1, "source_type": 1, "numberReviews": 176}, {"name": "Big Tom's Snack Shack And Ocean Tours", "type": "restaurant", "image": "https://dynamic-media-cdn.tripadvisor.com/media/photo-o/1b/ee/2e/5a/big-tom-s-snack-shack.jpg?w=1000&s=1", "address": "250 Main Rd, York Harbour, Newfoundland and Labrador A0L 1L0 Canada", "lat": 49.051647, "lng": -58.357193, "ref_id": 21239258, "rating": -1, "num_reviews": 0, "website": "http://www.bigtomssnackshackandoceantours.com/", "contact_phone": "+1 709-681-2244", "contact_email": null, "status": 1, "source_type": 1, "numberReviews": 0}, {"name": "Northern Delight", "type": "restaurant", "image": "https://dynamic-media-cdn.tripadvisor.com/media/photo-o/18/cc/e2/2c/northern-delight.jpg?w=1000&s=1", "address": "Main Street, Gunners Cove, Newfoundland and Labrador A0K 2X0 Canada", "lat": 51.5458, "lng": -55.47607, "ref_id": 1867374, "rating": 4.5, "num_reviews": 0, "website": "https://www.grenfellheritagehotel.ca/index.php/about/restaurants/138-northern-delight-restaurant", "contact_phone": "+1 709-623-2220", "contact_email": null, "status": 1, "source_type": 1, "numberReviews": 218}, {"name": "Cashin's Chestnut Tree Cafe", "type": "restaurant", "image": "https://dynamic-media-cdn.tripadvisor.com/media/photo-o/13/cb/91/ae/cashin-s-chestnut-tree.jpg?w=1000&s=1", "address": "7A Station Rd, Gambo, Newfoundland and Labrador A0G 2E0 Canada", "lat": 48.765804, "lng": -54.224545, "ref_id": 3474809, "rating": 4.5, "num_reviews": 0, "website": "http://www.facebook.com/CashinsChestnutTreeCafe", "contact_phone": "+1 709-674-4696", "contact_email": "bill_cashin@hotmail.com", "status": 1, "source_type": 1, "numberReviews": 55}, {"name": "Gill's Grill", "type": "restaurant", "image": "https://dynamic-media-cdn.tripadvisor.com/media/photo-o/1d/09/08/8b/chicken-and-rib-combo.jpg?w=1000&s=1", "address": "70 Jr Smallwood Blvd, Gambo, Newfoundland and Labrador A0G 1T0 Canada", "lat": 48.75918, "lng": -54.231113, "ref_id": 10459370, "rating": 4.5, "num_reviews": 0, "website": "https://www.facebook.com/1706406612972621", "contact_phone": "+1 709-674-7588", "contact_email": null, "status": 1, "source_type": 1, "numberReviews": 30}, {"name": "Cashin's Chestnut Tree Cafe", "type": "restaurant", "image": null, "address": "7A Station Road, Gambo, Newfoundland and Labrador A0G 2E0 Canada", "lat": 48.76495, "lng": -54.22478, "ref_id": 13952695, "rating": 4.5, "num_reviews": 0, "website": "https://www.facebook.com/CashinsChestnutTreeCafe/", "contact_phone": "+1 709-674-4696", "contact_email": null, "status": 1, "source_type": 1, "numberReviews": 5}, {"name": "Vonnie Lee Chicken", "type": "restaurant", "image": null, "address": "469 Smallwood Blvd, Gambo, Newfoundland and Labrador A0G 1T0 Canada", "lat": 48.80217, "lng": -54.20776, "ref_id": 7133633, "rating": 3, "num_reviews": 0, "website": "http://vonnie-lee-chicken.edan.io/", "contact_phone": "+1 709-674-5002", "contact_email": null, "status": 1, "source_type": 1, "numberReviews": 6}, {"name": "Poppy's Family Pizza", "type": "restaurant", "image": null, "address": "336 Jr Smallwood Blvd, Gambo, Newfoundland and Labrador Canada", "lat": 48.78837, "lng": -54.209633, "ref_id": 27267396, "rating": -1, "num_reviews": 0, "website": "https://www.facebook.com/2237721353158628", "contact_phone": "+1 709-524-2088", "contact_email": null, "status": 1, "source_type": 1, "numberReviews": 0}, {"name": "Joey's Lookout", "type": "restaurant", "image": null, "address": "Trans Canada Hwy, Gambo, Newfoundland and Labrador Canada", "lat": 48.75938, "lng": -54.234684, "ref_id": 27810303, "rating": -1, "num_reviews": 0, "website": "http://www.explorenewfoundlandandlabrador.com/newfoundland-photos/joey's-lookout-gambo.htm", "contact_phone": null, "contact_email": null, "status": 1, "source_type": 1, "numberReviews": 0}, {"name": "Jackladder", "type": "restaurant", "image": "https://dynamic-media-cdn.tripadvisor.com/media/photo-o/08/e2/56/82/jackladder.jpg?w=1000&s=1", "address": "Route 430 Big Bonne Bay Pond, Viking Trail, Bonne Bay, Gros Morne National Park, Newfoundland and Labrador A8A 3N3 Canada", "lat": 49.36566, "lng": -57.58204, "ref_id": 7111937, "rating": 4, "num_reviews": 0, "website": "http://jackladder.ca/", "contact_phone": "+1 709-635-5000", "contact_email": "info@jackladder.ca", "status": 1, "source_type": 1, "numberReviews": 25}, {"name": "Mary Browns", "type": "restaurant", "image": null, "address": "30 Canada Dr, Harbour Breton, Newfoundland and Labrador A0H 1P0 Canada", "lat": 47.4892, "lng": -55.84057, "ref_id": 4880061, "rating": 5, "num_reviews": 0, "website": "http://www.marybrowns.com", "contact_phone": "+1 709-885-3300", "contact_email": null, "status": 1, "source_type": 1, "numberReviews": 4}, {"name": "Elliott Premises", "type": "restaurant", "image": null, "address": "37 Elliott Dr, Harbour Breton, Newfoundland and Labrador Canada", "lat": 47.48031, "lng": -55.80523, "ref_id": 27248622, "rating": -1, "num_reviews": 0, "website": "https://www.facebook.com/611546489192373", "contact_phone": "+1 709-885-2221", "contact_email": null, "status": 1, "source_type": 1, "numberReviews": 0}, {"name": "Greco Pizza Xpress", "type": "restaurant", "image": "https://dynamic-media-cdn.tripadvisor.com/media/photo-o/18/46/33/bf/free-flavoured-crust.jpg?w=1000&s=1", "address": "98 Canada Dr #96, Harbour Breton, Newfoundland and Labrador A0H 1P0 Canada", "lat": 47.46998, "lng": -55.82867, "ref_id": 17724740, "rating": -1, "num_reviews": 0, "website": "https://greco.ca/", "contact_phone": "+1 709-885-2283", "contact_email": null, "status": 1, "source_type": 1, "numberReviews": 0}, {"name": "Mike's Backyard Restaurant Lounge & Patio", "type": "restaurant", "image": null, "address": "6-8 Cormier Avenue 538-3655, Saint Alban's, Newfoundland and Labrador A0H 2E0 Canada", "lat": 47.8799, "lng": -55.84455, "ref_id": 12691074, "rating": 4, "num_reviews": 0, "website": "https://www.facebook.com/MikesBackyardRestaurantLoungePatio/", "contact_phone": null, "contact_email": "dudropinn@gmail.com", "status": 1, "source_type": 1, "numberReviews": 2}, {"name": "Burnt Cape Cafe", "type": "restaurant", "image": "https://dynamic-media-cdn.tripadvisor.com/media/photo-o/0c/8a/a6/5f/photo1jpg.jpg?w=1000&s=1", "address": "Nl-430, Raleigh, Newfoundland and Labrador A0K 4J0 Canada", "lat": 51.557583, "lng": -55.73007, "ref_id": 4763599, "rating": 4.5, "num_reviews": 0, "website": "www.burntcape.com", "contact_phone": "+1 709-452-3521", "contact_email": "info@burntcape.com", "status": 1, "source_type": 1, "numberReviews": 71}, {"name": "Chow Time Food Hall", "type": "restaurant", "image": null, "address": "2411 E. Millbrook Road; Suite 106, Raleigh, Newfoundland and Labrador 27604 Canada", "lat": null, "lng": null, "ref_id": 23307387, "rating": -1, "num_reviews": 0, "website": "https://chowtimefoodhall.com/", "contact_phone": "+1 919-921-8228", "contact_email": null, "status": 1, "source_type": 1, "numberReviews": 0}, {"name": "A&w", "type": "restaurant", "image": null, "address": "118 Trans-canada Highway, Gander, Newfoundland and Labrador A1V 1P8 Canada", "lat": 48.95301, "lng": -54.6209, "ref_id": 27810580, "rating": -1, "num_reviews": 0, "website": "https://web.aw.ca/", "contact_phone": "+1 709-256-2170", "contact_email": null, "status": 1, "source_type": 1, "numberReviews": 0}, {"name": "Tai Sun Restaurant", "type": "restaurant", "image": null, "address": "298 Airport Blvd, Gander, Newfoundland and Labrador A1V 1X5 Canada", "lat": 48.953777, "lng": -54.60199, "ref_id": 27212463, "rating": -1, "num_reviews": 0, "website": null, "contact_phone": "+1 709-651-2801", "contact_email": null, "status": 1, "source_type": 1, "numberReviews": 0}, {"name": "Greco Pizza Xpress", "type": "restaurant", "image": "https://dynamic-media-cdn.tripadvisor.com/media/photo-o/18/03/7c/da/getlstd-property-photo.jpg?w=1000&s=1", "address": "122 Main Street, Gander, Newfoundland and Labrador A0G 2G0 Canada", "lat": 49.49171, "lng": -54.79734, "ref_id": 17652473, "rating": -1, "num_reviews": 0, "website": "http://www.greco.ca", "contact_phone": "+1 709-310-3030", "contact_email": null, "status": 1, "source_type": 1, "numberReviews": 0}, {"name": "Greco Pizza", "type": "restaurant", "image": null, "address": "83 Elizabeth Drive, Gander, Newfoundland and Labrador A1V 1J9 Canada", "lat": 48.955242, "lng": -54.60825, "ref_id": 26282393, "rating": -1, "num_reviews": 0, "website": "greco.ca", "contact_phone": "+1 709-651-3030", "contact_email": null, "status": 1, "source_type": 1, "numberReviews": 0}, {"name": "Par70 By Chef Josh", "type": "restaurant", "image": null, "address": "251 Trans Canada Highway, Gander, Newfoundland and Labrador A1V 1W8 Canada", "lat": 48.95683, "lng": -54.60918, "ref_id": 25788161, "rating": -1, "num_reviews": 0, "website": "https://www.facebook.com/Par70byChefJosh/?ref=page_internal", "contact_phone": "+1 709-256-4653", "contact_email": "par70bycj@gmail.com", "status": 1, "source_type": 1, "numberReviews": 0}, {"name": "The Shawarma Station", "type": "restaurant", "image": null, "address": "30 Armstrong Blvd., Gander, Newfoundland and Labrador A1v2v2 Canada", "lat": null, "lng": null, "ref_id": 28025087, "rating": -1, "num_reviews": 0, "website": "https://www.facebook.com/theshawarmastationest21?mibextid=jrokgi", "contact_phone": "+17093810335", "contact_email": "letseat@theshawarmastation.ca", "status": 1, "source_type": 1, "numberReviews": 0}, {"name": "Corner Pocket Sports Bar & Billiards Room", "type": "restaurant", "image": null, "address": "261 Airport Blvd, Gander, Newfoundland and Labrador A1V 1L5 Canada", "lat": 48.955368, "lng": -54.604042, "ref_id": 27212512, "rating": -1, "num_reviews": 0, "website": "https://www.facebook.com/278558135965010", "contact_phone": "+1 709-651-8000", "contact_email": null, "status": 1, "source_type": 1, "numberReviews": 0}, {"name": "Chocolate Moose Bakery & Cafe", "type": "restaurant", "image": "https://dynamic-media-cdn.tripadvisor.com/media/photo-o/11/48/f6/55/upstairs-cafe.jpg?w=1000&s=1", "address": "Tableland Drive Birchy Head, upstairs at Roy Young Ltd, watch for the big Moose!, Glenburnie, Gros Morne National Park, Newfoundland and Labrador A0K 1K0 Canada", "lat": 49.44037, "lng": -57.901997, "ref_id": 12692963, "rating": 5, "num_reviews": 0, "website": "https://www.facebook.com/chocolatemooseNL/", "contact_phone": "+1 709-458-8529", "contact_email": "smiholdings@outlook.com", "status": 1, "source_type": 1, "numberReviews": 2}, {"name": "The Old Loft Restaurant", "type": "restaurant", "image": "https://dynamic-media-cdn.tripadvisor.com/media/photo-o/06/6a/05/8f/cod-fish-burger.jpg?w=1000&s=1", "address": "Water St., Woody Point, Gros Morne National Park, Newfoundland and Labrador Canada", "lat": 49.50055, "lng": -57.913574, "ref_id": 1832769, "rating": 4.5, "num_reviews": 0, "website": "http://www.facebook.com/The-Old-Loft-Restaurant-507336242729155/?rf=1602383470086351", "contact_phone": "+1 709-453-2294", "contact_email": "info@theoldloft.com", "status": 1, "source_type": 1, "numberReviews": 310}, {"name": "Merchant Warehouse Retro Cafe and Wine Bar", "type": "restaurant", "image": "https://dynamic-media-cdn.tripadvisor.com/media/photo-o/13/2b/a3/8e/fishbasket.jpg?w=1000&s=1", "address": "16 Water St, Woody Point, Gros Morne National Park, Newfoundland and Labrador A0K 1P0 Canada", "lat": 49.50083, "lng": -57.913334, "ref_id": 4778891, "rating": 4, "num_reviews": 0, "website": "http://www.grosmorneescapes.com", "contact_phone": "+1 709-453-2416", "contact_email": null, "status": 1, "source_type": 1, "numberReviews": 187}, {"name": "Blue Ocean Dining Room at Bonne Bay Inn", "type": "restaurant", "image": "https://dynamic-media-cdn.tripadvisor.com/media/photo-o/13/39/86/a4/blue-ocean-dining-room.jpg?w=1000&s=1", "address": "145 Main Road Hwy 431, Bonne Bay Inn, Woody Point, Gros Morne National Park, Newfoundland and Labrador A0K 1P0 Canada", "lat": 49.497383, "lng": -57.92014, "ref_id": 8466690, "rating": 4.5, "num_reviews": 0, "website": "http://woodypointmagic.com/bonne-bay-inn/blue-ocean-dining-room/", "contact_phone": "+1 709-453-2223", "contact_email": "reservations@woodypointmagic.com", "status": 1, "source_type": 1, "numberReviews": 66}, {"name": "Seaside Deli & Dairy Bar", "type": "restaurant", "image": "https://dynamic-media-cdn.tripadvisor.com/media/photo-o/19/53/66/cf/photo0jpg.jpg?w=1000&s=1", "address": "39 Water Street, Woody Point, Gros Morne National Park, Newfoundland and Labrador A0K 1P0 Canada", "lat": 49.501247, "lng": -57.913795, "ref_id": 4579179, "rating": 4.5, "num_reviews": 0, "website": "http://woodypointmagic.com/seaside-suites/deli-dairy-bar", "contact_phone": "+1 709-453-2777", "contact_email": null, "status": 1, "source_type": 1, "numberReviews": 59}, {"name": "The Shed", "type": "restaurant", "image": null, "address": "20 Cox's Lane, Woody Point, Gros Morne National Park, Newfoundland and Labrador A0K 1P0 Canada", "lat": 45.814587, "lng": -61.476746, "ref_id": 27985610, "rating": 5, "num_reviews": 0, "website": null, "contact_phone": null, "contact_email": null, "status": 1, "source_type": 1, "numberReviews": 1}, {"name": "Cafe 59", "type": "restaurant", "image": "https://dynamic-media-cdn.tripadvisor.com/media/photo-o/11/f3/e5/d2/photo0jpg.jpg?w=1000&s=1", "address": "59 Main St Pasadena, Newfoundland and Labrador, Pasadena, Newfoundland and Labrador A0L 1K0 Canada", "lat": 49.012604, "lng": -57.60355, "ref_id": 8279838, "rating": 5, "num_reviews": 0, "website": "http://www.cafe59.ca", "contact_phone": "+1 709-394-5959", "contact_email": "info@cafe59.ca", "status": 1, "source_type": 1, "numberReviews": 44}, {"name": "Oasis Grillhouse", "type": "restaurant", "image": "https://dynamic-media-cdn.tripadvisor.com/media/photo-o/05/ab/60/af/oasis-grillhouse-pasadena.jpg?w=1000&s=1", "address": "2A Ryans Road, Pasadena, Newfoundland and Labrador A0L 1K0 Canada", "lat": 49.01283, "lng": -57.6382, "ref_id": 4849851, "rating": 4, "num_reviews": 0, "website": "https://www.facebook.com/PasadenaBeach/", "contact_phone": "+1 709-686-5707", "contact_email": "oasisgrillhouse686@outlook.com", "status": 1, "source_type": 1, "numberReviews": 20}, {"name": "Old School Eatery", "type": "restaurant", "image": null, "address": "975 N Michillinda Ave, Pasadena, Newfoundland and Labrador 91107 Canada", "lat": null, "lng": null, "ref_id": 7312561, "rating": 4, "num_reviews": 0, "website": null, "contact_phone": "+1 626-351-0388", "contact_email": null, "status": 1, "source_type": 1, "numberReviews": 1}, {"name": "Robin's Donuts", "type": "restaurant", "image": null, "address": "42 Main St, Pasadena, Newfoundland and Labrador A0L 1K0 Canada", "lat": 49.0121, "lng": -57.61604, "ref_id": 14023227, "rating": 3, "num_reviews": 0, "website": "http://www.robinsdonuts.com", "contact_phone": "+1 709-394-0670", "contact_email": null, "status": 1, "source_type": 1, "numberReviews": 7}, {"name": "Mary Brown's Chicken & Taters", "type": "restaurant", "image": null, "address": "63-69 Main Street, Pasadena, Newfoundland and Labrador Canada", "lat": 49.01302, "lng": -57.60107, "ref_id": 27278122, "rating": -1, "num_reviews": 0, "website": "http://marybrowns.com/", "contact_phone": "+1 709-686-2111", "contact_email": null, "status": 1, "source_type": 1, "numberReviews": 0}, {"name": "Scoff and Swig Kitchen", "type": "restaurant", "image": null, "address": "54A Main st, Wesleyville, New-Wes-Valley, Newfoundland and Labrador A0G 1B0 Canada", "lat": 49.196934, "lng": -55.273903, "ref_id": 12459262, "rating": 5, "num_reviews": 0, "website": "https://www.facebook.com/scoffswig/?ref=page_internal", "contact_phone": "+1 709-536-3399", "contact_email": null, "status": 1, "source_type": 1, "numberReviews": 6}, {"name": "Karma Kafe and Find Junque", "type": "restaurant", "image": "https://dynamic-media-cdn.tripadvisor.com/media/photo-o/18/36/09/d0/20190706-105834-largejpg.jpg?w=1000&s=1", "address": "120 Main Street, Newtown, New-Wes-Valley, Newfoundland and Labrador A0G 3L0 Canada", "lat": 49.20509, "lng": -53.51631, "ref_id": 17456221, "rating": 5, "num_reviews": 0, "website": "https://www.facebook.com/cafeandcollectables/", "contact_phone": "+1 709-486-1275", "contact_email": "flocross60@gmail.com", "status": 1, "source_type": 1, "numberReviews": 3}, {"name": "Olde Shoppe Restaurant", "type": "restaurant", "image": "https://dynamic-media-cdn.tripadvisor.com/media/photo-o/0c/b0/aa/f5/the-view-of-the-cove.jpg?w=1000&s=1", "address": "1 Heritage Lane Barbour Living Heritage Villiage, Newtown, New-Wes-Valley, Newfoundland and Labrador A0G 3L0 Canada", "lat": 49.20147, "lng": -53.51451, "ref_id": 8318294, "rating": 3.5, "num_reviews": 0, "website": "http://www.facebook.com/barbourvillageoldeshopperestaurant/info?tab=overview", "contact_phone": "+1 709-536-5906", "contact_email": null, "status": 1, "source_type": 1, "numberReviews": 23}, {"name": "Rocky ridge diner", "type": "restaurant", "image": "https://dynamic-media-cdn.tripadvisor.com/media/photo-o/08/9a/ea/cd/rocky-ridge-diner.jpg?w=1000&s=1", "address": "26 Harbourview St, Musgrave Harbour, Newfoundland and Labrador Canada", "lat": 49.44825, "lng": -53.957752, "ref_id": 6892700, "rating": 4.5, "num_reviews": 0, "website": "https://www.facebook.com/pages/Rocky-Ridge-Diner/1391728254176714", "contact_phone": "+1 709-655-2120", "contact_email": null, "status": 1, "source_type": 1, "numberReviews": 21}, {"name": "Oceanview Take Out Bakery", "type": "restaurant", "image": "https://dynamic-media-cdn.tripadvisor.com/media/photo-o/17/ef/e5/f5/photo0jpg.jpg?w=1000&s=1", "address": "22 Tower Road, Musgrave Harbour, Newfoundland and Labrador A0G 3J0 Canada", "lat": 49.44407, "lng": -53.93224, "ref_id": 10697225, "rating": 4, "num_reviews": 0, "website": null, "contact_phone": "+1 709-655-2545", "contact_email": null, "status": 1, "source_type": 1, "numberReviews": 10}, {"name": "Jungle Jim's Eatery", "type": "restaurant", "image": null, "address": "213-219 Blow Me Down Road, Old Perlican, Newfoundland and Labrador Canada", "lat": 48.074974, "lng": -53.00084, "ref_id": 27212700, "rating": -1, "num_reviews": 0, "website": "http://www.junglejims.ca", "contact_phone": "+1 709-587-3412", "contact_email": null, "status": 1, "source_type": 1, "numberReviews": 0}, {"name": "Robin's Donuts", "type": "restaurant", "image": null, "address": "213-219 Blow Me Down Road, Old Perlican, Newfoundland and Labrador Canada", "lat": 48.07495, "lng": -53.001064, "ref_id": 27212694, "rating": -1, "num_reviews": 0, "website": "http://www.robinsdonuts.com/", "contact_phone": "+1 709-587-2227", "contact_email": null, "status": 1, "source_type": 1, "numberReviews": 0}, {"name": "Landings Seafood House Restaurant", "type": "restaurant", "image": "https://dynamic-media-cdn.tripadvisor.com/media/photo-o/1d/44/51/a5/caption.jpg?w=1000&s=1", "address": "1 Wharf Rd, Portugal Cove, Newfoundland and Labrador A1M 3S4 Canada", "lat": 47.62497, "lng": -52.85547, "ref_id": 12897972, "rating": 4.5, "num_reviews": 0, "website": "http://www.facebook.com/freshlandings/", "contact_phone": "+1 709-895-0000", "contact_email": "Landingsseafood@gmail.com", "status": 1, "source_type": 1, "numberReviews": 58}, {"name": "The Grounds Cafe", "type": "restaurant", "image": "https://dynamic-media-cdn.tripadvisor.com/media/photo-o/1c/88/36/d2/sticky-sesame-cauliflower.jpg?w=1000&s=1", "address": "1525 Portugal Cove Rd, Portugal Cove, Newfoundland and Labrador A1M 3H3 Canada", "lat": 47.61505, "lng": -52.829075, "ref_id": 12931365, "rating": 4.5, "num_reviews": 0, "website": "https://www.facebook.com/thegroundsatmurrays/", "contact_phone": "+1 709-895-2800", "contact_email": "info@murraysgardens.com", "status": 1, "source_type": 1, "numberReviews": 29}, {"name": "Wild Horses", "type": "restaurant", "image": "https://dynamic-media-cdn.tripadvisor.com/media/photo-o/12/ef/ab/48/20180513-133653-largejpg.jpg?w=1000&s=1", "address": "1910 Portugal Cove Rd near Bell Island ferry crossing, Portugal Cove, Newfoundland and Labrador A1M 2M4 Canada", "lat": 47.625725, "lng": -52.854996, "ref_id": 4065395, "rating": 4, "num_reviews": 0, "website": "http://www.wildhorses.ca", "contact_phone": "+1 709-895-7856", "contact_email": null, "status": 1, "source_type": 1, "numberReviews": 45}, {"name": "Doc's", "type": "restaurant", "image": "https://dynamic-media-cdn.tripadvisor.com/media/photo-o/14/a8/25/a6/restaurant-interior.jpg?w=1000&s=1", "address": "8-10 Bayview Street, Fortune, Newfoundland and Labrador A0E 1P0 Canada", "lat": 47.073704, "lng": -55.82742, "ref_id": 8499574, "rating": 4, "num_reviews": 0, "website": "https://www.facebook.com/SilverThreadsIncDocsDinerCafe", "contact_phone": "+1 709-832-0553", "contact_email": null, "status": 1, "source_type": 1, "numberReviews": 21}, {"name": "Stage Head Cafe", "type": "restaurant", "image": "https://dynamic-media-cdn.tripadvisor.com/media/photo-o/08/9f/0a/7a/stage-head.jpg?w=1000&s=1", "address": "18 Bayview Street P.O.BOX 190, Fortune, Newfoundland and Labrador A0E 1P0 Canada", "lat": 47.07393, "lng": -55.826717, "ref_id": 8476971, "rating": 4, "num_reviews": 0, "website": "http://www.facebook.com/stageheadcafe", "contact_phone": "+1 709-832-5796", "contact_email": "stageheadtours@gmail.com", "status": 1, "source_type": 1, "numberReviews": 11}, {"name": "Golden Restaurant", "type": "restaurant", "image": "https://dynamic-media-cdn.tripadvisor.com/media/photo-o/08/e6/7f/2c/golden-restaurant.jpg?w=1000&s=1", "address": "North Side, Crow Head, Newfoundland and Labrador A0G 4M0 Canada", "lat": 49.674484, "lng": -54.7999, "ref_id": 704607, "rating": 2, "num_reviews": 0, "website": null, "contact_phone": "+1 709-884-2747", "contact_email": "", "status": 1, "source_type": 1, "numberReviews": 10}, {"name": "4-D Family Dining", "type": "restaurant", "image": "https://dynamic-media-cdn.tripadvisor.com/media/photo-o/10/b8/b1/3d/overcooked-chicken.jpg?w=1000&s=1", "address": "122 Main Street, Northern Arm, Newfoundland and Labrador A0H 1E0 Canada", "lat": 49.168808, "lng": -55.384087, "ref_id": 12897391, "rating": 4.5, "num_reviews": 0, "website": "http://www.facebook.com/4DFamilyDining", "contact_phone": "+1 709-257-2243", "contact_email": "danab.elc@hotmail.com", "status": 1, "source_type": 1, "numberReviews": 5}, {"name": "MIFFLIN'S Tea Room", "type": "restaurant", "image": "https://dynamic-media-cdn.tripadvisor.com/media/photo-o/19/0d/8b/cf/this-is-the-newfie-sampler.jpg?w=1000&s=1", "address": "21 Church St, Bonavista, Newfoundland and Labrador A0C 1B0 Canada", "lat": 48.65359, "lng": -53.112144, "ref_id": 1959814, "rating": 4.5, "num_reviews": 0, "website": "http://mifflinstearoom.com", "contact_phone": "+1 709-468-2636", "contact_email": "mifflinstearoom@hotmail.com", "status": 1, "source_type": 1, "numberReviews": 536}, {"name": "The Boreal Diner", "type": "restaurant", "image": "https://dynamic-media-cdn.tripadvisor.com/media/photo-o/0f/fc/3b/73/photo2jpg.jpg?w=1000&s=1", "address": "61 Church Street, Bonavista, Newfoundland and Labrador A0C 1B0 Canada", "lat": 48.65584, "lng": -53.111504, "ref_id": 10480242, "rating": 4.5, "num_reviews": 0, "website": "http://theborealdiner.com/", "contact_phone": "+1 709-476-2330", "contact_email": "info@theborealdiner.com", "status": 1, "source_type": 1, "numberReviews": 211}, {"name": "Skipper's Restaurant", "type": "restaurant", "image": "https://dynamic-media-cdn.tripadvisor.com/media/photo-o/11/45/e2/8c/we-serve-a-broad-menu.jpg?w=1000&s=1", "address": "42 Campbell Street Right next door to The Ryan Premises National Historic Site, Bonavista, Newfoundland and Labrador A0C 1B0 Canada", "lat": 48.64861, "lng": -53.112312, "ref_id": 3382575, "rating": 4, "num_reviews": 0, "website": "http://www.harbourquarters.com/Dining.html", "contact_phone": "+1 866-468-7982", "contact_email": "info@harbourquarters.com", "status": 1, "source_type": 1, "numberReviews": 372}, {"name": "The Quintal Cafe", "type": "restaurant", "image": "https://dynamic-media-cdn.tripadvisor.com/media/photo-o/1d/b4/1e/8e/baked-beans-with-big.jpg?w=1000&s=1", "address": "63 Church Street, Bonavista, Newfoundland and Labrador A0C 1B0 Canada", "lat": 48.656784, "lng": -53.111885, "ref_id": 17560705, "rating": 4.5, "num_reviews": 0, "website": null, "contact_phone": "+1 709-476-2191", "contact_email": "Quintalcafe@icloud.com", "status": 1, "source_type": 1, "numberReviews": 61}, {"name": "Ragged Rocks Gastropub", "type": "restaurant", "image": "https://dynamic-media-cdn.tripadvisor.com/media/photo-o/1b/af/f8/b2/burger-fries-and-fish.jpg?w=1000&s=1", "address": "80 Church Street, Bonavista, Newfoundland and Labrador A0C 1B0 Canada", "lat": 48.656807, "lng": -53.11149, "ref_id": 18895587, "rating": 4.5, "num_reviews": 0, "website": "http://www.raggedrocksgastropub.com/", "contact_phone": "+1 709-468-7678", "contact_email": "rsraggedrocks@yahoo.com", "status": 1, "source_type": 1, "numberReviews": 76}, {"name": "Walkham's Gate Pub & Cafe", "type": "restaurant", "image": "https://dynamic-media-cdn.tripadvisor.com/media/photo-o/10/3d/47/a6/photo0jpg.jpg?w=1000&s=1", "address": "Church St, Bonavista, Newfoundland and Labrador A0C 1B0 Canada", "lat": 48.652103, "lng": -53.113396, "ref_id": 4348398, "rating": 4.5, "num_reviews": 0, "website": "http://www.facebook.com/ElVaraderodeBoca/", "contact_phone": "+1 709-468-7004", "contact_email": null, "status": 1, "source_type": 1, "numberReviews": 100}, {"name": "Bicycle Picnics Caf\u00e9 & Bistro", "type": "restaurant", "image": "https://dynamic-media-cdn.tripadvisor.com/media/photo-o/14/a0/97/81/ocean-front-cafe.jpg?w=1000&s=1", "address": "34 Mockbeggar Rd, Bonavista, Newfoundland and Labrador A0C 1B0 Canada", "lat": 48.653835, "lng": -53.120224, "ref_id": 14901459, "rating": 4.5, "num_reviews": 0, "website": "http://www.bonavistapicnicscafe.com", "contact_phone": "+1 709-693-1210", "contact_email": "info@bonavistapicnicscafe.com", "status": 1, "source_type": 1, "numberReviews": 53}, {"name": "Dungeons Distillery Ltd.", "type": "restaurant", "image": "https://dynamic-media-cdn.tripadvisor.com/media/photo-o/26/ed/80/95/located-in-bonavista.jpg?w=1000&s=1", "address": "32 Station Road, Bonavista, Newfoundland and Labrador A0C 1B0 Canada", "lat": 48.650887, "lng": -53.108097, "ref_id": 24971933, "rating": 4.5, "num_reviews": 0, "website": "http://www.dungeonsdistillery.com", "contact_phone": "+1 709-218-2180", "contact_email": "dungeons2017@outlook.com", "status": 1, "source_type": 1, "numberReviews": 9}, {"name": "P K's Restaurant & Take-Out", "type": "restaurant", "image": "https://dynamic-media-cdn.tripadvisor.com/media/photo-o/13/91/41/de/photo0jpg.jpg?w=1000&s=1", "address": "927, Bonavista, Newfoundland and Labrador A0C 1B0 Canada", "lat": 48.657135, "lng": -53.111637, "ref_id": 764278, "rating": 4, "num_reviews": 0, "website": "http://www.facebook.com/PKs-Restaurant-Takeout-151631568553037/", "contact_phone": "+1 709-468-2828", "contact_email": "", "status": 1, "source_type": 1, "numberReviews": 52}, {"name": "Marsh's Snack Bar", "type": "restaurant", "image": "https://dynamic-media-cdn.tripadvisor.com/media/photo-o/29/60/66/84/store-front-view-take.jpg?w=1000&s=1", "address": "Church St, Bonavista, Newfoundland and Labrador A0C 1B0 Canada", "lat": 48.65577, "lng": -53.110607, "ref_id": 764276, "rating": 4, "num_reviews": 0, "website": "http://www.facebook.com/marshstakeout/", "contact_phone": "+1 709-468-2639", "contact_email": "", "status": 1, "source_type": 1, "numberReviews": 21}, {"name": "Mary Brown's Famous Chicken & Taters", "type": "restaurant", "image": null, "address": "230 Confederation Drive, Bonavista, Newfoundland and Labrador A0C 1B0 Canada", "lat": 48.64699, "lng": -53.104404, "ref_id": 5033476, "rating": 3.5, "num_reviews": 0, "website": "http://www.marybrowns.com/l", "contact_phone": "+1 709-468-5444", "contact_email": null, "status": 1, "source_type": 1, "numberReviews": 11}, {"name": "Subway", "type": "restaurant", "image": "https://dynamic-media-cdn.tripadvisor.com/media/photo-o/1d/d5/62/9c/caption.jpg?w=1000&s=1", "address": "142 154 Cabot Highway, Bonavista, Newfoundland and Labrador A0C 1B0 Canada", "lat": 48.647327, "lng": -53.104755, "ref_id": 20040241, "rating": 4, "num_reviews": 0, "website": "https://restaurants.subway.com/canada/nl/bonavista/142-154-cabot-highway?utm_source=yext-other&utm_medium=local&utm_term=acq&utm_content=19003&utm_campaign=evergreen-2020&y_source=1_mtq5mtkznjatnzy5lwxvy2f0aw9ulndlynnpdgu%3d", "contact_phone": "+1 709-468-7819", "contact_email": null, "status": 1, "source_type": 1, "numberReviews": 3}, {"name": "Chucky's Seafood & Wildgame Restaurant", "type": "restaurant", "image": "https://dynamic-media-cdn.tripadvisor.com/media/photo-s/02/86/3b/e5/getlstd-property-photo.jpg?w=1000&s=1", "address": "8 Harbour View Rd, Happy Adventure, Newfoundland and Labrador A0G 1Z0 Canada", "lat": 48.634968, "lng": -53.75352, "ref_id": 3243338, "rating": 5, "num_reviews": 0, "website": "http://happyadventureinn.com/chuckys/", "contact_phone": "+1 709-677-2233", "contact_email": "", "status": 1, "source_type": 1, "numberReviews": 150}, {"name": "The Thorndyke Dining Room", "type": "restaurant", "image": "https://dynamic-media-cdn.tripadvisor.com/media/photo-o/05/14/78/fc/the-thorndyke-dining.jpg?w=1000&s=1", "address": "33 Water, Grand Bank, Newfoundland and Labrador A0E 1W0 Canada", "lat": 47.10218, "lng": -55.75208, "ref_id": 5582345, "rating": 4.5, "num_reviews": 0, "website": "http://www.thethorndyke.ca", "contact_phone": "+1 709-832-0820", "contact_email": "thethorndyke@gmail.com", "status": 1, "source_type": 1, "numberReviews": 38}, {"name": "The Main Street Diner", "type": "restaurant", "image": null, "address": "46 Main St, Grand Bank, Newfoundland and Labrador A0E 1W0 Canada", "lat": 47.09442, "lng": -55.75794, "ref_id": 26258097, "rating": 5, "num_reviews": 0, "website": "https://www.facebook.com/109054378538871", "contact_phone": "+1 709-832-3663", "contact_email": null, "status": 1, "source_type": 1, "numberReviews": 1}, {"name": "Milton Inn", "type": "restaurant", "image": null, "address": "20 Trinity Drive, Georges Brook, Newfoundland and Labrador A0C 1V0 Canada", "lat": 48.210213, "lng": -53.96, "ref_id": 26491954, "rating": -1, "num_reviews": 0, "website": "www.miltoninn.ca", "contact_phone": "+1 709-433-2461", "contact_email": "info@miltoninn.ca", "status": 1, "source_type": 1, "numberReviews": 0}, {"name": "Sugar Hill Inn Dining Room (Chanterelle's Restaurant)", "type": "restaurant", "image": "https://dynamic-media-cdn.tripadvisor.com/media/photo-o/10/79/67/94/partrigeberry-shortcake.jpg?w=1000&s=1", "address": "115-129 Sexton Rd, Norris Point, Gros Morne National Park, Newfoundland and Labrador Canada", "lat": 49.536743, "lng": -57.87821, "ref_id": 1841728, "rating": 4.5, "num_reviews": 0, "website": "http://sugarhillinn.ca/cuisine/", "contact_phone": "+1 709-458-2147", "contact_email": "info@sugarhillinn.ca", "status": 1, "source_type": 1, "numberReviews": 131}, {"name": "Chanterelles", "type": "restaurant", "image": "https://dynamic-media-cdn.tripadvisor.com/media/photo-o/1d/ac/42/b7/caption.jpg?w=1000&s=1", "address": "115-129 Main Street, Norris Point, Gros Morne National Park, Newfoundland and Labrador A0K 3V0 Canada", "lat": 49.52655, "lng": -57.8844, "ref_id": 17844944, "rating": 4.5, "num_reviews": 0, "website": "http://sugarhillinn.ca/2019/07/17/chanterelles-at-sugar-hill-inn-new-summer-hours/#sthash.OSX2gvG5.dpbs", "contact_phone": "+1 709-458-2147", "contact_email": "info@sugarhillinn.ca", "status": 1, "source_type": 1, "numberReviews": 16}, {"name": "Rudy's Pub And Grub", "type": "restaurant", "image": null, "address": "Main Street No. 4, Norris Point, Gros Morne National Park, Newfoundland and Labrador A0K 3V0 Canada", "lat": 49.52661, "lng": -57.88432, "ref_id": 23612727, "rating": 4.5, "num_reviews": 0, "website": "http://www.facebook.com/rudyspubandgrub", "contact_phone": "+1 709-458-1962", "contact_email": null, "status": 1, "source_type": 1, "numberReviews": 10}, {"name": "The Cat Stop", "type": "restaurant", "image": "https://dynamic-media-cdn.tripadvisor.com/media/photo-o/19/bb/83/65/emma-cat-bonne-bay-tour.jpg?w=1000&s=1", "address": "2 Stones Lane, Norris Point, Gros Morne National Park, Newfoundland and Labrador A0K 3V0 Canada", "lat": 49.51771, "lng": -57.87589, "ref_id": 12613767, "rating": 3.5, "num_reviews": 0, "website": "http://www.bontours.ca/activities-events/the-cat-stop/", "contact_phone": "+1 709-458-3343", "contact_email": null, "status": 1, "source_type": 1, "numberReviews": 50}, {"name": "The Cat And Rooster", "type": "restaurant", "image": "https://dynamic-media-cdn.tripadvisor.com/media/photo-o/2c/50/81/41/it-s-just-me-justin.jpg?w=1000&s=1", "address": "171 Main Street, Norris Point, Gros Morne National Park, Newfoundland and Labrador A0K 3V0 Canada", "lat": 43.400486, "lng": -80.37099, "ref_id": 27774204, "rating": 5, "num_reviews": 0, "website": "https://www.facebook.com/profile.php?id=100090480229464", "contact_phone": "+1 709-458-1962", "contact_email": null, "status": 1, "source_type": 1, "numberReviews": 2}, {"name": "Chafe's Landing Restaurant", "type": "restaurant", "image": "https://dynamic-media-cdn.tripadvisor.com/media/photo-o/0c/a0/b2/58/photo1jpg.jpg?w=1000&s=1", "address": "11 Main Rd, Petty Harbour, Newfoundland and Labrador A0A 3H0 Canada", "lat": 47.46397, "lng": -52.71167, "ref_id": 1492591, "rating": 4, "num_reviews": 0, "website": "http://chafeslanding.ca/", "contact_phone": "+1 709-747-0802", "contact_email": "info@chafeslanding.com", "status": 1, "source_type": 1, "numberReviews": 700}, {"name": "Hook n' Line", "type": "restaurant", "image": "https://dynamic-media-cdn.tripadvisor.com/media/photo-o/18/db/f5/53/lobster-pots-at-petty.jpg?w=1000&s=1", "address": "Petty Harbour, Newfoundland and Labrador Canada", "lat": 47.469784, "lng": -52.705177, "ref_id": 18344150, "rating": 4.5, "num_reviews": 0, "website": "https://www.facebook.com/Hooknlinepettyharbour/", "contact_phone": "+1 709-690-5209", "contact_email": null, "status": 1, "source_type": 1, "numberReviews": 5}, {"name": "Jungle Jim's restaurant", "type": "restaurant", "image": "https://dynamic-media-cdn.tripadvisor.com/media/photo-o/0d/60/e9/52/ta-img-20161011-071452_rotated_90.jpg?w=1000&s=1", "address": "382 Hamilton River Rd, Happy Valley-Goose Bay, Newfoundland and Labrador A0P Canada", "lat": 53.309643, "lng": -60.377098, "ref_id": 4973463, "rating": 4, "num_reviews": 0, "website": "http://www.junglejims.ca", "contact_phone": "+1 709-896-3388", "contact_email": "talktomejim@junglejims.ca", "status": 1, "source_type": 1, "numberReviews": 123}, {"name": "Mariner's Galley", "type": "restaurant", "image": "https://dynamic-media-cdn.tripadvisor.com/media/photo-o/0f/0a/8e/cd/photo0jpg.jpg?w=1000&s=1", "address": "25 Loring Dr, Happy Valley-Goose Bay, Newfoundland and Labrador A0P 1C0 Canada", "lat": 53.306767, "lng": -60.38201, "ref_id": 784940, "rating": 4, "num_reviews": 0, "website": "http://www.hotelnorth.ca/happy-valley-goose-bay-1/restaurant.php", "contact_phone": "+1 709-896-9301", "contact_email": "hotelnorth@nf.aibn.com", "status": 1, "source_type": 1, "numberReviews": 109}, {"name": "Bentley's", "type": "restaurant", "image": "https://dynamic-media-cdn.tripadvisor.com/media/photo-o/1c/f4/dd/c9/photo0jpg.jpg?w=1000&s=1", "address": "97 Hamilton River Rd, Happy Valley-Goose Bay, Newfoundland and Labrador A0P 1E0 Canada", "lat": 53.29579, "lng": -60.30093, "ref_id": 764437, "rating": 4, "num_reviews": 0, "website": "http://maxwellsandbentleys.ca", "contact_phone": "+1 709-896-3585", "contact_email": "info@maxwellsandbentleys.ca", "status": 1, "source_type": 1, "numberReviews": 59}, {"name": "Trapper's Cabin Bar & Grill", "type": "restaurant", "image": "https://dynamic-media-cdn.tripadvisor.com/media/photo-o/0a/59/16/5b/photo0jpg.jpg?w=1000&s=1", "address": "1 Aspen Rd, Happy Valley-Goose Bay, Newfoundland and Labrador A0P 1C0 Canada", "lat": 53.316357, "lng": -60.38764, "ref_id": 764455, "rating": 4, "num_reviews": 0, "website": "https://www.facebook.com/pages/category/Dance---Night-Club/Trappers-Cabin-Bar-Grill-547908032025431/", "contact_phone": "+1 709-896-9522", "contact_email": "", "status": 1, "source_type": 1, "numberReviews": 31}, {"name": "El Greco", "type": "restaurant", "image": "https://dynamic-media-cdn.tripadvisor.com/media/photo-o/10/a6/a8/d2/eating-souvlaki-dinner.jpg?w=1000&s=1", "address": "133 Hamilton River Rd, Happy Valley-Goose Bay, Newfoundland and Labrador A0P 1C0 Canada", "lat": 53.29544, "lng": -60.30978, "ref_id": 10322563, "rating": 4, "num_reviews": 0, "website": null, "contact_phone": "+1 709-896-3473", "contact_email": null, "status": 1, "source_type": 1, "numberReviews": 38}, {"name": "Mamattuk", "type": "restaurant", "image": "https://dynamic-media-cdn.tripadvisor.com/media/photo-o/2c/d6/ad/34/caption.jpg?w=1000&s=1", "address": "2 C Tenth Street, Happy Valley-Goose Bay, Newfoundland and Labrador A0P 1E0 Canada", "lat": 53.29805, "lng": -60.323963, "ref_id": 27179086, "rating": 4.5, "num_reviews": 0, "website": null, "contact_phone": null, "contact_email": null, "status": 1, "source_type": 1, "numberReviews": 4}, {"name": "Subway", "type": "restaurant", "image": null, "address": "11 Loring Dr, Happy Valley-Goose Bay, Newfoundland and Labrador A0P 1C0 Canada", "lat": 53.308456, "lng": -60.37927, "ref_id": 764453, "rating": 4, "num_reviews": 0, "website": "https://restaurants.subway.com/canada/nl/goose-bay/11-loring-dr?utm_source=yext-other&utm_medium=local&utm_term=acq&utm_content=18689&utm_campaign=evergreen-2020&y_source=1_mtq5mtkzntetnzy5lwxvy2f0aw9ulndlynnpdgu%3d", "contact_phone": "+1 709-896-9777", "contact_email": "", "status": 1, "source_type": 1, "numberReviews": 12}, {"name": "Mary Brown's Fried Chicken", "type": "restaurant", "image": null, "address": "1 Churchill St, Happy Valley-Goose Bay, Newfoundland and Labrador A0P 1E0 Canada", "lat": 53.297886, "lng": -60.3318, "ref_id": 764443, "rating": 4, "num_reviews": 0, "website": "http://marybrowns.com/", "contact_phone": "+1 709-896-3292", "contact_email": "", "status": 1, "source_type": 1, "numberReviews": 8}, {"name": "Sand Bar Ltd", "type": "restaurant", "image": null, "address": "1 Mackenzie Dr, Happy Valley-Goose Bay, Newfoundland and Labrador A0P Canada", "lat": 53.30475, "lng": -60.37244, "ref_id": 764452, "rating": 4, "num_reviews": 0, "website": "https://www.facebook.com/340238096071925", "contact_phone": "+1 709-896-8839", "contact_email": "", "status": 1, "source_type": 1, "numberReviews": 5}, {"name": "Dairy Queen Grill & Chill", "type": "restaurant", "image": null, "address": "1-3 Tenth Street, Happy Valley-Goose Bay, Newfoundland and Labrador A0P 1E0 Canada", "lat": 53.298912, "lng": -60.32484, "ref_id": 21322898, "rating": 4, "num_reviews": 0, "website": "https://www.dairyqueen.com/en-ca/locations/nl/happy-valley-goose-bay/1-3-tenth-street/15471/?utm_source=organic&utm_campaign=yext%2f&y_source=1_mtc1mtq3mtitnzy5lwxvy2f0aw9ulndlynnpdgu%3d", "contact_phone": "+1 709-896-1561", "contact_email": null, "status": 1, "source_type": 1, "numberReviews": 1}, {"name": "Kfc", "type": "restaurant", "image": null, "address": "337 Hamilton River Rd, Happy Valley-Goose Bay, Newfoundland and Labrador A0P Canada", "lat": 53.30652, "lng": -60.37412, "ref_id": 19599670, "rating": 3, "num_reviews": 0, "website": "https://www.facebook.com/106568868092197", "contact_phone": "+1 709-896-5400", "contact_email": null, "status": 1, "source_type": 1, "numberReviews": 1}, {"name": "Larry's Pizza & Waffle House", "type": "restaurant", "image": null, "address": "380 Hamilton River Rd Labrador Inn, Happy Valley-Goose Bay, Newfoundland and Labrador A0P 1C0 Canada", "lat": 53.30958, "lng": -60.377033, "ref_id": 764441, "rating": 2, "num_reviews": 0, "website": "https://www.thelabradorinn.com/restaurant--lounge", "contact_phone": "+1 709-896-3351", "contact_email": "managerlabradorinn@gmail.com", "status": 1, "source_type": 1, "numberReviews": 7}, {"name": "Da Shed Pub", "type": "restaurant", "image": "https://dynamic-media-cdn.tripadvisor.com/media/photo-o/1d/98/4c/65/the-front-of-the-pub.jpg?w=1000&s=1", "address": "29 Loring Dr, Happy Valley-Goose Bay, Newfoundland and Labrador A0P 1E0 Canada", "lat": 53.3064, "lng": -60.382313, "ref_id": 23545414, "rating": -1, "num_reviews": 0, "website": "http://da-shed-pub.business.site/?m=true", "contact_phone": "+1 709-896-4848", "contact_email": "dashedpub@yahoo.com", "status": 1, "source_type": 1, "numberReviews": 0}, {"name": "Pizza Delight", "type": "restaurant", "image": null, "address": "87 Hamilton River Road, Happy Valley-Goose Bay, Newfoundland and Labrador A0P 1E0 Canada", "lat": 53.295425, "lng": -60.3011, "ref_id": 23790580, "rating": -1, "num_reviews": 0, "website": "http://www.pizzadelight.com/?utm_source=trpa&utm_medium=lpm&utm_campaign=mty", "contact_phone": "+1 709-896-8338", "contact_email": "contactus@pizzadelight.ca", "status": 1, "source_type": 1, "numberReviews": 0}, {"name": "Tim Hortons", "type": "restaurant", "image": null, "address": "Goose Bay Supermart, 381 Banshee Blvd Happy Valley, Happy Valley-Goose Bay, Newfoundland and Labrador A0P 1C0 Canada", "lat": 53.30139, "lng": -60.41174, "ref_id": 27234829, "rating": -1, "num_reviews": 0, "website": "http://locations.timhortons.ca/nl/happy-valley-goose-bay/goose-bay-supermart", "contact_phone": "+1 709-896-8243", "contact_email": null, "status": 1, "source_type": 1, "numberReviews": 0}, {"name": "Booster Juice", "type": "restaurant", "image": null, "address": "Hamilton River Road, Happy Valley-Goose Bay, Newfoundland and Labrador A0P 1E0 Canada", "lat": 53.297947, "lng": -60.339485, "ref_id": 27278186, "rating": -1, "num_reviews": 0, "website": "http://boosterjuice.com/", "contact_phone": "+1 709-896-9622", "contact_email": null, "status": 1, "source_type": 1, "numberReviews": 0}, {"name": "Grafter's Pub & Eatery", "type": "restaurant", "image": null, "address": "368 Hamilton River Rd, Happy Valley-Goose Bay, Newfoundland and Labrador A0P Canada", "lat": 53.307926, "lng": -60.37518, "ref_id": 27234825, "rating": -1, "num_reviews": 0, "website": "https://www.facebook.com/467844583390230", "contact_phone": "+1 709-896-3038", "contact_email": null, "status": 1, "source_type": 1, "numberReviews": 0}, {"name": "The George", "type": "restaurant", "image": null, "address": "The Green, Cavendish, Newfoundland and Labrador Canada", "lat": 47.56189, "lng": -52.71087, "ref_id": 1972057, "rating": 4.5, "num_reviews": 0, "website": "http://www.thecavendishgeorge.co.uk/", "contact_phone": "", "contact_email": "", "status": 1, "source_type": 1, "numberReviews": 3}, {"name": "Baccalieu Trail Fine Dining Bed and Breakfast", "type": "restaurant", "image": "https://dynamic-media-cdn.tripadvisor.com/media/photo-o/0c/32/dc/f2/caramel-semifreddo.jpg?w=1000&s=1", "address": "170 Water Street Please Email us to check Availability For Dinner Reservations, Carbonear, Newfoundland and Labrador A1Y 1B6 Canada", "lat": 47.739117, "lng": -53.222347, "ref_id": 5866089, "rating": 5, "num_reviews": 0, "website": "http://www.baccalieutrailbandb.com/", "contact_phone": "+1 709-596-1594", "contact_email": "baccalieutrailbandb@hotmail.com", "status": 1, "source_type": 1, "numberReviews": 201}, {"name": "Crooked Phil's Cafe Ltd", "type": "restaurant", "image": "https://dynamic-media-cdn.tripadvisor.com/media/photo-o/0c/47/16/9b/excellent-meal-and-great.jpg?w=1000&s=1", "address": "125B Columbus Dr, Carbonear, Newfoundland and Labrador A1Y 1A6 Canada", "lat": 47.72626, "lng": -53.24553, "ref_id": 10287350, "rating": 5, "num_reviews": 0, "website": "https://www.facebook.com/1672934599586709", "contact_phone": "+1 709-596-5800", "contact_email": "crookedphils@yahoo.ca", "status": 1, "source_type": 1, "numberReviews": 62}, {"name": "Stone Jug", "type": "restaurant", "image": "https://dynamic-media-cdn.tripadvisor.com/media/photo-o/18/8a/94/00/live-music-friday-evenings.jpg?w=1000&s=1", "address": "232 Water Street, Carbonear, Newfoundland and Labrador A1Y 1C3 Canada", "lat": 47.738335, "lng": -53.22845, "ref_id": 9564278, "rating": 4, "num_reviews": 0, "website": "http://www.thestonejug1860.com/", "contact_phone": "+1 709-596-2629", "contact_email": null, "status": 1, "source_type": 1, "numberReviews": 305}, {"name": "Coldwater Foods and Cafe", "type": "restaurant", "image": "https://dynamic-media-cdn.tripadvisor.com/media/photo-o/1d/b4/bc/df/mermaid-s-alcove.jpg?w=1000&s=1", "address": "218, Carbonear, Newfoundland and Labrador A1y 1C2 Canada", "lat": 47.738888, "lng": -53.227222, "ref_id": 23524626, "rating": 5, "num_reviews": 0, "website": "https://www.facebook.com/ColdWater2020/", "contact_phone": "+1 709-945-3733", "contact_email": "coldwaterfoods@gmail.com", "status": 1, "source_type": 1, "numberReviews": 19}, {"name": "Route 66 Diner & Pub", "type": "restaurant", "image": "https://dynamic-media-cdn.tripadvisor.com/media/photo-o/18/49/c3/22/lots-of-unique-things.jpg?w=1000&s=1", "address": "180 Water St, Carbonear, Newfoundland and Labrador A1Y 1B1 Canada", "lat": 47.738964, "lng": -53.22312, "ref_id": 16664460, "rating": 4, "num_reviews": 0, "website": "https://www.facebook.com/Route-66-Diner-Pub-123844891875316/", "contact_phone": "+1 709-596-8300", "contact_email": null, "status": 1, "source_type": 1, "numberReviews": 22}, {"name": "My Place Restaurant", "type": "restaurant", "image": "https://dynamic-media-cdn.tripadvisor.com/media/photo-o/08/72/96/9c/my-place-will-become.jpg?w=1000&s=1", "address": "120 Columbus Dr, Carbonear, Newfoundland and Labrador A1Y 1B3 Canada", "lat": 47.726414, "lng": -53.245228, "ref_id": 764289, "rating": 4, "num_reviews": 0, "website": "https://myplacerestaurant.business.site", "contact_phone": "+1 709-596-3240", "contact_email": "", "status": 1, "source_type": 1, "numberReviews": 34}, {"name": "Don's Restaurant", "type": "restaurant", "image": null, "address": "Carbonear, Newfoundland and Labrador Canada", "lat": 47.720905, "lng": -53.233864, "ref_id": 785564, "rating": 3.5, "num_reviews": 0, "website": "https://www.facebook.com/Dons-Restaurant-214493351931708/", "contact_phone": "", "contact_email": "", "status": 1, "source_type": 1, "numberReviews": 31}, {"name": "Midtown Take Out", "type": "restaurant", "image": null, "address": "143 Water St, Carbonear, Newfoundland and Labrador A1Y 1A9 Canada", "lat": 47.74176, "lng": -53.20274, "ref_id": 17779565, "rating": 4.5, "num_reviews": 0, "website": null, "contact_phone": "+1 709-596-2803", "contact_email": null, "status": 1, "source_type": 1, "numberReviews": 3}, {"name": "Subway", "type": "restaurant", "image": null, "address": "127 Columbus Drive, Carbonear, Newfoundland and Labrador A1Y 1A6 Canada", "lat": 47.726295, "lng": -53.246273, "ref_id": 764292, "rating": 4, "num_reviews": 0, "website": "https://restaurants.subway.com/canada/nl/carbonear/127-columbus-drive?utm_source=yext-other&utm_medium=local&utm_term=acq&utm_content=19775&utm_campaign=evergreen-2020&y_source=1_mtq5mtgzntctnzy5lwxvy2f0aw9ulndlynnpdgu%3d", "contact_phone": "+1 709-596-1960", "contact_email": "", "status": 1, "source_type": 1, "numberReviews": 9}, {"name": "Ches' s Fish and Chips", "type": "restaurant", "image": null, "address": "127 Columbus Dr, Carbonear, Newfoundland and Labrador A1Y 1A6 Canada", "lat": 47.72604, "lng": -53.24584, "ref_id": 10818670, "rating": 4, "num_reviews": 0, "website": "http://www.chessfishandchips.ca", "contact_phone": "+1 709-596-2600", "contact_email": null, "status": 1, "source_type": 1, "numberReviews": 10}, {"name": "Sophia's Fine Dining", "type": "restaurant", "image": "https://dynamic-media-cdn.tripadvisor.com/media/photo-o/03/84/07/3d/sophia-s-fine-dining.jpg?w=1000&s=1", "address": "150 Water St, Carbonear, Newfoundland and Labrador A1Y 1A9 Canada", "lat": 47.74159, "lng": -53.20262, "ref_id": 973859, "rating": 4, "num_reviews": 0, "website": "http://myavalonexperience.com", "contact_phone": "+1 877-464-3698", "contact_email": "info@newfoundlandexperience.com", "status": 1, "source_type": 1, "numberReviews": 11}, {"name": "A&W Restaurant", "type": "restaurant", "image": null, "address": "Trinity Conception Sq, 120 Columbus Dr, Carbonear, Newfoundland and Labrador A1Y 1B3 Canada", "lat": 47.726414, "lng": -53.245228, "ref_id": 764282, "rating": 3.5, "num_reviews": 0, "website": "https://web.aw.ca/en/locations/#9202/carbonear/trinity-square", "contact_phone": "+1 709-596-5126", "contact_email": null, "status": 1, "source_type": 1, "numberReviews": 7}, {"name": "Dairy Queen Grill & Chill", "type": "restaurant", "image": null, "address": "95 Columbus Dr, Carbonear, Newfoundland and Labrador A1Y 1A6 Canada", "lat": 47.72259, "lng": -53.238876, "ref_id": 17511450, "rating": 5, "num_reviews": 0, "website": "https://www.dairyqueen.com/en-ca/locations/nl/carbonear/95-columbus-dr/14974/?utm_source=organic&utm_campaign=yext%2f&y_source=1_mti1njcxotctnzy5lwxvy2f0aw9ulndlynnpdgu%3d", "contact_phone": "+1 709-596-8906", "contact_email": null, "status": 1, "source_type": 1, "numberReviews": 1}, {"name": "West Side Charlies", "type": "restaurant", "image": null, "address": "248 - 250 Water St., Carbonear, Newfoundland and Labrador A0A 1A7 Canada", "lat": 47.735752, "lng": -53.22983, "ref_id": 764294, "rating": 4, "num_reviews": 0, "website": "https://www.facebook.com/WSCBR/?rf=1709562146040793", "contact_phone": "+1 709-596-2878", "contact_email": "", "status": 1, "source_type": 1, "numberReviews": 2}, {"name": "KFC", "type": "restaurant", "image": null, "address": "127 Columbus Dr, Carbonear, Newfoundland and Labrador A1Y 1A6 Canada", "lat": 47.72604, "lng": -53.24584, "ref_id": 764286, "rating": 3.5, "num_reviews": 0, "website": null, "contact_phone": "+1 709-596-2600", "contact_email": "", "status": 1, "source_type": 1, "numberReviews": 5}, {"name": "McDonald's", "type": "restaurant", "image": "https://dynamic-media-cdn.tripadvisor.com/media/photo-o/0f/54/8b/43/more-mess-typical-visit.jpg?w=1000&s=1", "address": "229 Columbus Dr, Carbonear, Newfoundland and Labrador A1Y 1B3 Canada", "lat": 47.726685, "lng": -53.246807, "ref_id": 12428528, "rating": 1.5, "num_reviews": 0, "website": "https://www.mcdonalds.com/ca/en-ca/restaurant-locator.html?y_source=1_MTQ1MTk0NjctNzY5LWxvY2F0aW9uLndlYnNpdGU%3D", "contact_phone": "+1 709-596-5036", "contact_email": "29703@post.mcdonalds.ca", "status": 1, "source_type": 1, "numberReviews": 10}, {"name": "Tim Hortons", "type": "restaurant", "image": null, "address": "100 Columbus Dr, Carbonear, Newfoundland and Labrador A1Y 1A6 Canada", "lat": 47.725067, "lng": -53.24164, "ref_id": 15260812, "rating": -1, "num_reviews": 0, "website": "https://www.facebook.com/152591031927626", "contact_phone": "+1 709-596-8467", "contact_email": "TimHortons102269@timzone.com", "status": 1, "source_type": 1, "numberReviews": 0}, {"name": "Country Style", "type": "restaurant", "image": null, "address": "139 Columbus Dr North Atlantic Refinery, Carbonear, Newfoundland and Labrador A1Y 1A6 Canada", "lat": 47.733967, "lng": -53.248222, "ref_id": 15589671, "rating": -1, "num_reviews": 0, "website": "http://www.countrystyle.com/stores/?utm_source=TRPA&utm_medium=LPM&utm_campaign=MTY", "contact_phone": "+1 709-596-4004", "contact_email": null, "status": 1, "source_type": 1, "numberReviews": 0}, {"name": "Starbucks", "type": "restaurant", "image": null, "address": "123 Columbus Drive, Carbonear, Newfoundland and Labrador A1Y 1A6 Canada", "lat": 47.72573, "lng": -53.24522, "ref_id": 27309272, "rating": -1, "num_reviews": 0, "website": "https://www.starbucks.ca/store-locator/store/1034165/", "contact_phone": "+1 709-260-5553", "contact_email": null, "status": 1, "source_type": 1, "numberReviews": 0}, {"name": "Dons Restaurant", "type": "restaurant", "image": null, "address": "80 Columbus Dr, Carbonear, Newfoundland and Labrador A1Y 1A6 Canada", "lat": 47.72308, "lng": -53.237686, "ref_id": 27234761, "rating": -1, "num_reviews": 0, "website": "https://www.facebook.com/214493351931708", "contact_phone": "+1 709-596-8282", "contact_email": null, "status": 1, "source_type": 1, "numberReviews": 0}, {"name": "Peter's Pizza", "type": "restaurant", "image": null, "address": "115 Columbus Drive, Carbonear, Newfoundland and Labrador A1Y 1A6 Canada", "lat": 47.728462, "lng": -53.247593, "ref_id": 26586369, "rating": -1, "num_reviews": 0, "website": null, "contact_phone": "+1 709-596-3535", "contact_email": null, "status": 1, "source_type": 1, "numberReviews": 0}, {"name": "Powell's Supermarket", "type": "restaurant", "image": null, "address": "250 Water St, Carbonear, Newfoundland and Labrador A1Y Canada", "lat": 47.73803, "lng": -53.23038, "ref_id": 27309313, "rating": -1, "num_reviews": 0, "website": "http://powellsnl.ca", "contact_phone": "+1 709-596-6644", "contact_email": null, "status": 1, "source_type": 1, "numberReviews": 0},