[{"name": "Pokoje Beata", "type": "hotel", "image": "https://dynamic-media-cdn.tripadvisor.com/media/partner/bookingcom/photo-o/19/b6/07/26/communalkitchen.jpg?w=1000&s=1", "address": "Reja 36, Wladyslawowo 84-120 Poland", "lat": 54.78845, "lng": 18.39654, "ref_id": 10666359, "rating": -1, "num_reviews": 0, "website": null, "contact_phone": null, "contact_email": null, "status": 1, "source_type": 1, "numberReviews": 0}, {"name": "Fajne Pokoje - Maja", "type": "hotel", "image": "https://dynamic-media-cdn.tripadvisor.com/media/partner/bookingcom/photo-o/29/e9/dd/d9/caption.jpg?w=1000&s=1", "address": "Wyzwolenia 42, Wladyslawowo 84-120 Poland", "lat": 54.79278, "lng": 18.39739, "ref_id": 15288412, "rating": -1, "num_reviews": 0, "website": "http://maja.fajnepokoje.com/#onas", "contact_phone": "+48 660 688 467", "contact_email": "willa.maja@op.pl", "status": 1, "source_type": 1, "numberReviews": 0}, {"name": "Dom Wypoczynkowy Nad Morzem", "type": "hotel", "image": "https://dynamic-media-cdn.tripadvisor.com/media/partner/bookingcom/photo-o/29/3b/1b/1f/caption.jpg?w=1000&s=1", "address": "Jachtowa 2F, Wladyslawowo 84-120 Poland", "lat": 54.79537, "lng": 18.38322, "ref_id": 17803342, "rating": -1, "num_reviews": 0, "website": null, "contact_phone": null, "contact_email": null, "status": 1, "source_type": 1, "numberReviews": 0}, {"name": "Dom Wczasowy Barbara", "type": "hotel", "image": "https://dynamic-media-cdn.tripadvisor.com/media/partner/bookingcom/photo-o/2b/91/28/84/caption.jpg?w=1000&s=1", "address": "ul. Rzemieslnicza 12, Wladyslawowo 84-120 Poland", "lat": 54.78839, "lng": 18.40094, "ref_id": 12541226, "rating": -1, "num_reviews": 0, "website": null, "contact_phone": null, "contact_email": null, "status": 1, "source_type": 1, "numberReviews": 0}, {"name": "Apart Morze Apartamenty Vento", "type": "hotel", "image": "https://dynamic-media-cdn.tripadvisor.com/media/partner/bookingcom/photo-o/2c/be/ef/07/caption.jpg?w=1000&s=1", "address": "Ul.Rybacka 8b, Wladyslawowo 84-120 Poland", "lat": 54.79609, "lng": 18.40735, "ref_id": 15894919, "rating": -1, "num_reviews": 0, "website": null, "contact_phone": null, "contact_email": null, "status": 1, "source_type": 1, "numberReviews": 0}, {"name": "Willa Amber", "type": "hotel", "image": "https://dynamic-media-cdn.tripadvisor.com/media/partner/bookingcom/photo-o/2c/77/6a/00/caption.jpg?w=1000&s=1", "address": "ul. Wladyslawa Reymonta 29, Wladyslawowo 84-120 Poland", "lat": 54.78697, "lng": 18.39449, "ref_id": 7659401, "rating": -1, "num_reviews": 0, "website": "http://www.willa-amber.pl/", "contact_phone": "0660 417 476", "contact_email": "info@willa-amber.pl", "status": 1, "source_type": 1, "numberReviews": 0}, {"name": "Wynajem Przyczep Na Helu", "type": "hotel", "image": null, "address": "4A Kaperska Kemping Polaris, Wladyslawowo 84-120 Poland", "lat": 54.75993, "lng": 18.50453, "ref_id": 17853101, "rating": -1, "num_reviews": 0, "website": null, "contact_phone": null, "contact_email": null, "status": 1, "source_type": 1, "numberReviews": 0}, {"name": "Pokoje Basia", "type": "hotel", "image": "https://dynamic-media-cdn.tripadvisor.com/media/partner/bookingcom/photo-o/2c/76/fe/49/caption.jpg?w=1000&s=1", "address": "Lakowa 10 A, Wladyslawowo 84-120 Poland", "lat": 54.78415, "lng": 18.40886, "ref_id": 12686535, "rating": -1, "num_reviews": 0, "website": null, "contact_phone": null, "contact_email": null, "status": 1, "source_type": 1, "numberReviews": 0}, {"name": "Pokoje Goscinne Samochwal", "type": "hotel", "image": null, "address": "ul. Morska 32G, Wladyslawowo 84-120 Poland", "lat": 54.79951, "lng": 18.40328, "ref_id": 10254301, "rating": -1, "num_reviews": 0, "website": null, "contact_phone": "+48 509 697 970", "contact_email": null, "status": 1, "source_type": 1, "numberReviews": 0}, {"name": "Willa Jolanta", "type": "hotel", "image": "https://dynamic-media-cdn.tripadvisor.com/media/partner/bookingcom/photo-o/2c/2d/d6/35/caption.jpg?w=1000&s=1", "address": "Czwartakow 3, Wladyslawowo 84-120 Poland", "lat": 54.80044, "lng": 18.38739, "ref_id": 12617860, "rating": -1, "num_reviews": 0, "website": null, "contact_phone": null, "contact_email": null, "status": 1, "source_type": 1, "numberReviews": 0}, {"name": "Twoja Przystan", "type": "hotel", "image": "https://dynamic-media-cdn.tripadvisor.com/media/partner/bookingcom/photo-o/2b/5a/c0/fe/caption.jpg?w=1000&s=1", "address": "19 Rozy Wiatrow, Wladyslawowo 84-120 Poland", "lat": 54.79816, "lng": 18.3891, "ref_id": 12839832, "rating": -1, "num_reviews": 0, "website": null, "contact_phone": null, "contact_email": null, "status": 1, "source_type": 1, "numberReviews": 0}, {"name": "Rybak II", "type": "hotel", "image": null, "address": "Inzynierska 2b, Wladyslawowo 84-120 Poland", "lat": 54.78381, "lng": 18.40867, "ref_id": 10671590, "rating": -1, "num_reviews": 0, "website": "http://rybak.fajnewczasy.com/", "contact_phone": "+48 736 656 056", "contact_email": null, "status": 1, "source_type": 1, "numberReviews": 0}, {"name": "Apartamenty U Koniarka", "type": "hotel", "image": null, "address": "Niepodleglosci 17, Wladyslawowo 84-120 Poland", "lat": 54.79041, "lng": 18.40523, "ref_id": 16859477, "rating": -1, "num_reviews": 0, "website": null, "contact_phone": null, "contact_email": null, "status": 1, "source_type": 1, "numberReviews": 0}, {"name": "Apart Morze Apartamenty 450m Od Morza", "type": "hotel", "image": null, "address": "Ul. Rybacka 5A, Wladyslawowo 84-120 Poland", "lat": 54.79559, "lng": 18.40653, "ref_id": 16891415, "rating": -1, "num_reviews": 0, "website": null, "contact_phone": null, "contact_email": null, "status": 1, "source_type": 1, "numberReviews": 0}, {"name": "Wladyslawowo Apartament", "type": "hotel", "image": "https://dynamic-media-cdn.tripadvisor.com/media/partner/bookingcom/photo-o/2b/f1/c8/cf/caption.jpg?w=1000&s=1", "address": "Rybacka 5 A A 37, Wladyslawowo 84-120 Poland", "lat": 54.79559, "lng": 18.40653, "ref_id": 15872528, "rating": -1, "num_reviews": 0, "website": null, "contact_phone": null, "contact_email": null, "status": 1, "source_type": 1, "numberReviews": 0}, {"name": "Pokoje u Wioli Wladyslawowo", "type": "hotel", "image": "https://dynamic-media-cdn.tripadvisor.com/media/partner/bookingcom/photo-o/2c/77/46/94/caption.jpg?w=1000&s=1", "address": "Miko\u0142aja Reja 28, Wladyslawowo 84-120 Poland", "lat": 54.78836, "lng": 18.396206, "ref_id": 23287396, "rating": -1, "num_reviews": 0, "website": null, "contact_phone": null, "contact_email": null, "status": 1, "source_type": 1, "numberReviews": 0}, {"name": "Wczasy w Ch\u0142apowie", "type": "hotel", "image": null, "address": "ul. Korsarska 4a, Wladyslawowo 84-120 Poland", "lat": 54.80536, "lng": 18.37736, "ref_id": 9455777, "rating": -1, "num_reviews": 0, "website": null, "contact_phone": null, "contact_email": null, "status": 1, "source_type": 1, "numberReviews": 0}, {"name": "Family Inn", "type": "hotel", "image": "https://dynamic-media-cdn.tripadvisor.com/media/partner/bookingcom/photo-o/2b/cc/cd/5d/caption.jpg?w=1000&s=1", "address": "21 Brzozowa, Wladyslawowo 84-120 Poland", "lat": 54.799404, "lng": 18.401003, "ref_id": 23405563, "rating": -1, "num_reviews": 0, "website": "https://www.facebook.com/Family-Inn-2310637998997732/", "contact_phone": "+48 58 674 11 69", "contact_email": "familyinn.wladyslawowo@gmail.com", "status": 1, "source_type": 1, "numberReviews": 0}, {"name": "Willa Jask\u00f3\u0142ka", "type": "hotel", "image": "https://dynamic-media-cdn.tripadvisor.com/media/partner/bookingcom/photo-o/2b/dc/95/81/caption.jpg?w=1000&s=1", "address": "Stolarska 8, Wladyslawowo 84-120 Poland", "lat": 54.78603, "lng": 18.410036, "ref_id": 21388548, "rating": -1, "num_reviews": 0, "website": "https://www.facebook.com/haniajaskulka/", "contact_phone": "+48 512 121 870", "contact_email": null, "status": 1, "source_type": 1, "numberReviews": 0}, {"name": "Dom Wczasowy Ina", "type": "hotel", "image": null, "address": "Zeromskiego 73, Wladyslawowo 84-120 Poland", "lat": 54.80748, "lng": 18.37547, "ref_id": 12678507, "rating": -1, "num_reviews": 0, "website": null, "contact_phone": null, "contact_email": null, "status": 1, "source_type": 1, "numberReviews": 0}, {"name": "Wczasy Amber", "type": "hotel", "image": "https://dynamic-media-cdn.tripadvisor.com/media/partner/bookingcom/photo-o/2c/74/a6/7b/caption.jpg?w=1000&s=1", "address": "ul. Jarowa 15, Wladyslawowo 84-120 Poland", "lat": 54.80576, "lng": 18.37249, "ref_id": 8847288, "rating": -1, "num_reviews": 0, "website": null, "contact_phone": null, "contact_email": null, "status": 1, "source_type": 1, "numberReviews": 0}, {"name": "Rodzinna Kraina", "type": "hotel", "image": "https://dynamic-media-cdn.tripadvisor.com/media/partner/bookingcom/photo-o/1a/9a/dc/ba/3393417.jpg?w=1000&s=1", "address": "Wodnica 43, Ustka 76-270 Poland", "lat": 54.55726, "lng": 16.87043, "ref_id": 14773795, "rating": -1, "num_reviews": 0, "website": "http://rodzinnakraina.pl/", "contact_phone": null, "contact_email": null, "status": 1, "source_type": 1, "numberReviews": 0}, {"name": "Stajnia Grazyny", "type": "hotel", "image": "https://dynamic-media-cdn.tripadvisor.com/media/partner/bookingcom/photo-o/2c/77/45/ce/caption.jpg?w=1000&s=1", "address": "Mikorowo 46, Mikorowo 77-116 Poland", "lat": 54.41012, "lng": 17.58389, "ref_id": 17673219, "rating": -1, "num_reviews": 0, "website": "https://www.facebook.com/Stajnia-Gra%C5%BCyny-363589720385893/", "contact_phone": null, "contact_email": null, "status": 1, "source_type": 1, "numberReviews": 0}, {"name": "Przylesie21", "type": "hotel", "image": "https://dynamic-media-cdn.tripadvisor.com/media/partner/bookingcom/photo-o/1c/1b/cc/9e/livingroom.jpg?w=1000&s=1", "address": "Charnowo 21a, Ustka 76-270 Poland", "lat": 54.5535, "lng": 16.91755, "ref_id": 12274520, "rating": -1, "num_reviews": 0, "website": "http://www.przylesie21.pl/", "contact_phone": "+48 602 516 467", "contact_email": "kontakt@przylesie21.pl", "status": 1, "source_type": 1, "numberReviews": 0}, {"name": "Wedrowiec", "type": "hotel", "image": "https://dynamic-media-cdn.tripadvisor.com/media/partner/bookingcom/photo-o/2b/f1/c3/c6/caption.jpg?w=1000&s=1", "address": "Cicha 12, Karwia 84-105 Poland", "lat": 54.82839, "lng": 18.212706, "ref_id": 23401636, "rating": -1, "num_reviews": 0, "website": null, "contact_phone": null, "contact_email": null, "status": 1, "source_type": 1, "numberReviews": 0}, {"name": "Willa Perla", "type": "hotel", "image": "https://dynamic-media-cdn.tripadvisor.com/media/partner/bookingcom/photo-o/2c/75/2d/43/caption.jpg?w=1000&s=1", "address": "ul. Nadba\u0142tycka 7, Karwia 84-105 Poland", "lat": 54.83025, "lng": 18.218754, "ref_id": 23241261, "rating": -1, "num_reviews": 0, "website": null, "contact_phone": null, "contact_email": null, "status": 1, "source_type": 1, "numberReviews": 0}, {"name": "Dom Wczasowy Krystyna", "type": "hotel", "image": "https://dynamic-media-cdn.tripadvisor.com/media/partner/bookingcom/photo-o/2c/84/3a/1b/caption.jpg?w=1000&s=1", "address": "30 Kopernika, Karwia 84-105 Poland", "lat": 54.82935, "lng": 18.209831, "ref_id": 23354002, "rating": -1, "num_reviews": 0, "website": null, "contact_phone": null, "contact_email": null, "status": 1, "source_type": 1, "numberReviews": 0}, {"name": "Willa Nadbaltycka", "type": "hotel", "image": "https://dynamic-media-cdn.tripadvisor.com/media/partner/bookingcom/photo-o/2c/74/30/b2/caption.jpg?w=1000&s=1", "address": "9 Nadbaltycka, Karwia 84-105 Poland", "lat": 54.83023, "lng": 18.21886, "ref_id": 17588767, "rating": -1, "num_reviews": 0, "website": null, "contact_phone": null, "contact_email": null, "status": 1, "source_type": 1, "numberReviews": 0}, {"name": "Dzika Roza", "type": "hotel", "image": "https://dynamic-media-cdn.tripadvisor.com/media/partner/bookingcom/photo-o/2b/40/2d/e8/caption.jpg?w=1000&s=1", "address": "Namiotowa 5, Karwia 84-105 Poland", "lat": 54.82935, "lng": 18.20177, "ref_id": 17352549, "rating": -1, "num_reviews": 0, "website": null, "contact_phone": null, "contact_email": null, "status": 1, "source_type": 1, "numberReviews": 0}, {"name": "Cichy Domek Apartamenty", "type": "hotel", "image": "https://dynamic-media-cdn.tripadvisor.com/media/partner/bookingcom/photo-o/2b/d5/63/c2/caption.jpg?w=1000&s=1", "address": "Lawendowa 5, Karwia 84-105 Poland", "lat": 54.813457, "lng": 18.212706, "ref_id": 23248390, "rating": -1, "num_reviews": 0, "website": null, "contact_phone": null, "contact_email": null, "status": 1, "source_type": 1, "numberReviews": 0}, {"name": "Domki Falabay", "type": "hotel", "image": "https://dynamic-media-cdn.tripadvisor.com/media/partner/bookingcom/photo-o/2b/2f/9b/2a/caption.jpg?w=1000&s=1", "address": "Ul. Spokojna 6, Karwia 84-105 Poland", "lat": 54.810688, "lng": 18.203814, "ref_id": 25272281, "rating": -1, "num_reviews": 0, "website": "https://www.falabay.pl/index.html", "contact_phone": "+48 576 640 376", "contact_email": "domkifalabay@gmail.com", "status": 1, "source_type": 1, "numberReviews": 0}, {"name": "Pokoje Goscinne Knot", "type": "hotel", "image": "https://dynamic-media-cdn.tripadvisor.com/media/partner/bookingcom/photo-o/2b/78/52/56/caption.jpg?w=1000&s=1", "address": "ul. Wczasowa 28, Karwia 84-105 Poland", "lat": 54.82227, "lng": 18.18908, "ref_id": 2649629, "rating": -1, "num_reviews": 0, "website": "http://www.karwia.com/pokoje-goscinne-knot-d816125f", "contact_phone": "+48 502 628 828", "contact_email": "knot0@poczta.onet.pl", "status": 1, "source_type": 1, "numberReviews": 0}, {"name": "Przy Plazy", "type": "hotel", "image": null, "address": "Ul. Wojska Polskiego 20, Karwia 84-105 Poland", "lat": 54.83085, "lng": 18.20635, "ref_id": 17657418, "rating": -1, "num_reviews": 0, "website": "http://www.przyplazykarwia.pl/", "contact_phone": "+48 509 262 438", "contact_email": null, "status": 1, "source_type": 1, "numberReviews": 0}, {"name": "Aloha Blu Karwia", "type": "hotel", "image": null, "address": "Mila 4, Karwia 84-105 Poland", "lat": 54.829838, "lng": 18.21443, "ref_id": 21307434, "rating": -1, "num_reviews": 0, "website": "https://www.facebook.com/ALOHA-BLU-Karwia-100835211690280/", "contact_phone": "+48 731 441 111", "contact_email": null, "status": 1, "source_type": 1, "numberReviews": 0}, {"name": "Limartel", "type": "hotel", "image": null, "address": "ul. Stokrotki 17, Karwia 84-105 Poland", "lat": 54.82841, "lng": 18.22088, "ref_id": 10537217, "rating": -1, "num_reviews": 0, "website": "http://www.limartel.pl", "contact_phone": "+48 697 787 988", "contact_email": "limartel@wp.pl", "status": 1, "source_type": 1, "numberReviews": 0}, {"name": "Espresso", "type": "hotel", "image": "https://dynamic-media-cdn.tripadvisor.com/media/partner/bookingcom/photo-o/29/4b/8b/53/caption.jpg?w=1000&s=1", "address": "ul. Melioracyjna 4 m B5, Karwia 84-105 Poland", "lat": 54.83094, "lng": 18.197783, "ref_id": 21388018, "rating": -1, "num_reviews": 0, "website": null, "contact_phone": null, "contact_email": null, "status": 1, "source_type": 1, "numberReviews": 0}, {"name": "Batory", "type": "hotel", "image": null, "address": "Polnocna 1, Karwia 84-105 Poland", "lat": 54.82984, "lng": 18.218658, "ref_id": 23257090, "rating": -1, "num_reviews": 0, "website": "http://batory.tp1.pl/", "contact_phone": "+48 58 674 80 30", "contact_email": "katarzyna.mietelica@interia.pl", "status": 1, "source_type": 1, "numberReviews": 0}, {"name": "Magdalena", "type": "hotel", "image": "https://dynamic-media-cdn.tripadvisor.com/media/partner/bookingcom/photo-o/2b/85/13/ae/caption.jpg?w=1000&s=1", "address": "22 Rybakow, Karwia 84-105 Poland", "lat": 54.830048, "lng": 18.206535, "ref_id": 23188001, "rating": -1, "num_reviews": 0, "website": null, "contact_phone": null, "contact_email": null, "status": 1, "source_type": 1, "numberReviews": 0}, {"name": "Nemo Domki Letniskowe", "type": "hotel", "image": null, "address": "Relaksowa, Karwia 84-105 Poland", "lat": 54.82966, "lng": 18.20302, "ref_id": 11435986, "rating": -1, "num_reviews": 0, "website": "http://www.nemokarwia.pl/", "contact_phone": "+48 660 718 700", "contact_email": "nemokarwia@wp.pl", "status": 1, "source_type": 1, "numberReviews": 0}, {"name": "Kwatery Chwaszczyno", "type": "hotel", "image": null, "address": "Abrahama 14, Chwaszczyno 80-209 Poland", "lat": 54.441254, "lng": 18.413563, "ref_id": 23279817, "rating": -1, "num_reviews": 0, "website": null, "contact_phone": null, "contact_email": null, "status": 1, "source_type": 1, "numberReviews": 0}, {"name": "Pokoje Goscinne", "type": "hotel", "image": null, "address": "Ul. Kawelska 3, Chwaszczyno 80-209 Poland", "lat": 54.43487, "lng": 18.45269, "ref_id": 15306311, "rating": -1, "num_reviews": 0, "website": "https://pokojeugabrysi.business.site/", "contact_phone": null, "contact_email": null, "status": 1, "source_type": 1, "numberReviews": 0}, {"name": "Zascianek", "type": "hotel", "image": null, "address": "Ul. Waska 23, Chwaszczyno 80-209 Poland", "lat": 54.43518, "lng": 18.4138, "ref_id": 17427981, "rating": -1, "num_reviews": 0, "website": "http://www.zascianek.com.pl/", "contact_phone": "+48 58 552 80 49", "contact_email": "info@zascianek.com.pl", "status": 1, "source_type": 1, "numberReviews": 0}, {"name": "Noclegialex", "type": "hotel", "image": null, "address": "Derdowskiego 14, Chwaszczyno 80-209 Poland", "lat": 54.43996, "lng": 18.41527, "ref_id": 13139957, "rating": -1, "num_reviews": 0, "website": null, "contact_phone": null, "contact_email": null, "status": 1, "source_type": 1, "numberReviews": 0}, {"name": "Villa Terra", "type": "hotel", "image": "https://dynamic-media-cdn.tripadvisor.com/media/partner/bookingcom/photo-o/29/2d/d7/00/caption.jpg?w=1000&s=1", "address": "Borowkowa 6, Rotmanka 83-010 Poland", "lat": 54.27014, "lng": 18.612, "ref_id": 15690063, "rating": -1, "num_reviews": 0, "website": null, "contact_phone": null, "contact_email": null, "status": 1, "source_type": 1, "numberReviews": 0}, {"name": "Apartamenty Nad Wdzydzami", "type": "hotel", "image": null, "address": "Przytarnia 4A, Knieja 83-441 Poland", "lat": 53.95714, "lng": 17.88718, "ref_id": 18206869, "rating": -1, "num_reviews": 0, "website": "https://www.facebook.com/nadwdzydzami/", "contact_phone": "+48 605 433 729", "contact_email": null, "status": 1, "source_type": 1, "numberReviews": 0}, {"name": "S\u0142oneczna Polana", "type": "hotel", "image": "https://dynamic-media-cdn.tripadvisor.com/media/photo-o/1c/8f/91/97/domek-magdalenka.jpg?w=1000&s=1", "address": "S\u0142ajszewo 41A, Slajszewo 84-210 Poland", "lat": 54.775307, "lng": 17.776705, "ref_id": 15772843, "rating": -1, "num_reviews": 0, "website": "http://www.sloneczna-polana-slajszewo.pl", "contact_phone": "+48 785 414 469", "contact_email": "sloneczna.polana@interia.pl", "status": 1, "source_type": 1, "numberReviews": 0}, {"name": "Sloneczny Zakatek", "type": "hotel", "image": "https://dynamic-media-cdn.tripadvisor.com/media/photo-o/1b/d4/85/ca/sloneczny-zakatek.jpg?w=1000&s=1", "address": "Slajszewo 84-210 Poland", "lat": null, "lng": null, "ref_id": 21232743, "rating": -1, "num_reviews": 0, "website": "http://www.facebook.com/SlonecznyZakatekSlajszewo/", "contact_phone": "+48 501 692 776", "contact_email": null, "status": 1, "source_type": 1, "numberReviews": 0}, {"name": "Restauracja Zajazd Trefl", "type": "hotel", "image": "https://dynamic-media-cdn.tripadvisor.com/media/partner/bookingcom/photo-o/2a/d5/93/3a/caption.jpg?w=1000&s=1", "address": "Klonowa 43, Czarlin 83-110 Poland", "lat": 54.04089, "lng": 18.75894, "ref_id": 18194082, "rating": -1, "num_reviews": 0, "website": null, "contact_phone": null, "contact_email": null, "status": 1, "source_type": 1, "numberReviews": 0}, {"name": "Apartamenty Bingo", "type": "hotel", "image": null, "address": "Armii Krajowej 36, Ustka 76-270 Poland", "lat": 54.582817, "lng": 16.89214, "ref_id": 25363551, "rating": -1, "num_reviews": 0, "website": "https://bingoustka.pl/", "contact_phone": "+48 502 592 876", "contact_email": "apartments@bingoustka.pl", "status": 1, "source_type": 1, "numberReviews": 0}, {"name": "Pokoje Goscinne Jasiek", "type": "hotel", "image": "https://dynamic-media-cdn.tripadvisor.com/media/partner/bookingcom/photo-o/2c/9a/b6/97/caption.jpg?w=1000&s=1", "address": "Azaliowa 5, Ustka 76-270 Poland", "lat": 54.57124, "lng": 16.84711, "ref_id": 15032544, "rating": -1, "num_reviews": 0, "website": null, "contact_phone": null, "contact_email": null, "status": 1, "source_type": 1, "numberReviews": 0}, {"name": "Apartamenty Krokus", "type": "hotel", "image": "https://dynamic-media-cdn.tripadvisor.com/media/partner/bookingcom/photo-o/2c/75/4a/6d/caption.jpg?w=1000&s=1", "address": "ul. Krokusowa 50, Ustka 76-270 Poland", "lat": 54.57219, "lng": 16.8484, "ref_id": 6611526, "rating": -1, "num_reviews": 0, "website": "http://www.apartamentkrokus.pl/", "contact_phone": "+48 601 644 580", "contact_email": "apartament.krokus@wp.pl", "status": 1, "source_type": 1, "numberReviews": 0}, {"name": "Pokoje We Wrzeszczu - Near Old Town", "type": "hotel", "image": "https://dynamic-media-cdn.tripadvisor.com/media/partner/bookingcom/photo-o/2c/8f/4a/1d/caption.jpg?w=1000&s=1", "address": "Miko\u0142aja Reja 30B/5, Gdansk 80-404 Poland", "lat": 54.38061, "lng": 18.62423, "ref_id": 17551150, "rating": -1, "num_reviews": 0, "website": null, "contact_phone": null, "contact_email": null, "status": 1, "source_type": 1, "numberReviews": 0}, {"name": "New Whitehouse Rooms", "type": "hotel", "image": "https://dynamic-media-cdn.tripadvisor.com/media/partner/bookingcom/photo-o/2c/a3/e9/13/caption.jpg?w=1000&s=1", "address": "Ul. Aleja Grunwaldzka 10/3, Gdansk 80-236 Poland", "lat": 54.37837, "lng": 18.60554, "ref_id": 15584617, "rating": -1, "num_reviews": 0, "website": "https://gdanskiespanie.pl/nocleg/3617728", "contact_phone": null, "contact_email": null, "status": 1, "source_type": 1, "numberReviews": 0}, {"name": "B&B Tomula", "type": "hotel", "image": "https://dynamic-media-cdn.tripadvisor.com/media/partner/bookingcom/photo-o/29/3d/9a/11/caption.jpg?w=1000&s=1", "address": "Ul. Kollataja 3D, Gdansk 80-262 Poland", "lat": 54.38055, "lng": 18.59601, "ref_id": 16670623, "rating": -1, "num_reviews": 0, "website": "http://www.tomula.pl/", "contact_phone": null, "contact_email": null, "status": 1, "source_type": 1, "numberReviews": 0}, {"name": "Glow Apartments, Gdansk Slaska 12", "type": "hotel", "image": "https://dynamic-media-cdn.tripadvisor.com/media/partner/bookingcom/photo-o/2c/d2/ec/e8/caption.jpg?w=1000&s=1", "address": "12 \u015al\u0105ska, Gdansk 80-389 Poland", "lat": 54.406204, "lng": 18.576782, "ref_id": 27952516, "rating": -1, "num_reviews": 0, "website": null, "contact_phone": null, "contact_email": null, "status": 1, "source_type": 1, "numberReviews": 0}, {"name": "By The River Apartments", "type": "hotel", "image": "https://dynamic-media-cdn.tripadvisor.com/media/partner/bookingcom/photo-o/29/2d/42/e0/caption.jpg?w=1000&s=1", "address": "Dlugie Pobrzeze 17, Gdansk 80-888 Poland", "lat": 54.34976, "lng": 18.65695, "ref_id": 17666907, "rating": -1, "num_reviews": 0, "website": null, "contact_phone": null, "contact_email": null, "status": 1, "source_type": 1, "numberReviews": 0}, {"name": "Morelowa Przystan", "type": "hotel", "image": "https://dynamic-media-cdn.tripadvisor.com/media/partner/bookingcom/photo-o/1a/9d/02/f8/4768886.jpg?w=1000&s=1", "address": "Ul. Goplanska 12, Gdansk 80-178 Poland", "lat": 54.33728, "lng": 18.518202, "ref_id": 19723160, "rating": -1, "num_reviews": 0, "website": null, "contact_phone": null, "contact_email": null, "status": 1, "source_type": 1, "numberReviews": 0}, {"name": "Apartamenty Jelitkowska 13", "type": "hotel", "image": "https://dynamic-media-cdn.tripadvisor.com/media/partner/bookingcom/photo-o/2b/09/8d/9b/caption.jpg?w=1000&s=1", "address": "13 Jelitkowska, Gdansk 80-342 Poland", "lat": 54.425877, "lng": 18.592337, "ref_id": 25173423, "rating": -1, "num_reviews": 0, "website": null, "contact_phone": null, "contact_email": null, "status": 1, "source_type": 1, "numberReviews": 0}, {"name": "Dom & House Apartamenty Nadmorski Dwor", "type": "hotel", "image": "https://dynamic-media-cdn.tripadvisor.com/media/partner/bookingcom/photo-o/1c/e8/20/97/livingroom.jpg?w=1000&s=1", "address": "Ul. Nadmorski Dwor 1-34, Gdansk 80-506 Poland", "lat": 54.40565, "lng": 18.62375, "ref_id": 15642841, "rating": -1, "num_reviews": 0, "website": "http://dhapartamenty.pl", "contact_phone": null, "contact_email": "biuro@dhapartamenty.pl", "status": 1, "source_type": 1, "numberReviews": 0}, {"name": "Dom & House - Apartments Waterlane Vintage", "type": "hotel", "image": "https://dynamic-media-cdn.tripadvisor.com/media/partner/bookingcom/photo-o/2c/fa/3b/43/caption.jpg?w=1000&s=1", "address": "17 Wa\u0142owa, Gdansk 80-858 Poland", "lat": 54.35908, "lng": 18.650526, "ref_id": 27991111, "rating": -1, "num_reviews": 0, "website": null, "contact_phone": null, "contact_email": null, "status": 1, "source_type": 1, "numberReviews": 0}, {"name": "Mieszkanie W Gdanskiej Kamienicy Wrzeszcz", "type": "hotel", "image": null, "address": "Ul. Mickiewicza 45/6, Gdansk 80-405 Poland", "lat": 54.38275, "lng": 18.62583, "ref_id": 15212506, "rating": -1, "num_reviews": 0, "website": null, "contact_phone": null, "contact_email": null, "status": 1, "source_type": 1, "numberReviews": 0}, {"name": "Gryf Apartments", "type": "hotel", "image": null, "address": "Dluga 69, Gdansk Poland", "lat": 54.34944, "lng": 18.65007, "ref_id": 12873176, "rating": -1, "num_reviews": 0, "website": null, "contact_phone": null, "contact_email": null, "status": 1, "source_type": 1, "numberReviews": 0}, {"name": "Apartamenty Gdansk EU - Apartamenty Nadmorskie Exclusive", "type": "hotel", "image": null, "address": "Ul. Nadmorski Dwor 22B,, Gdansk 80-506 Poland", "lat": 54.40627, "lng": 18.62132, "ref_id": 15809852, "rating": -1, "num_reviews": 0, "website": null, "contact_phone": null, "contact_email": null, "status": 1, "source_type": 1, "numberReviews": 0}, {"name": "Pokoje Gorka Gdansk", "type": "hotel", "image": null, "address": "Gorka 11/11, Gdansk 22-100 Poland", "lat": 54.34985, "lng": 18.64025, "ref_id": 15353738, "rating": -1, "num_reviews": 0, "website": null, "contact_phone": null, "contact_email": null, "status": 1, "source_type": 1, "numberReviews": 0}, {"name": "ZK by Happy 7 Apartments", "type": "hotel", "image": null, "address": "11 Zabi Kruk, Gdansk 80-822 Poland", "lat": 54.34308, "lng": 18.64905, "ref_id": 15829250, "rating": -1, "num_reviews": 0, "website": null, "contact_phone": null, "contact_email": null, "status": 1, "source_type": 1, "numberReviews": 0}, {"name": "Sassy Suites", "type": "hotel", "image": null, "address": "10 Chmielna, Gdansk 80-748 Poland", "lat": 54.34814, "lng": 18.65713, "ref_id": 21381696, "rating": -1, "num_reviews": 0, "website": null, "contact_phone": null, "contact_email": null, "status": 1, "source_type": 1, "numberReviews": 0}, {"name": "Apartamenty Old Town Mniszki", "type": "hotel", "image": "https://dynamic-media-cdn.tripadvisor.com/media/partner/bookingcom/photo-o/1c/26/b7/cc/3295914.jpg?w=1000&s=1", "address": "Mniszki 9C/3, Gdansk 80-856 Poland", "lat": 54.3553, "lng": 18.65277, "ref_id": 15816286, "rating": -1, "num_reviews": 0, "website": null, "contact_phone": null, "contact_email": null, "status": 1, "source_type": 1, "numberReviews": 0}, {"name": "HostelRoom HRG", "type": "hotel", "image": "https://dynamic-media-cdn.tripadvisor.com/media/photo-o/01/f5/ba/f3/getlstd-property-photo.jpg?w=1000&s=1", "address": "Ul. Grodzka 8b/2, Gdansk 80-841 Poland", "lat": 54.35394, "lng": 18.6597, "ref_id": 2719014, "rating": -1, "num_reviews": 0, "website": null, "contact_phone": "+48 534 298 683", "contact_email": "hrg@hostelroomgdansk.pl", "status": 1, "source_type": 1, "numberReviews": 0}, {"name": "Rooms Oliwa", "type": "hotel", "image": null, "address": "Ul. Msciwoja II 50/37, Gdansk 80-357 Poland", "lat": 54.412926, "lng": 18.578215, "ref_id": 23437953, "rating": -1, "num_reviews": 0, "website": null, "contact_phone": null, "contact_email": null, "status": 1, "source_type": 1, "numberReviews": 0}, {"name": "Honey Apartments", "type": "hotel", "image": "https://dynamic-media-cdn.tripadvisor.com/media/partner/bookingcom/photo-o/19/b4/10/87/bed.jpg?w=1000&s=1", "address": "ul. Tartaczna 3, Gdansk 80-841 Poland", "lat": 54.354755, "lng": 18.655909, "ref_id": 15816093, "rating": -1, "num_reviews": 0, "website": null, "contact_phone": null, "contact_email": null, "status": 1, "source_type": 1, "numberReviews": 0}, {"name": "Seaside Exclusive Apartments", "type": "hotel", "image": null, "address": "ul. Olsztynska 3c, Gdansk 80-395 Poland", "lat": 54.4052, "lng": 18.60674, "ref_id": 3528616, "rating": -1, "num_reviews": 0, "website": null, "contact_phone": null, "contact_email": null, "status": 1, "source_type": 1, "numberReviews": 0}, {"name": "Pokoje Zaspa II", "type": "hotel", "image": null, "address": "Pilotow 14A / 4, Gdansk 80-460 Poland", "lat": 54.39356, "lng": 18.59088, "ref_id": 14016631, "rating": -1, "num_reviews": 0, "website": null, "contact_phone": null, "contact_email": null, "status": 1, "source_type": 1, "numberReviews": 0}, {"name": "Domki Babie Lato Caloroczne", "type": "hotel", "image": null, "address": "Boguckiego 1 A, Gdansk 80-690 Poland", "lat": 54.33927, "lng": 18.895658, "ref_id": 20147474, "rating": -1, "num_reviews": 0, "website": null, "contact_phone": null, "contact_email": null, "status": 1, "source_type": 1, "numberReviews": 0}, {"name": "All For Sophie Apartments", "type": "hotel", "image": "https://dynamic-media-cdn.tripadvisor.com/media/partner/bookingcom/photo-o/2d/09/59/4c/caption.jpg?w=1000&s=1", "address": "Lakowa 16, Gdansk 80-743 Poland", "lat": 54.342518, "lng": 18.661283, "ref_id": 27990353, "rating": -1, "num_reviews": 0, "website": "https://www.facebook.com/allforSophieapartments/", "contact_phone": "+48 881 400 814", "contact_email": null, "status": 1, "source_type": 1, "numberReviews": 0}, {"name": "Leopold Winter Residence", "type": "hotel", "image": "https://dynamic-media-cdn.tripadvisor.com/media/partner/bookingcom/photo-o/2c/77/49/d2/caption.jpg?w=1000&s=1", "address": "Ul.Kotwicznikow 12/A2, Gdansk 80-881 Poland", "lat": 54.34522, "lng": 18.65316, "ref_id": 17628205, "rating": -1, "num_reviews": 0, "website": null, "contact_phone": null, "contact_email": null, "status": 1, "source_type": 1, "numberReviews": 0}, {"name": "Stay Win Prime Apartments Chmielna", "type": "hotel", "image": null, "address": "Torunska 15U10 U10, Gdansk 80-747 Poland", "lat": 54.34225, "lng": 18.65458, "ref_id": 21304086, "rating": -1, "num_reviews": 0, "website": null, "contact_phone": null, "contact_email": null, "status": 1, "source_type": 1, "numberReviews": 0}, {"name": "Victus Apartamenty Cztery Oceany", "type": "hotel", "image": null, "address": "Ul. Obroncow Wybrzeza 15, Gdansk 80-369 Poland", "lat": 54.410294, "lng": 18.60417, "ref_id": 15828676, "rating": -1, "num_reviews": 0, "website": null, "contact_phone": null, "contact_email": null, "status": 1, "source_type": 1, "numberReviews": 0}, {"name": "Drim Apartaments", "type": "hotel", "image": "https://dynamic-media-cdn.tripadvisor.com/media/partner/bookingcom/photo-o/2b/78/34/ba/caption.jpg?w=1000&s=1", "address": "Swietej Barbary 11, Gdansk 80-755 Poland", "lat": 54.34958, "lng": 18.66267, "ref_id": 15849076, "rating": -1, "num_reviews": 0, "website": null, "contact_phone": null, "contact_email": null, "status": 1, "source_type": 1, "numberReviews": 0}, {"name": "Apartamenty Schuberta", "type": "hotel", "image": "https://dynamic-media-cdn.tripadvisor.com/media/partner/bookingcom/photo-o/1b/81/1c/e8/5466510.jpg?w=1000&s=1", "address": "Franciszka Schuberta 10, Gdansk 80-171 Poland", "lat": 54.35967, "lng": 18.604794, "ref_id": 19928732, "rating": -1, "num_reviews": 0, "website": null, "contact_phone": null, "contact_email": null, "status": 1, "source_type": 1, "numberReviews": 0}, {"name": "Dworek Krolewski Malgorzata", "type": "hotel", "image": "https://dynamic-media-cdn.tripadvisor.com/media/partner/bookingcom/photo-o/2c/da/8d/49/caption.jpg?w=1000&s=1", "address": "Drawska 4, Gdansk 80-299 Poland", "lat": 54.43705, "lng": 18.46473, "ref_id": 27177816, "rating": -1, "num_reviews": 0, "website": null, "contact_phone": "+48 578 577 077", "contact_email": null, "status": 1, "source_type": 1, "numberReviews": 0}, {"name": "Acco Rent - Barbara Park", "type": "hotel", "image": null, "address": "Swietej Barbary 12c, Gdansk 80-753 Poland", "lat": 54.34867, "lng": 18.66294, "ref_id": 15810574, "rating": -1, "num_reviews": 0, "website": null, "contact_phone": null, "contact_email": null, "status": 1, "source_type": 1, "numberReviews": 0}, {"name": "Pokoje Na Wynajem Sopot", "type": "hotel", "image": "https://dynamic-media-cdn.tripadvisor.com/media/partner/bookingcom/photo-o/2a/c7/1e/2f/caption.jpg?w=1000&s=1", "address": "687 Aleja Niepodleg\u0142osci, Sopot 81-854 Poland", "lat": 54.43185, "lng": 18.562204, "ref_id": 23281686, "rating": -1, "num_reviews": 0, "website": null, "contact_phone": null, "contact_email": null, "status": 1, "source_type": 1, "numberReviews": 0}, {"name": "Apartamenty Al Mare", "type": "hotel", "image": "https://dynamic-media-cdn.tripadvisor.com/media/partner/bookingcom/photo-o/2b/9a/47/c5/caption.jpg?w=1000&s=1", "address": "11B Morska 12, Sopot 81-764 Poland", "lat": 54.445614, "lng": 18.567385, "ref_id": 27181479, "rating": -1, "num_reviews": 0, "website": null, "contact_phone": null, "contact_email": null, "status": 1, "source_type": 1, "numberReviews": 0}, {"name": "Imperial Apartments Helska", "type": "hotel", "image": "https://dynamic-media-cdn.tripadvisor.com/media/partner/bookingcom/photo-o/1c/eb/e4/a1/bedroom.jpg?w=1000&s=1", "address": "Helska 7, Sopot 81-742 Poland", "lat": 54.44785, "lng": 18.56287, "ref_id": 16829335, "rating": -1, "num_reviews": 0, "website": null, "contact_phone": null, "contact_email": null, "status": 1, "source_type": 1, "numberReviews": 0}, {"name": "Kwatera Prywatna Maja", "type": "hotel", "image": "https://dynamic-media-cdn.tripadvisor.com/media/partner/bookingcom/photo-o/2d/1a/bd/73/caption.jpg?w=1000&s=1", "address": "Ul. 3 Maja 5, Sopot 80-729 Poland", "lat": 54.43852, "lng": 18.57329, "ref_id": 16675697, "rating": -1, "num_reviews": 0, "website": null, "contact_phone": null, "contact_email": null, "status": 1, "source_type": 1, "numberReviews": 0}, {"name": "Dom & House Apartamenty Sopocka Rezydencja", "type": "hotel", "image": "https://dynamic-media-cdn.tripadvisor.com/media/partner/bookingcom/photo-o/2b/63/01/1c/caption.jpg?w=1000&s=1", "address": "Ul. Lokietka 19, Sopot 81-735 Poland", "lat": 54.43352, "lng": 18.57166, "ref_id": 16675577, "rating": -1, "num_reviews": 0, "website": "http://dhapartamenty.pl", "contact_phone": null, "contact_email": "biuro@dhapartamenty.pl", "status": 1, "source_type": 1, "numberReviews": 0}, {"name": "Mieszkanie Przy Sztormowej", "type": "hotel", "image": null, "address": "Sztormowa 6c/10 Jelitkowo, Sopot 80-343 Poland", "lat": 54.422543, "lng": 18.572485, "ref_id": 8728334, "rating": -1, "num_reviews": 0, "website": null, "contact_phone": null, "contact_email": null, "status": 1, "source_type": 1, "numberReviews": 0}, {"name": "Pokoje Przy Molo", "type": "hotel", "image": null, "address": "ul. Bohaterow Monte Cassino 50, Sopot 81-759 Poland", "lat": 54.44413, "lng": 18.56731, "ref_id": 8674674, "rating": -1, "num_reviews": 0, "website": null, "contact_phone": null, "contact_email": null, "status": 1, "source_type": 1, "numberReviews": 0}, {"name": "Apartamenty Sopot-Topos", "type": "hotel", "image": null, "address": "Ma\u0142opolska 30A, Sopot 81-813 Poland", "lat": 54.45714, "lng": 18.54818, "ref_id": 16710973, "rating": -1, "num_reviews": 0, "website": "http://sopot-topos.pl/", "contact_phone": null, "contact_email": null, "status": 1, "source_type": 1, "numberReviews": 0}, {"name": "Studia Aloha - Acco Rent", "type": "hotel", "image": "https://dynamic-media-cdn.tripadvisor.com/media/partner/bookingcom/photo-o/2d/22/5b/e0/caption.jpg?w=1000&s=1", "address": "9 Lipowa, Sopot 81-703 Poland", "lat": null, "lng": null, "ref_id": 28023550, "rating": -1, "num_reviews": 0, "website": null, "contact_phone": null, "contact_email": null, "status": 1, "source_type": 1, "numberReviews": 0}, {"name": "La Boutique Studio", "type": "hotel", "image": "https://dynamic-media-cdn.tripadvisor.com/media/partner/bookingcom/photo-o/2b/9a/43/3d/caption.jpg?w=1000&s=1", "address": "Morska, Sopot 81-764 Poland", "lat": 54.445538, "lng": 18.566538, "ref_id": 27181552, "rating": -1, "num_reviews": 0, "website": null, "contact_phone": null, "contact_email": null, "status": 1, "source_type": 1, "numberReviews": 0}, {"name": "Dom Goscinny LukLuk", "type": "hotel", "image": "https://dynamic-media-cdn.tripadvisor.com/media/photo-o/1a/a0/41/33/taras-sloneczny-dostepny.jpg?w=1000&s=1", "address": "Armii Krajowej 76-82, Sopot 81-844 Poland", "lat": 54.43949, "lng": 18.558414, "ref_id": 19087736, "rating": -1, "num_reviews": 0, "website": "http://hostel.kooperacjasopot.org.pl/", "contact_phone": "+48 730 930 859", "contact_email": "domgoscinny@kooperacjasopot.org.pl", "status": 1, "source_type": 1, "numberReviews": 0}, {"name": "Apartamenty Sopot Centrum", "type": "hotel", "image": "https://dynamic-media-cdn.tripadvisor.com/media/partner/bookingcom/photo-o/2c/74/3c/fd/caption.jpg?w=1000&s=1", "address": "Niepodleglosci 780 1, Sopot 81-550 Poland", "lat": 54.4423, "lng": 18.55964, "ref_id": 15849321, "rating": -1, "num_reviews": 0, "website": null, "contact_phone": null, "contact_email": null, "status": 1, "source_type": 1, "numberReviews": 0}, {"name": "Hello Sopot", "type": "hotel", "image": "https://dynamic-media-cdn.tripadvisor.com/media/partner/bookingcom/photo-o/1d/37/c8/67/photoofthewholeroom.jpg?w=1000&s=1", "address": "Helska, Sopot 81-718 Poland", "lat": 54.44835, "lng": 18.5641, "ref_id": 17620573, "rating": -1, "num_reviews": 0, "website": null, "contact_phone": null, "contact_email": null, "status": 1, "source_type": 1, "numberReviews": 0}, {"name": "Willa Kameralna", "type": "hotel", "image": null, "address": "Emilii Plater 17, Sopot 81-777 Poland", "lat": 54.43637, "lng": 18.580572, "ref_id": 19856250, "rating": -1, "num_reviews": 0, "website": null, "contact_phone": null, "contact_email": null, "status": 1, "source_type": 1, "numberReviews": 0}, {"name": "CitySOPOT-Centrum-Dabrowskiego", "type": "hotel", "image": "https://dynamic-media-cdn.tripadvisor.com/media/partner/bookingcom/photo-o/2a/f3/61/8c/caption.jpg?w=1000&s=1", "address": "Genera\u0142a Jaros\u0142awa D\u0105browskiego 1-5/15 Pi\u0119tro 1, Sopot 81-754 Poland", "lat": 54.441795, "lng": 18.570951, "ref_id": 26822770, "rating": -1, "num_reviews": 0, "website": null, "contact_phone": null, "contact_email": null, "status": 1, "source_type": 1, "numberReviews": 0}, {"name": "Elite Apartments Sopot Marine", "type": "hotel", "image": null, "address": "9 Fryderyka Chopina, Sopot 81-752 Poland", "lat": 54.44145, "lng": 18.565727, "ref_id": 23911239, "rating": -1, "num_reviews": 0, "website": null, "contact_phone": null, "contact_email": null, "status": 1, "source_type": 1, "numberReviews": 0}, {"name": "Sopockie Pokoje - Niepodleglosci 794", "type": "hotel", "image": null, "address": "794 Aleja Niepodleglosci, Sopot 81-805 Poland", "lat": 54.44351, "lng": 18.55936, "ref_id": 12591824, "rating": -1, "num_reviews": 0, "website": null, "contact_phone": null, "contact_email": null, "status": 1, "source_type": 1, "numberReviews": 0}, {"name": "Green House", "type": "hotel", "image": null, "address": "31 Fryderyka Chopina 31, Sopot 81-752 Poland", "lat": 54.44203, "lng": 18.56786, "ref_id": 13238807, "rating": -1, "num_reviews": 0, "website": null, "contact_phone": null, "contact_email": null, "status": 1, "source_type": 1, "numberReviews": 0}, {"name": "Apartamenty Pod Sosnami", "type": "hotel", "image": null, "address": "48 Genera\u0142a J\u00f3zefa Wybickiego, Sopot 81-842 Poland", "lat": 54.43666, "lng": 18.551098, "ref_id": 27700321, "rating": -1, "num_reviews": 0, "website": null, "contact_phone": "+48 720 705 839", "contact_email": null, "status": 1, "source_type": 1, "numberReviews": 0}, {"name": "Pokoje Goscinne", "type": "hotel", "image": "https://dynamic-media-cdn.tripadvisor.com/media/partner/bookingcom/photo-o/1b/db/b4/1e/4747844.jpg?w=1000&s=1", "address": "Ul . Kosciuszki 44, Sopot 81-704 Poland", "lat": 54.43796, "lng": 18.56399, "ref_id": 19276321, "rating": -1, "num_reviews": 0, "website": null, "contact_phone": null, "contact_email": null, "status": 1, "source_type": 1, "numberReviews": 0}, {"name": "Sopot Pokoje Przy Plazy II", "type": "hotel", "image": null, "address": "3 Maja 18/4, Sopot 81-747 Poland", "lat": 54.44292, "lng": 18.55908, "ref_id": 15583317, "rating": -1, "num_reviews": 0, "website": null, "contact_phone": null, "contact_email": null, "status": 1, "source_type": 1, "numberReviews": 0}, {"name": "Sanhaus Apartments - Fiszera", "type": "hotel", "image": null, "address": "Fiszera 6, Sopot 81-784 Poland", "lat": 54.442574, "lng": 18.567642, "ref_id": 21339096, "rating": -1, "num_reviews": 0, "website": null, "contact_phone": null, "contact_email": null, "status": 1, "source_type": 1, "numberReviews": 0}, {"name": "Sopot - Guest Rooms", "type": "hotel", "image": null, "address": "Broniewskiego 1/2, Sopot 81-837 Poland", "lat": 54.44023, "lng": 18.5587, "ref_id": 17678062, "rating": -1, "num_reviews": 0, "website": null, "contact_phone": null, "contact_email": null, "status": 1, "source_type": 1, "numberReviews": 0}, {"name": "Aura Sopot Studio Apartments", "type": "hotel", "image": "https://dynamic-media-cdn.tripadvisor.com/media/partner/bookingcom/photo-o/29/32/50/13/caption.jpg?w=1000&s=1", "address": "877a Aleja Niepodleg\u0142osci, Sopot 81-861 Poland", "lat": 54.450832, "lng": 18.555695, "ref_id": 23281255, "rating": -1, "num_reviews": 0, "website": null, "contact_phone": null, "contact_email": null, "status": 1, "source_type": 1, "numberReviews": 0}, {"name": "Mieszkanie - Armii Krajowej 32", "type": "hotel", "image": "https://dynamic-media-cdn.tripadvisor.com/media/partner/bookingcom/photo-o/1d/4e/83/08/6547446.jpg?w=1000&s=1", "address": "32 Armii Krajowej 25, Sopot 81-366 Poland", "lat": 54.517666, "lng": 18.540623, "ref_id": 23184012, "rating": -1, "num_reviews": 0, "website": null, "contact_phone": null, "contact_email": null, "status": 1, "source_type": 1, "numberReviews": 0}, {"name": "Apartament Anny", "type": "hotel", "image": "https://dynamic-media-cdn.tripadvisor.com/media/partner/bookingcom/photo-o/29/2d/78/76/caption.jpg?w=1000&s=1", "address": "Ksiazat Pomorskich 17/7, Sopot 81-749 Poland", "lat": 54.438286, "lng": 18.570526, "ref_id": 23360174, "rating": -1, "num_reviews": 0, "website": null, "contact_phone": null, "contact_email": null, "status": 1, "source_type": 1, "numberReviews": 0}, {"name": "Apartamenty Marea - Sopot Centrum", "type": "hotel", "image": "https://dynamic-media-cdn.tripadvisor.com/media/partner/bookingcom/photo-o/2b/9c/c9/52/caption.jpg?w=1000&s=1", "address": "Generala Kazimierza Pulaskiego 11A, Sopot 81-760 Poland", "lat": 54.44325, "lng": 18.56676, "ref_id": 15682553, "rating": -1, "num_reviews": 0, "website": null, "contact_phone": null, "contact_email": null, "status": 1, "source_type": 1, "numberReviews": 0}, {"name": "Apartament Z Widokiem na Morze", "type": "hotel", "image": "https://dynamic-media-cdn.tripadvisor.com/media/partner/bookingcom/photo-o/2b/78/52/6c/caption.jpg?w=1000&s=1", "address": "Grottgera 6-8/34, Sopot 81-809 Poland", "lat": 54.443832, "lng": 18.558277, "ref_id": 21310203, "rating": -1, "num_reviews": 0, "website": null, "contact_phone": null, "contact_email": null, "status": 1, "source_type": 1, "numberReviews": 0}, {"name": "3 City Apartments - Fryderyk", "type": "hotel", "image": "https://dynamic-media-cdn.tripadvisor.com/media/partner/bookingcom/photo-o/29/31/93/45/caption.jpg?w=1000&s=1", "address": "Fryderyka Chopina 7/9, Sopot 81-752 Poland", "lat": 54.44115, "lng": 18.56619, "ref_id": 15682528, "rating": -1, "num_reviews": 0, "website": null, "contact_phone": null, "contact_email": null, "status": 1, "source_type": 1, "numberReviews": 0}, {"name": "Green Apartments", "type": "hotel", "image": "https://dynamic-media-cdn.tripadvisor.com/media/photo-o/05/62/a4/66/green-apartments.jpg?w=1000&s=1", "address": "ul. Gen. Jozefa Wybickiego 11, Sopot 81-842 Poland", "lat": 54.43766, "lng": 18.55892, "ref_id": 3386205, "rating": -1, "num_reviews": 0, "website": "http://www.sopotgroup.pl/", "contact_phone": "+48 501 222 886", "contact_email": null, "status": 1, "source_type": 1, "numberReviews": 0}, {"name": "Mazurska Le\u015bnicz\u00f3wka Nowy Zyzdr\u00f3j", "type": "hotel", "image": "https://dynamic-media-cdn.tripadvisor.com/media/photo-o/1b/93/78/a8/mazurska-lesniczowka.jpg?w=1000&s=1", "address": "Nowy Zyzdroj 2, Piecki 11-710 Poland", "lat": 53.65993, "lng": 21.29601, "ref_id": 5773306, "rating": 4, "num_reviews": 0, "website": "http://www.nowyzyzdroj.pl", "contact_phone": "+48 603 461 870", "contact_email": "nowyzyzdroj@gmail.com", "status": 1, "source_type": 1, "numberReviews": 24}, {"name": "Willa Preludium", "type": "hotel", "image": "https://dynamic-media-cdn.tripadvisor.com/media/photo-o/0b/af/1a/c1/willa-preludium.jpg?w=1000&s=1", "address": "ul. Jaskowa Dolina 94, Gdansk 80-286 Poland", "lat": 54.36977, "lng": 18.59741, "ref_id": 3377929, "rating": 4.5, "num_reviews": 0, "website": "http://www.willa-preludium.pl", "contact_phone": "+48 58 341 60 72", "contact_email": "kontakt@willa-preludium.pl", "status": 1, "source_type": 1, "numberReviews": 17}, {"name": "Lux Apartments", "type": "hotel", "image": "https://dynamic-media-cdn.tripadvisor.com/media/photo-o/11/f3/9c/28/photo0jpg.jpg?w=1000&s=1", "address": "ul. Dlugie Pobrzeze 15, Gdansk 80-888 Poland", "lat": 54.34965, "lng": 18.65688, "ref_id": 9733077, "rating": 4.5, "num_reviews": 0, "website": null, "contact_phone": "+48 698 372 923", "contact_email": null, "status": 1, "source_type": 1, "numberReviews": 19}, {"name": "Hotel Dom M\u0142ynarza", "type": "hotel", "image": "https://dynamic-media-cdn.tripadvisor.com/media/photo-o/18/44/a9/dc/hotel-dom-mlynarza.jpg?w=1000&s=1", "address": "ul. M\u0142ynska 2, Zukczyn 83-031 Poland", "lat": 54.21234, "lng": 18.60704, "ref_id": 7099615, "rating": 4.5, "num_reviews": 0, "website": "http://dommlynarza.pl", "contact_phone": "+48 519 595 860", "contact_email": "biuro@dommlynarza.pl", "status": 1, "source_type": 1, "numberReviews": 28}, {"name": "Pensjonat Kipnick", "type": "hotel", "image": "https://dynamic-media-cdn.tripadvisor.com/media/photo-o/0f/aa/c4/c6/wiata-grillowa.jpg?w=1000&s=1", "address": "ul. Lesna 4, Spychowo 12-150 Poland", "lat": 53.597, "lng": 21.33798, "ref_id": 1105674, "rating": 5, "num_reviews": 0, "website": "http://www.kipnick.pl/", "contact_phone": "+48 602 175 896", "contact_email": "kipnick@kipnick.pl", "status": 1, "source_type": 1, "numberReviews": 19}, {"name": "Hotel Kopernik", "type": "hotel", "image": "https://dynamic-media-cdn.tripadvisor.com/media/photo-o/0b/74/f6/9a/breakfast.jpg?w=1000&s=1", "address": "ul. Zielona 1, Lidzbark Warminski 11-100 Poland", "lat": 54.12352, "lng": 20.58268, "ref_id": 3263519, "rating": 4.5, "num_reviews": 0, "website": "http://www.kopernikhotel.pl/", "contact_phone": "+48 089 767 50 10", "contact_email": "info@kopernikhotel.pl", "status": 1, "source_type": 1, "numberReviews": 19}, {"name": "Nad Stawem Camping Malbork", "type": "hotel", "image": "https://dynamic-media-cdn.tripadvisor.com/media/photo-o/08/32/a5/ee/getlstd-property-photo.jpg?w=1000&s=1", "address": "ul. Ludwika Solskiego 10, Malbork 82-200 Poland", "lat": 54.044937, "lng": 19.025913, "ref_id": 8387025, "rating": 4, "num_reviews": 0, "website": "http://www.malbork-kemping.eu", "contact_phone": "+48 501 406 740", "contact_email": "biuro@malbork-kemping.eu", "status": 1, "source_type": 1, "numberReviews": 18}, {"name": "Zielony Domek", "type": "hotel", "image": "https://dynamic-media-cdn.tripadvisor.com/media/photo-o/10/6d/b8/81/img-20170826-wa0016-largejpg.jpg?w=1000&s=1", "address": "ul. Mlodkowskiego 24, Mragowo 11-700 Poland", "lat": 53.883156, "lng": 21.295399, "ref_id": 1124376, "rating": 5, "num_reviews": 0, "website": "http://www.zielonydomek.com.pl/", "contact_phone": "+48 502 531 079", "contact_email": "info@zielonydomek.com.pl", "status": 1, "source_type": 1, "numberReviews": 16}, {"name": "Willa Zlota", "type": "hotel", "image": "https://dynamic-media-cdn.tripadvisor.com/media/photo-o/1a/c3/0b/fe/willa-zlota.jpg?w=1000&s=1", "address": "ul. Wojska Polskiego 19, Karwia 84-105 Poland", "lat": 54.83019, "lng": 18.211605, "ref_id": 6158345, "rating": 4.5, "num_reviews": 0, "website": "http://www.willazlota.pl", "contact_phone": "+48 58 674 73 70", "contact_email": "biuro@willazlota.pl", "status": 1, "source_type": 1, "numberReviews": 14}, {"name": "Dom Wiejska 39 a", "type": "hotel", "image": "https://dynamic-media-cdn.tripadvisor.com/media/photo-o/06/cd/1b/43/dom-wiejska-39-a.jpg?w=1000&s=1", "address": "Ul. Wiejska 39 a, Ruciane-Nida 12-220 Poland", "lat": 53.636395, "lng": 21.540419, "ref_id": 7068069, "rating": 4.5, "num_reviews": 0, "website": "http://www.ruciane.pl", "contact_phone": "+48 509 756 566", "contact_email": "domwiejska39a@gmail.com", "status": 1, "source_type": 1, "numberReviews": 19}, {"name": "Swojski Gosciniec", "type": "hotel", "image": "https://dynamic-media-cdn.tripadvisor.com/media/partner/bookingcom/photo-o/29/34/f1/92/caption.jpg?w=1000&s=1", "address": "Prazmowo 39 Between Kozin i Pra\u017cmowo, Prazmowo 11-520 Poland", "lat": 53.93054, "lng": 21.711683, "ref_id": 8433351, "rating": 5, "num_reviews": 0, "website": "http://www.swojskigosciniec.pl", "contact_phone": "+48 530 333 716", "contact_email": "kontakt@swojskigosciniec.pl", "status": 1, "source_type": 1, "numberReviews": 12}, {"name": "Apartamenty Flatinfo Szafarnia I Waterlane", "type": "hotel", "image": "https://dynamic-media-cdn.tripadvisor.com/media/photo-o/0a/8a/4c/48/flatinfo-szafarnia-pool.jpg?w=1000&s=1", "address": "Ul. Szafarnia 5, Gdansk 80-755 Poland", "lat": 54.35069, "lng": 18.66049, "ref_id": 6589803, "rating": 4, "num_reviews": 0, "website": "http://www.flatinfo.eu", "contact_phone": "+48 660 734 499", "contact_email": "m.hadrych@flatinfo.eu", "status": 1, "source_type": 1, "numberReviews": 49}, {"name": "Gosciniec w Malborku", "type": "hotel", "image": "https://dynamic-media-cdn.tripadvisor.com/media/photo-o/1b/5c/39/04/pano-20200524-112146.jpg?w=1000&s=1", "address": "ul. Walowa 20A, Malbork 82-200 Poland", "lat": 54.038692, "lng": 19.02134, "ref_id": 10534098, "rating": 5, "num_reviews": 0, "website": null, "contact_phone": null, "contact_email": null, "status": 1, "source_type": 1, "numberReviews": 10}, {"name": "Lunatic Hostel", "type": "hotel", "image": "https://dynamic-media-cdn.tripadvisor.com/media/photo-o/06/69/75/19/lunatic-time.jpg?w=1000&s=1", "address": "Al. Niepodleglosci 739/2, Sopot 81-840 Poland", "lat": 54.43704, "lng": 18.56102, "ref_id": 2219010, "rating": 4.5, "num_reviews": 0, "website": null, "contact_phone": "+48 58 718 42 64", "contact_email": "info@lunatichostel.com", "status": 1, "source_type": 1, "numberReviews": 28}, {"name": "Villa Alfa", "type": "hotel", "image": null, "address": "ul. Widok 32, Gdansk 80-288 Poland", "lat": 54.35243, "lng": 18.58004, "ref_id": 1449302, "rating": 4.5, "num_reviews": 0, "website": "http://www.villaalfa.pl/pl/index.php", "contact_phone": "+48 58 348 01 58", "contact_email": "biuro@villaalfa.pl", "status": 1, "source_type": 1, "numberReviews": 22}, {"name": "Pekin Hotel", "type": "hotel", "image": "https://dynamic-media-cdn.tripadvisor.com/media/photo-o/09/70/f9/86/pekin-hotel.jpg?w=1000&s=1", "address": "ul. Niepodleglosci 14, Wladyslawowo 84-120 Poland", "lat": 54.7911, "lng": 18.405073, "ref_id": 1168407, "rating": 4, "num_reviews": 0, "website": "http://www.hotel-pekin.com.pl/", "contact_phone": "+48 58 674 88 88", "contact_email": "hotel@hotel-pekin.com.pl", "status": 1, "source_type": 1, "numberReviews": 43}, {"name": "Centrum Ulan SPA", "type": "hotel", "image": "https://dynamic-media-cdn.tripadvisor.com/media/photo-o/0e/d5/13/63/jacuzzi.jpg?w=1000&s=1", "address": "Tartaczna 10, Bytow 77-100 Poland", "lat": 54.1697, "lng": 17.4791, "ref_id": 1015612, "rating": 3.5, "num_reviews": 0, "website": "http://www.ulanspa.pl/", "contact_phone": "+48 59 822 66 47", "contact_email": "hotel@ulanspa.pl", "status": 1, "source_type": 1, "numberReviews": 47}, {"name": "Poza Zgie\u0142kiem", "type": "hotel", "image": "https://dynamic-media-cdn.tripadvisor.com/media/partner/bookingcom/photo-o/2b/e2/d2/98/caption.jpg?w=1000&s=1", "address": "Stawki 16a, Wegorzewo 11-600 Poland", "lat": 54.21118, "lng": 21.62507, "ref_id": 13984902, "rating": 5, "num_reviews": 0, "website": null, "contact_phone": null, "contact_email": null, "status": 1, "source_type": 1, "numberReviews": 3}, {"name": "Ko\u0142atek", "type": "hotel", "image": "https://dynamic-media-cdn.tripadvisor.com/media/photo-o/13/74/da/cf/pomost-w-kolatku-2.jpg?w=1000&s=1", "address": "Mierki, Olsztynek 11-015 Poland", "lat": 53.596, "lng": 20.31454, "ref_id": 8562142, "rating": 4.5, "num_reviews": 0, "website": "http://kolatek.pl/", "contact_phone": "+48 89 519 21 21", "contact_email": "osrodek@kolatek.pl", "status": 1, "source_type": 1, "numberReviews": 15}, {"name": "Pensjonat Fregata", "type": "hotel", "image": "https://dynamic-media-cdn.tripadvisor.com/media/photo-o/0f/16/1e/21/comfortable-to-sleep.jpg?w=1000&s=1", "address": "ul. Jana Pawla II, Mikolajki 11-730 Poland", "lat": 53.8, "lng": 21.57981, "ref_id": 4353026, "rating": 4.5, "num_reviews": 0, "website": "http://fregatamikolajki.pl/", "contact_phone": "+48 33 925 49 64", "contact_email": "fregatamikolajki@gmail.com", "status": 1, "source_type": 1, "numberReviews": 11}, {"name": "Helena", "type": "hotel", "image": "https://dynamic-media-cdn.tripadvisor.com/media/photo-o/10/12/d0/22/dsc-4719-largejpg.jpg?w=1000&s=1", "address": "Jeziorowskie 31, Kruklanki 11-612 Poland", "lat": 54.1147, "lng": 21.9728, "ref_id": 1197189, "rating": 4, "num_reviews": 0, "website": null, "contact_phone": "", "contact_email": "", "status": 1, "source_type": 1, "numberReviews": 18}, {"name": "Villa Italiana", "type": "hotel", "image": "https://dynamic-media-cdn.tripadvisor.com/media/photo-o/16/b7/26/bd/photo0jpg.jpg?w=1000&s=1", "address": "Morska 20, Gdynia 81-333 Poland", "lat": 54.52351, "lng": 18.52106, "ref_id": 12435413, "rating": 4, "num_reviews": 0, "website": null, "contact_phone": null, "contact_email": null, "status": 1, "source_type": 1, "numberReviews": 11}, {"name": "Tartaczna Old Town", "type": "hotel", "image": "https://dynamic-media-cdn.tripadvisor.com/media/photo-o/12/65/46/25/tartaczna-old-town.jpg?w=1000&s=1", "address": "Tartaczna 2, Gdansk 80-839 Poland", "lat": 54.354416, "lng": 18.655935, "ref_id": 13551288, "rating": 4.5, "num_reviews": 0, "website": "http://tartacznaoldtown.pl", "contact_phone": "+48 501 890 858", "contact_email": "tartaczna.old.town@gmail.com", "status": 1, "source_type": 1, "numberReviews": 12}, {"name": "Apartamenty 4 Pory Roku", "type": "hotel", "image": "https://dynamic-media-cdn.tripadvisor.com/media/photo-o/0d/1c/af/25/20160923-170643-largejpg.jpg?w=1000&s=1", "address": "ul. Derdowskiego 1, Jastrzebia Gora 84-104 Poland", "lat": 54.83315, "lng": 18.31289, "ref_id": 3350642, "rating": 4.5, "num_reviews": 0, "website": null, "contact_phone": "+48 500 310 306", "contact_email": null, "status": 1, "source_type": 1, "numberReviews": 12}, {"name": "Pokoje KAPITAN PIRAT", "type": "hotel", "image": "https://dynamic-media-cdn.tripadvisor.com/media/photo-o/17/2a/35/05/pokoje-kapitan-pirat.jpg?w=1000&s=1", "address": "Ul. Kliprow 1, Chlapowo 84-120 Poland", "lat": 54.80596, "lng": 18.37963, "ref_id": 15865926, "rating": 5, "num_reviews": 0, "website": "http://www.kapitanpirat.pl", "contact_phone": "+48 510 338 898", "contact_email": null, "status": 1, "source_type": 1, "numberReviews": 9}, {"name": "Sleepinn", "type": "hotel", "image": "https://dynamic-media-cdn.tripadvisor.com/media/photo-o/0e/a1/78/e5/sleepinn.jpg?w=1000&s=1", "address": "ul. Radiowa 30a, Gdansk 80-298 Poland", "lat": 54.39387, "lng": 18.46991, "ref_id": 10644367, "rating": 4, "num_reviews": 0, "website": null, "contact_phone": null, "contact_email": null, "status": 1, "source_type": 1, "numberReviews": 25}, {"name": "Domki Caloroczne Koliber", "type": "hotel", "image": "https://dynamic-media-cdn.tripadvisor.com/media/photo-o/1c/a3/8b/35/domki-caloroczne-koliber.jpg?w=1000&s=1", "address": "Droga Swarzewska 6, Wladyslawowo 84-120 Poland", "lat": 54.78628, "lng": 18.390556, "ref_id": 2035791, "rating": 4.5, "num_reviews": 0, "website": "http://www.domkikoliber.pl", "contact_phone": "+48 501 545 601", "contact_email": null, "status": 1, "source_type": 1, "numberReviews": 8}, {"name": "Fryderyk", "type": "hotel", "image": "https://dynamic-media-cdn.tripadvisor.com/media/photo-o/15/9f/62/e9/fryderyk.jpg?w=1000&s=1", "address": "Lotnikow 7, Krynica Morska 82-120 Poland", "lat": 54.37844, "lng": 19.43523, "ref_id": 14002037, "rating": 5, "num_reviews": 0, "website": "https://fryderyk-krynica.com/index.html", "contact_phone": "+48 666 888 070", "contact_email": "kontakt@fryderyk-krynica.com", "status": 1, "source_type": 1, "numberReviews": 3}, {"name": "Dzika Zagroda", "type": "hotel", "image": "https://dynamic-media-cdn.tripadvisor.com/media/photo-o/19/16/de/c6/dzika-zagroda.jpg?w=1000&s=1", "address": "Trzebun, 104, Dziemiany 83-425 Poland", "lat": 54.01037, "lng": 17.71176, "ref_id": 14025195, "rating": 4.5, "num_reviews": 0, "website": null, "contact_phone": null, "contact_email": null, "status": 1, "source_type": 1, "numberReviews": 5}, {"name": "Hallerowka Resort", "type": "hotel", "image": "https://dynamic-media-cdn.tripadvisor.com/media/photo-o/0a/16/d5/6d/getlstd-property-photo.jpg?w=1000&s=1", "address": "ul. Ks. Merkleina 9, Wladyslawowo 84-120 Poland", "lat": 54.797173, "lng": 18.399027, "ref_id": 9761768, "rating": 5, "num_reviews": 0, "website": "http://www.hallerowka.pl", "contact_phone": "+48 606 394 546", "contact_email": "hallerowkaresort@gmail.com", "status": 1, "source_type": 1, "numberReviews": 7}, {"name": "Agroturystyka Pod Podkowa", "type": "hotel", "image": "https://dynamic-media-cdn.tripadvisor.com/media/partner/bookingcom/photo-o/2c/a3/cf/e1/caption.jpg?w=1000&s=1", "address": "Wies M Ynowo 36, Mragowo 11-700 Poland", "lat": 53.87887, "lng": 21.32912, "ref_id": 10533917, "rating": 4.5, "num_reviews": 0, "website": null, "contact_phone": null, "contact_email": null, "status": 1, "source_type": 1, "numberReviews": 2}, {"name": "Royal Apartments - Boutique Residence Gdansk", "type": "hotel", "image": "https://dynamic-media-cdn.tripadvisor.com/media/photo-o/1d/8f/90/5f/twin-room.jpg?w=1000&s=1", "address": "Ul. Tadeusza Ko\u015bciuszki 8A, Gdansk 80-451 Poland", "lat": 54.3859, "lng": 18.604006, "ref_id": 23536055, "rating": 5, "num_reviews": 0, "website": "https://www.brgdansk.pl/", "contact_phone": "+48 58 558 82 20", "contact_email": "concierge@royal-apartments.pl", "status": 1, "source_type": 1, "numberReviews": 1}, {"name": "Aparthotel Miko\u0142ajki", "type": "hotel", "image": "https://dynamic-media-cdn.tripadvisor.com/media/photo-o/0b/c1/3b/92/aparthotel-mikolajki.jpg?w=1000&s=1", "address": "pl. Handlowy 7, Mikolajki 11-730 Poland", "lat": 53.80185, "lng": 21.57337, "ref_id": 9714188, "rating": 3.5, "num_reviews": 0, "website": "http://www.aparthotelmikolajki.pl/aparthotel/kontakt", "contact_phone": "+48 87 421 98 45", "contact_email": null, "status": 1, "source_type": 1, "numberReviews": 9}, {"name": "Chata Pogaduchy", "type": "hotel", "image": "https://dynamic-media-cdn.tripadvisor.com/media/partner/bookingcom/photo-o/2d/25/03/a5/caption.jpg?w=1000&s=1", "address": "Ronin Nowiny 2, Ronin 14-530 Poland", "lat": 54.33154, "lng": 19.68095, "ref_id": 17607441, "rating": 5, "num_reviews": 0, "website": "https://www.facebook.com/Chata-Pogaduchy-406996309837157/", "contact_phone": null, "contact_email": null, "status": 1, "source_type": 1, "numberReviews": 1}, {"name": "Tawerna Rybaki", "type": "hotel", "image": "https://dynamic-media-cdn.tripadvisor.com/media/partner/bookingcom/photo-o/19/b2/a2/39/bed.jpg?w=1000&s=1", "address": "Al. Wojska Polskiego 26, Sopot 81-769 Poland", "lat": 54.43797, "lng": 18.57865, "ref_id": 16676403, "rating": 4, "num_reviews": 0, "website": "http://tawernarybaki.pl/", "contact_phone": null, "contact_email": null, "status": 1, "source_type": 1, "numberReviews": 4}, {"name": "Pensjonat Wilenski", "type": "hotel", "image": "https://dynamic-media-cdn.tripadvisor.com/media/photo-s/03/39/3f/48/pensjonat-wilenski.jpg?w=1000&s=1", "address": "ul. Wilenska 8a, Mragowo 11-700 Poland", "lat": 53.87719, "lng": 21.31418, "ref_id": 2257886, "rating": 4, "num_reviews": 0, "website": "http://www.pensjonatwilenski.pl/", "contact_phone": "+48 89 741 28 37", "contact_email": "pensjonat@pensjonatwilenski.pl", "status": 1, "source_type": 1, "numberReviews": 8}, {"name": "Apartamenty I Pokoje U Barbary", "type": "hotel", "image": "https://dynamic-media-cdn.tripadvisor.com/media/photo-o/21/63/9d/cd/apartamenty-i-pokoje.jpg?w=1000&s=1", "address": "Ul. 1 Maja 4, Straduny 19-300 Poland", "lat": 53.82334, "lng": 22.35091, "ref_id": 16497798, "rating": 5, "num_reviews": 0, "website": "https://www.facebook.com/MazuryUBarbary/", "contact_phone": "+48 602 223 688", "contact_email": null, "status": 1, "source_type": 1, "numberReviews": 1}, {"name": "Pod Debem", "type": "hotel", "image": "https://dynamic-media-cdn.tripadvisor.com/media/photo-o/0f/ca/67/18/wejscie.jpg?w=1000&s=1", "address": "ul. Zeglarska 15 Nidzkie lake, Ruciane-Nida 12-220 Poland", "lat": 53.63154, "lng": 21.52726, "ref_id": 3875842, "rating": 3.5, "num_reviews": 0, "website": "http://www.poddebem.pl/", "contact_phone": "+48 87 423 66 21", "contact_email": "info@poddebem.pl", "status": 1, "source_type": 1, "numberReviews": 30}, {"name": "Pepperland Hostel", "type": "hotel", "image": "https://dynamic-media-cdn.tripadvisor.com/media/photo-o/0c/50/f1/08/terrace.jpg?w=1000&s=1", "address": "ul. Hryniewickiego 6, Gdynia 81-340 Poland", "lat": 54.52134, "lng": 18.549911, "ref_id": 2631949, "rating": 4, "num_reviews": 0, "website": "http://www.pepperlandhostel.com/", "contact_phone": "+48 793 376 667", "contact_email": "pepperlandhostel@gmail.com", "status": 1, "source_type": 1, "numberReviews": 7}, {"name": "Perlowa Przystan", "type": "hotel", "image": "https://dynamic-media-cdn.tripadvisor.com/media/partner/bookingcom/photo-o/19/aa/70/d5/3856934.jpg?w=1000&s=1", "address": "Perlowa 27, Mechelinki 81-198 Poland", "lat": 54.60885, "lng": 18.51167, "ref_id": 17673485, "rating": 5, "num_reviews": 0, "website": null, "contact_phone": null, "contact_email": null, "status": 1, "source_type": 1, "numberReviews": 1}, {"name": "Kaszubska Strzecha", "type": "hotel", "image": "https://dynamic-media-cdn.tripadvisor.com/media/photo-o/1e/67/4c/cc/caption.jpg?w=1000&s=1", "address": "Kasztela\u0144ska 9, Goreczyno 83-311 Poland", "lat": 54.2575, "lng": 18.1124, "ref_id": 17396313, "rating": 5, "num_reviews": 0, "website": "http://www.kaszubskastrzecha.eu", "contact_phone": "+48 58 684 12 12", "contact_email": "biuro@kaszubskastrzecha.eu", "status": 1, "source_type": 1, "numberReviews": 1}, {"name": "Pension Jakubowo", "type": "hotel", "image": "https://dynamic-media-cdn.tripadvisor.com/media/photo-s/01/e9/f8/1a/caption.jpg?w=1000&s=1", "address": "Jakubowo 5, Mragowo 11-700 Poland", "lat": 53.79925, "lng": 21.35602, "ref_id": 2186029, "rating": 4.5, "num_reviews": 0, "website": "", "contact_phone": "+48(0)89 7424333", "contact_email": "jakubowo5@interia.pl", "status": 1, "source_type": 1, "numberReviews": 3}, {"name": "Residenz Zamkowy", "type": "hotel", "image": "https://dynamic-media-cdn.tripadvisor.com/media/photo-o/0e/a4/c4/ab/residenz-zamkowy.jpg?w=1000&s=1", "address": "ul. Dominikanska 4, Slupsk 76-200 Poland", "lat": 54.46382, "lng": 17.034502, "ref_id": 1170415, "rating": 3.5, "num_reviews": 0, "website": null, "contact_phone": "+48 59 842 52 94", "contact_email": "", "status": 1, "source_type": 1, "numberReviews": 15}, {"name": "Apartamenty Adalbert Szafarnia", "type": "hotel", "image": "https://dynamic-media-cdn.tripadvisor.com/media/photo-o/0c/c3/7d/fd/apartamenty-adalbert.jpg?w=1000&s=1", "address": "ul. Szafarnia 7 Gdansk, 83-755, Gdansk 80-755 Poland", "lat": 54.34922, "lng": 18.66051, "ref_id": 10717801, "rating": 5, "num_reviews": 0, "website": "http://apartamenty-adalbert-szafarnia-apartment-gdansk.bedspro.com/", "contact_phone": "+48 605 950 042", "contact_email": null, "status": 1, "source_type": 1, "numberReviews": 3}, {"name": "Per\u0142a P\u00f3\u0142nocy Apartments", "type": "hotel", "image": null, "address": "Andersa 12/1a, Sopot Poland", "lat": 54.44093, "lng": 18.55733, "ref_id": 10515550, "rating": 5, "num_reviews": 0, "website": "http://perlapolnocy.pl/", "contact_phone": "+48 535 860 985", "contact_email": "biuro@perlapolnocy.pl", "status": 1, "source_type": 1, "numberReviews": 2}, {"name": "Willa Vela", "type": "hotel", "image": "https://dynamic-media-cdn.tripadvisor.com/media/partner/bookingcom/photo-o/2b/5f/f6/77/caption.jpg?w=1000&s=1", "address": "1000-lecia Pa\u0144stwa Polskiego 15, Wladyslawowo 84-120 Poland", "lat": 54.79581, "lng": 18.40498, "ref_id": 7626160, "rating": 4.5, "num_reviews": 0, "website": "http://www.willavela.pl/", "contact_phone": "+48 668 070 507", "contact_email": "willavela@willavela.pl", "status": 1, "source_type": 1, "numberReviews": 2}, {"name": "Kociol Duzy 24", "type": "hotel", "image": "https://dynamic-media-cdn.tripadvisor.com/media/photo-o/1d/b6/f1/78/caption.jpg?w=1000&s=1", "address": "Kociol Duzy 24, Kociol 12-200 Poland", "lat": 53.62825, "lng": 21.94734, "ref_id": 12462657, "rating": 5, "num_reviews": 0, "website": null, "contact_phone": null, "contact_email": null, "status": 1, "source_type": 1, "numberReviews": 1}, {"name": "Dom Letniskowy Helena", "type": "hotel", "image": "https://dynamic-media-cdn.tripadvisor.com/media/partner/bookingcom/photo-o/2c/34/90/f2/caption.jpg?w=1000&s=1", "address": "Kretowiny 26C, Kretowiny 14-300 Poland", "lat": 53.89968, "lng": 20.0287, "ref_id": 14982484, "rating": 5, "num_reviews": 0, "website": null, "contact_phone": null, "contact_email": null, "status": 1, "source_type": 1, "numberReviews": 1}, {"name": "Bobrowa Dolina", "type": "hotel", "image": "https://dynamic-media-cdn.tripadvisor.com/media/photo-o/0b/a6/16/e3/widok-z-apartamentu.jpg?w=1000&s=1", "address": "ul. Zamiejska 15 A, Ryn 11-520 Poland", "lat": 53.9348, "lng": 21.57168, "ref_id": 8674681, "rating": 5, "num_reviews": 0, "website": null, "contact_phone": "+48 696 137 318", "contact_email": null, "status": 1, "source_type": 1, "numberReviews": 3}, {"name": "Kaszubski Las Gosciniec", "type": "hotel", "image": "https://dynamic-media-cdn.tripadvisor.com/media/photo-o/1d/93/b3/dd/kaszubski-las-gosciniec.jpg?w=1000&s=1", "address": "Ruda 3, Ruda 83-430 Poland", "lat": 53.99592, "lng": 18.07883, "ref_id": 18967954, "rating": 5, "num_reviews": 0, "website": "http://www.kaszubskilas.pl", "contact_phone": "+48 602 742 477", "contact_email": "biuro@kaszubskilas.pl", "status": 1, "source_type": 1, "numberReviews": 1}, {"name": "Dom Wczasowy Grazyna", "type": "hotel", "image": "https://dynamic-media-cdn.tripadvisor.com/media/partner/bookingcom/photo-o/29/44/3c/06/caption.jpg?w=1000&s=1", "address": "Stadionowa 6, Wladyslawowo 84-120 Poland", "lat": 54.78801, "lng": 18.40664, "ref_id": 19636022, "rating": 5, "num_reviews": 0, "website": "https://www.dwgrazyna.pl/", "contact_phone": "+48 698 831 817", "contact_email": null, "status": 1, "source_type": 1, "numberReviews": 1}, {"name": "Apartamenty Rodzinne Sloneczny Zakatek", "type": "hotel", "image": "https://dynamic-media-cdn.tripadvisor.com/media/partner/bookingcom/photo-o/29/4e/5b/c9/caption.jpg?w=1000&s=1", "address": "Zbozowa 16, Tupadly 84-104 Poland", "lat": 54.826214, "lng": 18.305744, "ref_id": 21174713, "rating": 5, "num_reviews": 0, "website": null, "contact_phone": null, "contact_email": null, "status": 1, "source_type": 1, "numberReviews": 1}, {"name": "La Playa Apartments Sopot", "type": "hotel", "image": "https://dynamic-media-cdn.tripadvisor.com/media/photo-o/14/23/41/93/la-playa-apartments-sopot.jpg?w=1000&s=1", "address": "Powsta\u0144c\u00f3w Warszawy 69, Sopot 81-712 Poland", "lat": 54.452065, "lng": 18.562082, "ref_id": 14918240, "rating": 4.5, "num_reviews": 0, "website": "http://laplaya-aparts.com", "contact_phone": "+48 606 131 550", "contact_email": "reception@laplaya-aparts.com", "status": 1, "source_type": 1, "numberReviews": 2}, {"name": "Gosciniec Hetman", "type": "hotel", "image": "https://dynamic-media-cdn.tripadvisor.com/media/photo-o/0f/1a/5e/21/gosciniec-hetman.jpg?w=1000&s=1", "address": "Stare Sady 12, Mikolajki 11-730 Poland", "lat": 53.84749, "lng": 21.54015, "ref_id": 7057045, "rating": 3.5, "num_reviews": 0, "website": "http://www.gosciniec-hetman.pl", "contact_phone": "+48 511 083 255", "contact_email": "gosciniec.hetman@gmail.com", "status": 1, "source_type": 1, "numberReviews": 7}, {"name": "Royal Apartments", "type": "hotel", "image": "https://dynamic-media-cdn.tripadvisor.com/media/photo-o/03/f3/cf/26/getlstd-property-photo.jpg?w=1000&s=1", "address": "ul. Adama Mickiewicza 109, Jastarnia 84-140 Poland", "lat": 54.70311, "lng": 18.66341, "ref_id": 4289807, "rating": 5, "num_reviews": 0, "website": "http://www.royal-apartments.pl/", "contact_phone": "+(48)48583451111", "contact_email": "biuro@royal-apartments.pl", "status": 1, "source_type": 1, "numberReviews": 2}, {"name": "Pokoje Goscinne Maria", "type": "hotel", "image": "https://dynamic-media-cdn.tripadvisor.com/media/partner/bookingcom/photo-o/1b/72/da/de/3167838.jpg?w=1000&s=1", "address": "Szkolna 14, Bialogora 84-113 Poland", "lat": 54.81567, "lng": 17.96199, "ref_id": 15357750, "rating": 5, "num_reviews": 0, "website": null, "contact_phone": null, "contact_email": null, "status": 1, "source_type": 1, "numberReviews": 1}, {"name": "Dworek Pod Wiezyca", "type": "hotel", "image": "https://dynamic-media-cdn.tripadvisor.com/media/photo-s/03/0c/d0/0f/dworek-pod-wiezyca.jpg?w=1000&s=1", "address": "ul. Szymbarskich Zak\u0142adnik\u00f3w 22, Szymbark 83-315 Poland", "lat": 54.21734, "lng": 18.10295, "ref_id": 3398841, "rating": 4.5, "num_reviews": 0, "website": null, "contact_phone": "+48 609 356 563", "contact_email": null, "status": 1, "source_type": 1, "numberReviews": 2}, {"name": "Pa\u0142ac Wielka Wie\u015b - Pa\u0142ac pod D\u0119bem", "type": "hotel", "image": "https://dynamic-media-cdn.tripadvisor.com/media/photo-o/1d/7c/e6/71/wyjatkowe-miejsce.jpg?w=1000&s=1", "address": "Wielka Wie\u015b 36, Wielka Wies 76-220 Poland", "lat": 54.56745, "lng": 17.361805, "ref_id": 23560516, "rating": 5, "num_reviews": 0, "website": "http://palacpoddebem.pl", "contact_phone": "+48 507 366 301", "contact_email": "kontakt@palacpoddebem.pl", "status": 1, "source_type": 1, "numberReviews": 1}, {"name": "Orbisa Bis", "type": "hotel", "image": "https://dynamic-media-cdn.tripadvisor.com/media/photo-o/1d/72/6b/59/caption.jpg?w=1000&s=1", "address": "ul Spokojna 8, Leba 84-360 Poland", "lat": 54.75432, "lng": 17.568361, "ref_id": 23357085, "rating": 5, "num_reviews": 0, "website": "https://orbisabis.pl/", "contact_phone": "+48 728 179 806", "contact_email": "kontakt@orbisabis.pl", "status": 1, "source_type": 1, "numberReviews": 1}, {"name": "Villa Baltica Gdansk", "type": "hotel", "image": "https://dynamic-media-cdn.tripadvisor.com/media/partner/bookingcom/photo-o/2b/5a/bc/ac/caption.jpg?w=1000&s=1", "address": "Brzeznienska 9C, Gdansk 80-506 Poland", "lat": 54.41061, "lng": 18.63078, "ref_id": 15697596, "rating": -1, "num_reviews": 0, "website": "http://villabalticagdansk.pl/kontakt/", "contact_phone": "+48 604 403 473", "contact_email": "kontakt@villabalticagdansk.pl", "status": 1, "source_type": 1, "numberReviews": 0}, {"name": "Apartinfo Angielska Grobla Apartments", "type": "hotel", "image": "https://dynamic-media-cdn.tripadvisor.com/media/photo-o/16/73/93/c3/angielska-grobla-apartinfo.jpg?w=1000&s=1", "address": "12 Swietej Barbary, Gdansk 80-753 Poland", "lat": 54.34867, "lng": 18.66294, "ref_id": 15638777, "rating": 2.5, "num_reviews": 0, "website": "https://apartinfo.com.pl/kontakt", "contact_phone": "+48 500 310 306", "contact_email": "apartinfo@apartinfo.net", "status": 1, "source_type": 1, "numberReviews": 28}, {"name": "Osrodek Sanatoryjno - Wypoczynkowy Perla", "type": "hotel", "image": "https://dynamic-media-cdn.tripadvisor.com/media/photo-o/08/6b/6c/bb/osrodek-sanatoryjno-wypoczynko.jpg?w=1000&s=1", "address": "Ul. Bitwy pod Plowcami 62, Sopot 81-731 Poland", "lat": 54.43144, "lng": 18.58326, "ref_id": 7625200, "rating": 2, "num_reviews": 0, "website": null, "contact_phone": null, "contact_email": null, "status": 1, "source_type": 1, "numberReviews": 8}, {"name": "Willa Joker", "type": "hotel", "image": "https://dynamic-media-cdn.tripadvisor.com/media/photo-o/0f/5e/62/80/z-pokoju-widok-na-zalew.jpg?w=1000&s=1", "address": "ul. Nowa 19, Krynica Morska 82-120 Poland", "lat": 54.37972, "lng": 19.44119, "ref_id": 2108460, "rating": -1, "num_reviews": 0, "website": "http://www.joker.mierzeja.com/", "contact_phone": "+48 55 247 65 50", "contact_email": "joker@mierzeja.com", "status": 1, "source_type": 1, "numberReviews": 0}, {"name": "Hotel Colosseum & Spa", "type": "hotel", "image": "https://dynamic-media-cdn.tripadvisor.com/media/photo-s/02/1e/a4/a7/widok-front.jpg?w=1000&s=1", "address": "Goldapska 12, Olecko Poland", "lat": 54.04418, "lng": 22.4974, "ref_id": 1590645, "rating": 2, "num_reviews": 0, "website": "http://www.hotelcolosseum.pl/", "contact_phone": "0-87 520 26 43", "contact_email": "rezerwacja@hotelcolosseum.pl", "status": 1, "source_type": 1, "numberReviews": 21}, {"name": "Scala Apartamenty", "type": "hotel", "image": "https://dynamic-media-cdn.tripadvisor.com/media/photo-o/2d/1a/4f/ee/caption.jpg?w=1000&s=1", "address": "\u0141\u0105kowa 60C, Gdansk 80-769 Poland", "lat": 54.34573, "lng": 18.666073, "ref_id": 25105842, "rating": 1, "num_reviews": 0, "website": "https://moderna.pl/scala/", "contact_phone": "+48 572 175 016", "contact_email": "life@moderna.pl", "status": 1, "source_type": 1, "numberReviews": 2}, {"name": "Sopot Ostsee Apartments", "type": "hotel", "image": "https://dynamic-media-cdn.tripadvisor.com/media/partner/bookingcom/photo-o/19/ac/4b/7e/bedroom.jpg?w=1000&s=1", "address": "Sobieskiego 35A/3, Sopot 81-781 Poland", "lat": 54.44027, "lng": 18.56729, "ref_id": 15698071, "rating": 1.5, "num_reviews": 0, "website": null, "contact_phone": null, "contact_email": null, "status": 1, "source_type": 1, "numberReviews": 6}, {"name": "Pensjonat Resident", "type": "hotel", "image": "https://dynamic-media-cdn.tripadvisor.com/media/photo-o/10/a7/d7/19/poduszki-w-osrodku.jpg?w=1000&s=1", "address": "ul. Teleexpressu 11, Krynica Morska 82-120 Poland", "lat": 54.38321, "lng": 19.43983, "ref_id": 6851821, "rating": 2, "num_reviews": 0, "website": "http://noclegkrynica.eu/", "contact_phone": "+48 55 247 61 89", "contact_email": null, "status": 1, "source_type": 1, "numberReviews": 25}, {"name": "One World Hostel Gdansk", "type": "hotel", "image": "https://dynamic-media-cdn.tripadvisor.com/media/photo-o/2c/e6/c3/2b/caption.jpg?w=1000&s=1", "address": "D\u0142ugie Pobrze\u017ce 23, Gdansk 80-888 Poland", "lat": 54.35012, "lng": 18.657137, "ref_id": 27697529, "rating": 1, "num_reviews": 0, "website": "https://www.oneworldhostel.pl/", "contact_phone": "+48 668 295 078", "contact_email": null, "status": 1, "source_type": 1, "numberReviews": 3}, {"name": "Mazury Sport Club", "type": "hotel", "image": "https://dynamic-media-cdn.tripadvisor.com/media/photo-o/0b/c1/bb/76/mazury-sport-club.jpg?w=1000&s=1", "address": "Kretowiny 27 Kretowiny, Morag 14-300 Poland", "lat": 53.90353, "lng": 20.03072, "ref_id": 2258680, "rating": 1.5, "num_reviews": 0, "website": "http://mazurysportclub.com/?page_id=2", "contact_phone": "+48 89 757 16 68", "contact_email": "rezerwacja@mazurysportclub.com", "status": 1, "source_type": 1, "numberReviews": 5}, {"name": "Hotel Slupsk", "type": "hotel", "image": "https://dynamic-media-cdn.tripadvisor.com/media/photo-o/11/f2/74/b8/zadnej-gwiazdki.jpg?w=1000&s=1", "address": "ul. Poznanska 11, Slupsk 76-200 Poland", "lat": 54.45377, "lng": 17.01795, "ref_id": 5539496, "rating": 2, "num_reviews": 0, "website": "http://www.hotelslupsk.pl/", "contact_phone": "(059) 842 63 48", "contact_email": "biuro@hotelslupsk.pl", "status": 1, "source_type": 1, "numberReviews": 17}, {"name": "Grono s.c.", "type": "hotel", "image": null, "address": "ul. Polna 17, Kartuzy 83-300 Poland", "lat": 54.30205, "lng": 18.13754, "ref_id": 15087019, "rating": -1, "num_reviews": 0, "website": "http://grono.gda.pl", "contact_phone": "+48 58 681 15 83", "contact_email": "recepcja@grono.gda.pl", "status": 1, "source_type": 1, "numberReviews": 0}, {"name": "Baltic Hostel", "type": "hotel", "image": "https://dynamic-media-cdn.tripadvisor.com/media/photo-o/06/47/8e/8f/baltic-hostel.jpg?w=1000&s=1", "address": "ul. Zaroslak 12, Gdansk 80-811 Poland", "lat": 54.34357, "lng": 18.64274, "ref_id": 582028, "rating": 2, "num_reviews": 0, "website": "http://www.baltichostel.com.pl/", "contact_phone": "+48 58 721 96 57", "contact_email": "baltichostel@hotmail.com", "status": 1, "source_type": 1, "numberReviews": 58}, {"name": "Domki letniskowe Maharowka - Ostrowo", "type": "hotel", "image": "https://dynamic-media-cdn.tripadvisor.com/media/photo-o/15/78/99/cf/domki-maharowka-ostrowo.jpg?w=1000&s=1", "address": "ul. Zabytkowa 27, Ostrowo 84-105 Poland", "lat": 54.82557, "lng": 18.24798, "ref_id": 8725637, "rating": -1, "num_reviews": 0, "website": "http://maharowka.pl", "contact_phone": "+48 508 071 859", "contact_email": "maharowka@gmail.com", "status": 1, "source_type": 1, "numberReviews": 0}, {"name": "Kalina Pension", "type": "hotel", "image": "https://dynamic-media-cdn.tripadvisor.com/media/photo-o/18/6b/e3/2f/pensjonat-kalina.jpg?w=1000&s=1", "address": "ul. Morska 9, Jantar 82-103 Poland", "lat": 54.33056, "lng": 19.1246, "ref_id": 6776496, "rating": 2, "num_reviews": 0, "website": "http://kalina.mierzeja.pl", "contact_phone": "+48 55 247 95 31", "contact_email": null, "status": 1, "source_type": 1, "numberReviews": 29}, {"name": "Per\u0142a Krutyni", "type": "hotel", "image": "https://dynamic-media-cdn.tripadvisor.com/media/partner/bookingcom/photo-o/1b/46/6e/ef/birdseyeview.jpg?w=1000&s=1", "address": "Nowy Most 5, Ruciane-Nida 12-220 Poland", "lat": 53.70218, "lng": 21.49985, "ref_id": 11555571, "rating": 1.5, "num_reviews": 0, "website": null, "contact_phone": null, "contact_email": null, "status": 1, "source_type": 1, "numberReviews": 12}, {"name": "Boutique Aura 40 by Grand Apartments", "type": "hotel", "image": "https://dynamic-media-cdn.tripadvisor.com/media/partner/bookingcom/photo-o/2d/15/b5/cb/caption.jpg?w=1000&s=1", "address": "7 Rybaki G\u00f3rne, Gdansk 80-861 Poland", "lat": null, "lng": null, "ref_id": 28013038, "rating": -1, "num_reviews": 0, "website": null, "contact_phone": null, "contact_email": null, "status": 1, "source_type": 1, "numberReviews": 0}, {"name": "Bently Apartments", "type": "hotel", "image": "https://dynamic-media-cdn.tripadvisor.com/media/photo-o/13/39/eb/d8/the-premium-bedding-you.jpg?w=1000&s=1", "address": "Ul. Dluga 43/44, Gdansk 80-827 Poland", "lat": 54.34855, "lng": 18.65247, "ref_id": 7938649, "rating": 1.5, "num_reviews": 0, "website": "http://apartments.bently.pl/", "contact_phone": "+48 782 988 988", "contact_email": "apartments@bently.eu", "status": 1, "source_type": 1, "numberReviews": 13}, {"name": "Apartamenty Hugo Centrum", "type": "hotel", "image": "https://dynamic-media-cdn.tripadvisor.com/media/partner/bookingcom/photo-o/1c/ea/e7/70/6429494.jpg?w=1000&s=1", "address": "5 Hugona Ko\u0142\u0142ataja, 76-200 Poland", "lat": 54.465286, "lng": 17.018257, "ref_id": 23280188, "rating": -1, "num_reviews": 0, "website": null, "contact_phone": null, "contact_email": null, "status": 1, "source_type": 1, "numberReviews": 0}, {"name": "Villa Jantar", "type": "hotel", "image": "https://dynamic-media-cdn.tripadvisor.com/media/photo-o/1b/d9/05/00/villa-jantar.jpg?w=1000&s=1", "address": "Ul. Pulaskiego 20, Gdansk 80-520 Poland", "lat": 54.408756, "lng": 18.632689, "ref_id": 16699695, "rating": 1, "num_reviews": 0, "website": "http://villa-jantar.pl/", "contact_phone": "+48 58 342 78 81", "contact_email": "villa@1klasa.villa-jantar.pl", "status": 1, "source_type": 1, "numberReviews": 9}, {"name": "Wygryny", "type": "hotel", "image": "https://dynamic-media-cdn.tripadvisor.com/media/photo-o/18/f1/61/be/wygryny.jpg?w=1000&s=1", "address": "Wygryny 55d, Ruciane-Nida 12-210 Poland", "lat": 53.68715, "lng": 21.541752, "ref_id": 12380076, "rating": 1.5, "num_reviews": 0, "website": null, "contact_phone": null, "contact_email": null, "status": 1, "source_type": 1, "numberReviews": 38}, {"name": "RKR", "type": "hotel", "image": null, "address": "Ul. Reformacka 25c/2, Gdansk 80-808 Poland", "lat": 54.34181, "lng": 18.63054, "ref_id": 7094840, "rating": -1, "num_reviews": 0, "website": null, "contact_phone": null, "contact_email": null, "status": 1, "source_type": 1, "numberReviews": 0}, {"name": "Little Home - Browar Gdanski Rooms", "type": "hotel", "image": null, "address": "3 Jana Kilinskiego, Gdansk 80-452 Poland", "lat": 54.382633, "lng": 18.608196, "ref_id": 19857857, "rating": -1, "num_reviews": 0, "website": "https://littlehome.pl/apartamenty", "contact_phone": null, "contact_email": null, "status": 1, "source_type": 1, "numberReviews": 0}, {"name": "S\u0142oneczne Tarasy I", "type": "hotel", "image": "https://dynamic-media-cdn.tripadvisor.com/media/photo-o/27/36/12/e1/uklad-apartamentu.jpg?w=1000&s=1", "address": "Ul. Forsycji 56 46, Gdansk 80-680 Poland", "lat": 54.341896, "lng": 18.857807, "ref_id": 25166070, "rating": -1, "num_reviews": 0, "website": "https://apartamentywyspasobieszewska.pl/", "contact_phone": "+48 723 485 033", "contact_email": "kapitan-s@hotmail.com", "status": 1, "source_type": 1, "numberReviews": 0}, {"name": "Tropical Islands - Apartamenty Przy Plazy", "type": "hotel", "image": "https://dynamic-media-cdn.tripadvisor.com/media/partner/bookingcom/photo-o/2b/d8/9b/19/caption.jpg?w=1000&s=1", "address": "Bursztynowa 23, Gdansk 80-342 Poland", "lat": 54.42446, "lng": 18.59092, "ref_id": 15667670, "rating": -1, "num_reviews": 0, "website": null, "contact_phone": null, "contact_email": null, "status": 1, "source_type": 1, "numberReviews": 0}, {"name": "Dom & House - Apartments Nadmorski Dwor", "type": "hotel", "image": "https://dynamic-media-cdn.tripadvisor.com/media/partner/bookingcom/photo-o/1c/3a/ba/ed/5351277.jpg?w=1000&s=1", "address": "Ul. Nadmorski Dwor 27, Gdansk 80-254 Poland", "lat": 54.40767, "lng": 18.619232, "ref_id": 21310132, "rating": -1, "num_reviews": 0, "website": null, "contact_phone": null, "contact_email": null, "status": 1, "source_type": 1, "numberReviews": 0}, {"name": "Canterbury House Apartment", "type": "hotel", "image": null, "address": "ul. Szeroka 20-21, Gdansk 0 Poland", "lat": 54.35144, "lng": 18.65181, "ref_id": 1196700, "rating": -1, "num_reviews": 0, "website": null, "contact_phone": "", "contact_email": "", "status": 1, "source_type": 1, "numberReviews": 0}, {"name": "Island4U", "type": "hotel", "image": "https://dynamic-media-cdn.tripadvisor.com/media/partner/bookingcom/photo-o/2b/78/4f/ba/caption.jpg?w=1000&s=1", "address": "Ul. Forsycji 10, Gdansk 80-680 Poland", "lat": 54.341652, "lng": 18.857609, "ref_id": 21260433, "rating": -1, "num_reviews": 0, "website": "https://www.facebook.com/ISLAND4Uwyspasobieszewska/", "contact_phone": "+48 600 466 713", "contact_email": null, "status": 1, "source_type": 1, "numberReviews": 0}, {"name": "LC Pokoje & Apartamenty Z57", "type": "hotel", "image": "https://dynamic-media-cdn.tripadvisor.com/media/partner/bookingcom/photo-o/29/3d/d2/f8/caption.jpg?w=1000&s=1", "address": "Aleja Zwyciestwa 57, Gdansk 80-210 Poland", "lat": 54.36329, "lng": 18.63848, "ref_id": 23315122, "rating": -1, "num_reviews": 0, "website": null, "contact_phone": null, "contact_email": null, "status": 1, "source_type": 1, "numberReviews": 0}, {"name": "Hotel La Source", "type": "hotel", "image": null, "address": "Pink Gin Beach,, Gdansk Poland", "lat": null, "lng": null, "ref_id": 1427137, "rating": -1, "num_reviews": 0, "website": "", "contact_phone": "", "contact_email": "", "status": 1, "source_type": 1, "numberReviews": 0}, {"name": "Grand Apartments - Seaside", "type": "hotel", "image": null, "address": "Nadmorska 5, Gdansk 80-341 Poland", "lat": 54.42184, "lng": 18.59936, "ref_id": 16503025, "rating": -1, "num_reviews": 0, "website": null, "contact_phone": null, "contact_email": null, "status": 1, "source_type": 1, "numberReviews": 0}, {"name": "Gwiazda Morza", "type": "hotel", "image": "https://dynamic-media-cdn.tripadvisor.com/media/photo-o/1b/59/b5/93/gwiazda-morza-resort.jpg?w=1000&s=1", "address": "Ul. Hryniewieckiego 12A, Wladyslawowo 84-120 Poland", "lat": 54.79827, "lng": 18.407547, "ref_id": 4346875, "rating": 4.5, "num_reviews": 0, "website": "http://gwiazdamorza.com/", "contact_phone": "+48 58 600 22 00", "contact_email": "rezerwacja@gwiazdamorza.com", "status": 1, "source_type": 1, "numberReviews": 246}, {"name": "Hotel SPA Dr Irena Eris Wzgorza Dylewskie", "type": "hotel", "image": "https://dynamic-media-cdn.tripadvisor.com/media/photo-o/0e/8c/72/21/hotel-spa-dr-irena-eris.jpg?w=1000&s=1", "address": "Wysoka Wies 22 Wzgorza Dylewskie, Ostroda 14-100 Poland", "lat": 53.543865, "lng": 19.941593, "ref_id": 625277, "rating": 4.5, "num_reviews": 0, "website": "http://www.DrIrenaErisSpa.com", "contact_phone": "+48 89 647 11 11", "contact_email": "wzgorza@DrIrenaErisSpa.com", "status": 1, "source_type": 1, "numberReviews": 747}, {"name": "Kormoran Medispa", "type": "hotel", "image": "https://dynamic-media-cdn.tripadvisor.com/media/photo-o/01/da/23/c1/spa-wellness.jpg?w=1000&s=1", "address": "Ko\u015bcielna 16, Rowy 76-212 Poland", "lat": 54.665516, "lng": 17.058355, "ref_id": 1180680, "rating": 4.5, "num_reviews": 0, "website": "http://www.kormoran-rowy.pl", "contact_phone": "+48 59 814 19 41", "contact_email": "recepcja@kormoran-rowy.pl", "status": 1, "source_type": 1, "numberReviews": 114}, {"name": "Hotel Eureka Sopot", "type": "hotel", "image": "https://dynamic-media-cdn.tripadvisor.com/media/photo-o/12/e4/b1/f4/pokoj-dwuosobowy-standard.jpg?w=1000&s=1", "address": "Emilii Plater 7/9/11, Sopot 81-777 Poland", "lat": 54.43699, "lng": 18.579357, "ref_id": 13913255, "rating": 4.5, "num_reviews": 0, "website": "http://www.eurekasopot.pl", "contact_phone": "+48 504 943 187", "contact_email": "marketing@eurekasopot.pl", "status": 1, "source_type": 1, "numberReviews": 31}, {"name": "Sleep&Fly", "type": "hotel", "image": "https://dynamic-media-cdn.tripadvisor.com/media/photo-o/1c/95/41/b3/sleep-fly.jpg?w=1000&s=1", "address": "ul. Spadochroniarzy 12, Gdansk 80-298 Poland", "lat": 54.38532, "lng": 18.4709, "ref_id": 12312098, "rating": 3.5, "num_reviews": 0, "website": "www.lotniskowy.com", "contact_phone": "+48 604 746 077", "contact_email": "biuro@lotniskowy.com", "status": 1, "source_type": 1, "numberReviews": 51}, {"name": "Willa Port", "type": "hotel", "image": "https://dynamic-media-cdn.tripadvisor.com/media/photo-o/10/90/2d/69/hotel-willa-port-art.jpg?w=1000&s=1", "address": "Adama Mickiewicza 17, Ostroda 14-100 Poland", "lat": 53.706367, "lng": 19.95737, "ref_id": 1460886, "rating": 4.5, "num_reviews": 0, "website": null, "contact_phone": "+48 89 642 46 00", "contact_email": "recepcja@willaport.pl", "status": 1, "source_type": 1, "numberReviews": 285}, {"name": "Hotel Santa Monica", "type": "hotel", "image": "https://dynamic-media-cdn.tripadvisor.com/media/photo-o/18/3a/d2/b5/hotel-santa-monica.jpg?w=1000&s=1", "address": "ul. Papieza Jana Pawla II 3, Mikolajki 11-730 Poland", "lat": 53.803165, "lng": 21.574787, "ref_id": 3355368, "rating": 4.5, "num_reviews": 0, "website": "http://hotelsantamonica.pl", "contact_phone": "+48 87 420 70 57", "contact_email": "recepcja@hotelsantamonica.pl", "status": 1, "source_type": 1, "numberReviews": 172}, {"name": "Natura Mazur Resort & Conference Warchaly", "type": "hotel", "image": "https://dynamic-media-cdn.tripadvisor.com/media/photo-o/1b/9d/48/89/3.jpg?w=1000&s=1", "address": "Ul. Brajnicka 1, Jedwabno 12-122 Poland", "lat": 53.538223, "lng": 20.802412, "ref_id": 9772351, "rating": 4.5, "num_reviews": 0, "website": "http://naturamazur.pl/", "contact_phone": "+48 533 381 401", "contact_email": "recepcja@naturamazur.pl", "status": 1, "source_type": 1, "numberReviews": 283}, {"name": "Panorama Lake Resort", "type": "hotel", "image": "https://dynamic-media-cdn.tripadvisor.com/media/photo-o/05/f2/ab/c6/panorama.jpg?w=1000&s=1", "address": "Nowe Guty 66, Orzysz 12-250 Poland", "lat": 53.77608, "lng": 21.85869, "ref_id": 6560894, "rating": 5, "num_reviews": 0, "website": "http://www.noweguty.eu/", "contact_phone": "+48 87 423 87 73", "contact_email": "panorama@noweguty.eu", "status": 1, "source_type": 1, "numberReviews": 25}, {"name": "Hostel Mamas&Papas", "type": "hotel", "image": "https://dynamic-media-cdn.tripadvisor.com/media/photo-o/0d/49/a4/16/20161004-162214-largejpg.jpg?w=1000&s=1", "address": "ul. Nowiny 19, Gdansk 80-020 Poland", "lat": 54.320038, "lng": 18.62935, "ref_id": 2278763, "rating": 4.5, "num_reviews": 0, "website": "http://www.mamas-papas.pl/", "contact_phone": "+48 58 717 55 64", "contact_email": "info@mamas-papas.pl", "status": 1, "source_type": 1, "numberReviews": 96}, {"name": "Focus Hotel Premium Gdansk", "type": "hotel", "image": "https://dynamic-media-cdn.tripadvisor.com/media/photo-o/2b/e4/f3/94/focus-hotel-premium-gdansk.jpg?w=1000&s=1", "address": "ul. Nad Stawem 5, Gdansk 80-454 Poland", "lat": 54.38366, "lng": 18.604856, "ref_id": 9460809, "rating": 4, "num_reviews": 0, "website": "http://www.focushotels.pl", "contact_phone": "+48 58 670 42 90", "contact_email": null, "status": 1, "source_type": 1, "numberReviews": 130}, {"name": "Best Western Hotel Jurata", "type": "hotel", "image": "https://dynamic-media-cdn.tripadvisor.com/media/photo-o/1d/25/dd/87/best-western-hotel-jurata.jpg?w=1000&s=1", "address": "11 Swietopelka Street, Jurata 84-141 Poland", "lat": 54.681313, "lng": 18.721487, "ref_id": 8629484, "rating": 4.5, "num_reviews": 0, "website": "https://www.bestwestern.com/de_DE/book/hotel-details.81039.html?aff=BIO&iata=00171890&ssob=BLBWI0003G&cid=BLBWI0003G:yext:website:81039", "contact_phone": "+48 58 675 21 40", "contact_email": "recepcja@hotel-jurata.com.pl", "status": 1, "source_type": 1, "numberReviews": 226}, {"name": "Hotel Pod Kluka", "type": "hotel", "image": "https://dynamic-media-cdn.tripadvisor.com/media/photo-o/1a/f0/9f/73/img-20200217-164806-largejpg.jpg?w=1000&s=1", "address": "ul. Kaszubska 22, Slupsk 76-200 Poland", "lat": 54.47626, "lng": 17.04038, "ref_id": 2647554, "rating": 4, "num_reviews": 0, "website": "http://www.hotelpodkluka.pl/", "contact_phone": "+48 59 844 54 99", "contact_email": "biuro@podkluka.pl", "status": 1, "source_type": 1, "numberReviews": 31}, {"name": "Hotel Cztery Brzozy", "type": "hotel", "image": "https://dynamic-media-cdn.tripadvisor.com/media/photo-o/04/5b/0e/f8/hotel-cztery-brzozy.jpg?w=1000&s=1", "address": "ul. Skromna 1, Gdansk 80-180 Poland", "lat": 54.309, "lng": 18.5599, "ref_id": 4570611, "rating": 3.5, "num_reviews": 0, "website": "http://www.hotelczterybrzozy.pl/", "contact_phone": "+48 666 031 444", "contact_email": "recepcja@hotelczterybrzozy.pl", "status": 1, "source_type": 1, "numberReviews": 43}, {"name": "Hotel Zamek Ryn", "type": "hotel", "image": "https://dynamic-media-cdn.tripadvisor.com/media/photo-o/0e/8f/5d/71/ryn-castle-hotel.jpg?w=1000&s=1", "address": "Plac Wolno\u015bci 2, Ryn 11-520 Poland", "lat": 53.938824, "lng": 21.546528, "ref_id": 1183843, "rating": 4, "num_reviews": 0, "website": "https://www.zamekryn.pl/", "contact_phone": "+48 87 429 70 00", "contact_email": "hotel@zamekryn.pl", "status": 1, "source_type": 1, "numberReviews": 651}, {"name": "Hotel Hel", "type": "hotel", "image": "https://dynamic-media-cdn.tripadvisor.com/media/photo-o/19/8a/13/30/hotel-hel.jpg?w=1000&s=1", "address": "Ul. Admirala Steyera 48, Hel 84-150 Poland", "lat": 54.60262, "lng": 18.807793, "ref_id": 14798556, "rating": 4, "num_reviews": 0, "website": "http://hotelhel.com/", "contact_phone": "+48 663 127 125", "contact_email": null, "status": 1, "source_type": 1, "numberReviews": 61}, {"name": "Apartments Factory", "type": "hotel", "image": "https://dynamic-media-cdn.tripadvisor.com/media/photo-o/23/c8/dd/71/apartments-factory.jpg?w=1000&s=1", "address": "Ul. Helska 4/3, Sopot 81-718 Poland", "lat": 54.4485, "lng": 18.56403, "ref_id": 9756853, "rating": 5, "num_reviews": 0, "website": "http://www.afsopot.pl/", "contact_phone": "+48 577 220 303", "contact_email": "afsopot@gmail.com", "status": 1, "source_type": 1, "numberReviews": 80}, {"name": "Soleil Boutique H", "type": "hotel", "image": "https://dynamic-media-cdn.tripadvisor.com/media/photo-o/08/59/04/45/soleil-boutique-hotel.jpg?w=1000&s=1", "address": "ul. Pu\u0142askiego 11/11, Sopot 81-760 Poland", "lat": 54.44323, "lng": 18.566793, "ref_id": 1892294, "rating": 4.5, "num_reviews": 0, "website": "http://www.soleil-sopot.pl", "contact_phone": "+48 665 588 888", "contact_email": "soleil@soleil-sopot.pl", "status": 1, "source_type": 1, "numberReviews": 73}, {"name": "Ratusz B&B", "type": "hotel", "image": "https://dynamic-media-cdn.tripadvisor.com/media/photo-o/14/5b/aa/e3/ratusz-b-b.jpg?w=1000&s=1", "address": "25 Opata Jacka Rybinskiego Street, Gdansk 80-320 Poland", "lat": 54.408924, "lng": 18.559198, "ref_id": 14466591, "rating": 5, "num_reviews": 0, "website": "https://ratuszbb.pl/", "contact_phone": "+48 517 584 959", "contact_email": "recepcja@ratuszbb.pl", "status": 1, "source_type": 1, "numberReviews": 12}, {"name": "Hotel Zamek Gniew", "type": "hotel", "image": "https://dynamic-media-cdn.tripadvisor.com/media/photo-o/1c/0b/a2/e6/img-20200920-113515-775.jpg?w=1000&s=1", "address": "ul. Zamkowa 3, Gniew 83-140 Poland", "lat": 53.834126, "lng": 18.829214, "ref_id": 2259687, "rating": 4, "num_reviews": 0, "website": "http://www.zamek-gniew.pl/", "contact_phone": "+48 58 535 38 80", "contact_email": "palacmarysienki@zamek-gniew.pl", "status": 1, "source_type": 1, "numberReviews": 228}, {"name": "World Hostel", "type": "hotel", "image": "https://dynamic-media-cdn.tripadvisor.com/media/photo-o/0d/50/15/65/world-hostel.jpg?w=1000&s=1", "address": "ul. Brygidki 14, Gdansk 80-856 Poland", "lat": 54.355675, "lng": 18.652458, "ref_id": 6849394, "rating": 4.5, "num_reviews": 0, "website": "http://worldhostel.pl/kontakt.html", "contact_phone": "+48 504 973 953", "contact_email": "rooms@worldhostel.pl", "status": 1, "source_type": 1, "numberReviews": 74}, {"name": "Warminski Hotel & Conference", "type": "hotel", "image": "https://dynamic-media-cdn.tripadvisor.com/media/photo-o/14/66/6d/70/warminski-hotel-conference.jpg?w=1000&s=1", "address": "ul. Kolobrzeska 1, Olsztyn 10-442 Poland", "lat": 53.77918, "lng": 20.490192, "ref_id": 528585, "rating": 4, "num_reviews": 0, "website": "http://www.hotel-warminski.com.pl/oferty-specjalne", "contact_phone": "+48 89 522 14 00", "contact_email": "hotel@hotel-warminski.com.pl", "status": 1, "source_type": 1, "numberReviews": 324}, {"name": "Kurort Stara W\u0119dzarnia", "type": "hotel", "image": "https://dynamic-media-cdn.tripadvisor.com/media/photo-o/22/1f/db/9f/pensjonat-stara-wedzarnia.jpg?w=1000&s=1", "address": "Nadwislanska 79, Gdansk 80-680 Poland", "lat": 54.348454, "lng": 18.80115, "ref_id": 1081711, "rating": 4.5, "num_reviews": 0, "website": "https://www.starawedzarnia.pl/", "contact_phone": "+48 58 573 33 22", "contact_email": "recepcja@starawedzarnia.pl", "status": 1, "source_type": 1, "numberReviews": 200}, {"name": "Noclegi Apro", "type": "hotel", "image": "https://dynamic-media-cdn.tripadvisor.com/media/photo-o/14/98/61/cd/apro.jpg?w=1000&s=1", "address": "Ul. Tarcice 9, Gdansk 80-718 Poland", "lat": 54.3529, "lng": 18.7072, "ref_id": 3185569, "rating": 4, "num_reviews": 0, "website": "http://www.noclegiapro.pl", "contact_phone": "+48 58 324 21 12", "contact_email": "noclegi@apro.pl", "status": 1, "source_type": 1, "numberReviews": 16}, {"name": "Hotel St. Bruno**** Gi\u017cycko", "type": "hotel", "image": "https://dynamic-media-cdn.tripadvisor.com/media/photo-o/0c/51/ff/72/hotel-st-bruno.jpg?w=1000&s=1", "address": "Ul. Sw. Brunona 1, Gizycko 11-500 Poland", "lat": 54.035805, "lng": 21.760164, "ref_id": 2285933, "rating": 4, "num_reviews": 0, "website": "http://hotelstbruno.pl/", "contact_phone": "+48 87 732 65 00", "contact_email": "recepcja@hotelstbruno.pl", "status": 1, "source_type": 1, "numberReviews": 418}, {"name": "ATRIUM - Pokoje Studio i Domki", "type": "hotel", "image": "https://dynamic-media-cdn.tripadvisor.com/media/photo-o/0e/f9/40/79/osrodek-wypoczynkowy.jpg?w=1000&s=1", "address": "ul. Zeglarzy 7, Krynica Morska 82-120 Poland", "lat": 54.381123, "lng": 19.44847, "ref_id": 7229105, "rating": 4, "num_reviews": 0, "website": "http://owatrium.pl/", "contact_phone": "+48 503 070 316", "contact_email": "ow.atrium@gmail.com", "status": 1, "source_type": 1, "numberReviews": 22}, {"name": "Villa Stratus", "type": "hotel", "image": "https://dynamic-media-cdn.tripadvisor.com/media/photo-o/1a/8a/07/4d/villa-stratus.jpg?w=1000&s=1", "address": "ul. Bpa. Andrzeja Wronki 14, Gdansk 80-808 Poland", "lat": 54.34332, "lng": 18.62813, "ref_id": 1835545, "rating": 4.5, "num_reviews": 0, "website": "www.villastratus.pl", "contact_phone": "+48 58 300 47 11", "contact_email": "biuro@villastratus.pl", "status": 1, "source_type": 1, "numberReviews": 71}, {"name": "Best Western Plus Hotel Olsztyn Old Town", "type": "hotel", "image": "https://dynamic-media-cdn.tripadvisor.com/media/photo-o/2b/04/50/7d/exterior-view.jpg?w=1000&s=1", "address": "Al. Warszawska 39, Olsztyn 10-081 Poland", "lat": 53.771507, "lng": 20.472206, "ref_id": 1773032, "rating": 4.5, "num_reviews": 0, "website": "https://www.bestwestern.pl/pl_PL/book/hotel-rooms.81047.html?aff=BPL&iata=00171890&ssob=BLBWI0003G&cid=BLBWI0003G:yext:website:81047", "contact_phone": "+48 89 522 99 29", "contact_email": "recepcja@bwplushotelolsztynoldtown.pl", "status": 1, "source_type": 1, "numberReviews": 59}, {"name": "Apartamenty Sun & Snow Foka", "type": "hotel", "image": "https://dynamic-media-cdn.tripadvisor.com/media/partner/bookingcom/photo-o/2c/3d/83/c1/caption.jpg?w=1000&s=1", "address": "Ul. Steyera 16B, Hel 84-150 Poland", "lat": 54.60525, "lng": 18.80628, "ref_id": 15649204, "rating": 5, "num_reviews": 0, "website": null, "contact_phone": null, "contact_email": null, "status": 1, "source_type": 1, "numberReviews": 3}, {"name": "Hotel Sowa", "type": "hotel", "image": "https://dynamic-media-cdn.tripadvisor.com/media/photo-o/0f/ee/56/8a/20170716-111956-largejpg.jpg?w=1000&s=1", "address": "Al. Grunwaldzka 49, Elblag Poland", "lat": 54.15364, "lng": 19.41471, "ref_id": 1547500, "rating": 3.5, "num_reviews": 0, "website": null, "contact_phone": "", "contact_email": "", "status": 1, "source_type": 1, "numberReviews": 42},