[{"name": "Frances Slocum State Park", "type": "attraction", "image": "https://dynamic-media-cdn.tripadvisor.com/media/photo-o/06/1f/50/e7/frances-slocum-state.jpg?w=1000&s=1", "address": "Valley View Drive, Wyoming, PA", "lat": 41.34466, "lng": -75.89597, "ref_id": 3265779, "rating": 4.5, "num_reviews": 0, "website": "http://www.dcnr.state.pa.us/stateparks/findapark/francesslocum/index.htm", "contact_phone": "+1 570-696-3525", "contact_email": null, "status": 1, "source_type": 1, "numberReviews": "78"}, {"name": "Cranberry Mall", "type": "attraction", "image": null, "address": "6945 US Route 322, Cranberry Township, PA", "lat": 41.35331, "lng": -79.71638, "ref_id": 1734837, "rating": 3, "num_reviews": 0, "website": null, "contact_phone": "", "contact_email": "", "status": 1, "source_type": 1, "numberReviews": "12"}, {"name": "Morgan Log House", "type": "attraction", "image": "https://dynamic-media-cdn.tripadvisor.com/media/photo-o/06/0c/56/4b/morgan-log-house.jpg?w=1000&s=1", "address": "850 Weikel Rd, Lansdale, PA 19446-4548", "lat": 40.24536, "lng": -75.31233, "ref_id": 2412236, "rating": 4.5, "num_reviews": 0, "website": "http://www.morganloghouse.org/contact.php", "contact_phone": "+1 215-368-2480", "contact_email": "", "status": 1, "source_type": 1, "numberReviews": "20"}, {"name": "Lithuanian Museum and Cultural Center", "type": "attraction", "image": null, "address": "37 S Broad Mountain Ave, Frackville, PA 17931-1801", "lat": 40.78512, "lng": -76.22727, "ref_id": 18192941, "rating": 3, "num_reviews": 0, "website": null, "contact_phone": null, "contact_email": null, "status": 1, "source_type": 1, "numberReviews": "1"}, {"name": "Royal Square District Murals", "type": "attraction", "image": "https://dynamic-media-cdn.tripadvisor.com/media/photo-o/0f/dd/8d/96/getlstd-property-photo.jpg?w=1000&s=1", "address": "Royal Square District, York, PA 17401", "lat": 39.961655, "lng": -76.725044, "ref_id": 12645615, "rating": 4.5, "num_reviews": 0, "website": "http://RoyalSquareDistrict.com", "contact_phone": null, "contact_email": null, "status": 1, "source_type": 1, "numberReviews": "4"}, {"name": "Tranquil Therapy", "type": "attraction", "image": null, "address": "150 Cecil B Moore Ave Appointment Only, Philadelphia, PA", "lat": 39.975685, "lng": -75.13652, "ref_id": 25318990, "rating": 0, "num_reviews": 0, "website": "https://www.tranquiltherapywellness.com/", "contact_phone": "+1 484-469-8663", "contact_email": null, "status": 1, "source_type": 1}, {"name": "Target Store Philadelphia-West", "type": "attraction", "image": null, "address": "4000 Monument Rd, Philadelphia, PA 19131-1600", "lat": 40.006508, "lng": -75.211845, "ref_id": 27081371, "rating": 0, "num_reviews": 0, "website": "https://www.target.com/sl/philadelphia-city-ave/2124", "contact_phone": "+1 267-233-5020", "contact_email": null, "status": 1, "source_type": 1}, {"name": "Schmucker Art Gallery", "type": "attraction", "image": null, "address": "300 N Washington St, Gettysburg, PA 17325-1400", "lat": 39.834118, "lng": -77.233665, "ref_id": 27071781, "rating": 0, "num_reviews": 0, "website": "http://www.gettysburg.edu/gallery", "contact_phone": "+1 717-337-6300", "contact_email": null, "status": 1, "source_type": 1}, {"name": "Moores Lake Park", "type": "attraction", "image": null, "address": "879 14th Ave, Prospect Park, PA 19076-1905", "lat": 39.889275, "lng": -75.31407, "ref_id": 27072867, "rating": 0, "num_reviews": 0, "website": "https://www.facebook.com/378605549003411", "contact_phone": "", "contact_email": null, "status": 1, "source_type": 1}, {"name": "Sylvan Heights Golf Course", "type": "attraction", "image": null, "address": "2661 Ellwood Rd, New Castle, PA 16101-6217", "lat": 40.96814, "lng": -80.30502, "ref_id": 27075176, "rating": 0, "num_reviews": 0, "website": "http://www.sylvanheightsgolfcourse.com", "contact_phone": "+1 724-658-8021", "contact_email": null, "status": 1, "source_type": 1}, {"name": "Duck Feet Foot Spa", "type": "attraction", "image": null, "address": "7207 Torresdale Ave, Philadelphia, PA 19135-1314", "lat": 40.02933, "lng": -75.03616, "ref_id": 27072551, "rating": 0, "num_reviews": 0, "website": "https://fullbodymassagephiladelphia.com/", "contact_phone": "+1 215-929-8497", "contact_email": null, "status": 1, "source_type": 1}, {"name": "Joseph Walczak Sr Park", "type": "attraction", "image": null, "address": "2100 E Grandview Blvd, Erie, PA 16510-3647", "lat": 42.112965, "lng": -80.01767, "ref_id": 27072644, "rating": 0, "num_reviews": 0, "website": "https://www.facebook.com/279671578748121", "contact_phone": "", "contact_email": null, "status": 1, "source_type": 1}, {"name": "Boscov's", "type": "attraction", "image": null, "address": "1665 State Hill Rd, Wyomissing, PA 19610-1905", "lat": 40.33922, "lng": -75.97073, "ref_id": 27075246, "rating": 0, "num_reviews": 0, "website": "http://locations.boscovs.com/pa/wyomissing/1665-state-hill-rd.html", "contact_phone": "+1 610-779-2000", "contact_email": null, "status": 1, "source_type": 1}, {"name": "Great Blue Heron Park", "type": "attraction", "image": null, "address": "3202 Dovecote Dr, Quakertown, PA 18951", "lat": 40.417072, "lng": -75.358894, "ref_id": 27073967, "rating": 0, "num_reviews": 0, "website": "http://richlandtownship.org/phone/index.html", "contact_phone": "+1 215-536-4066", "contact_email": null, "status": 1, "source_type": 1}, {"name": "Cellarium Wine Racks", "type": "attraction", "image": null, "address": "50 S 1st Ave, Coatesville, PA 19320-3418", "lat": 39.98151, "lng": -75.82316, "ref_id": 27078178, "rating": 0, "num_reviews": 0, "website": "https://www.cellarium.com", "contact_phone": "+1 610-314-6476", "contact_email": null, "status": 1, "source_type": 1}, {"name": "Gallery Shop", "type": "attraction", "image": null, "address": "824 Pike St, Lemont, PA 16851-9002", "lat": 40.809933, "lng": -77.81892, "ref_id": 27074516, "rating": 0, "num_reviews": 0, "website": "http://www.gallery-shop.com", "contact_phone": "+1 814-867-0442", "contact_email": null, "status": 1, "source_type": 1}, {"name": "Bond Customart", "type": "attraction", "image": null, "address": "59 Kempton Rd, Kempton, PA 19529-8755", "lat": 40.618996, "lng": -75.85225, "ref_id": 27074769, "rating": 0, "num_reviews": 0, "website": "https://jonathanbond.com/contact", "contact_phone": "+1 610-756-4490", "contact_email": null, "status": 1, "source_type": 1}, {"name": "Hatfield Ice Mini Rink", "type": "attraction", "image": null, "address": "840 Bethlehem Pike, Colmar, PA 18915-9416", "lat": 40.281357, "lng": -75.26271, "ref_id": 27074766, "rating": 0, "num_reviews": 0, "website": "https://www.facebook.com/170909970205460", "contact_phone": "+1 215-997-6396", "contact_email": null, "status": 1, "source_type": 1}, {"name": "The Color Park", "type": "attraction", "image": null, "address": "1 S 6th St, Pittsburgh, PA 15203-1024", "lat": 40.428715, "lng": -79.99377, "ref_id": 27083459, "rating": 0, "num_reviews": 0, "website": "http://www.studio-am.com", "contact_phone": "", "contact_email": null, "status": 1, "source_type": 1}, {"name": "Old Caln Historical Society", "type": "attraction", "image": null, "address": "901 Caln Meetinghouse Rd, Coatesville, PA 19320-2108", "lat": 40.00805, "lng": -75.76451, "ref_id": 27075500, "rating": 0, "num_reviews": 0, "website": "https://www.oldcalnhistoricalsociety.org/", "contact_phone": "", "contact_email": null, "status": 1, "source_type": 1}, {"name": "Coach McNelly Stadium", "type": "attraction", "image": null, "address": "350 S Lewis Rd, Royersford, PA 19468-1829", "lat": 40.186707, "lng": -75.530426, "ref_id": 27076657, "rating": 0, "num_reviews": 0, "website": "https://www.facebook.com/251897638184068", "contact_phone": "", "contact_email": null, "status": 1, "source_type": 1}, {"name": "Firewhistle Brewing", "type": "attraction", "image": "https://dynamic-media-cdn.tripadvisor.com/media/photo-o/2b/16/3f/cc/on-main-street.jpg?w=1000&s=1", "address": "107 N 2nd Ave, Elizabeth, PA 15037-1578", "lat": 37.09024, "lng": -95.71289, "ref_id": 25311705, "rating": 0, "num_reviews": 0, "website": "https://firewhistlebrewing.com/", "contact_phone": "+1 412-405-4907", "contact_email": "info@firewhistlebrewing.com", "status": 1, "source_type": 1}, {"name": "Delgado Landscaping", "type": "attraction", "image": null, "address": "28 S 15th St, Easton, PA 18042-4001", "lat": 40.68954, "lng": -75.23182, "ref_id": 27079674, "rating": 0, "num_reviews": 0, "website": "https://www.facebook.com/1216723961769953", "contact_phone": "+1 610-659-9245", "contact_email": null, "status": 1, "source_type": 1}, {"name": "Paul Farnan Field", "type": "attraction", "image": null, "address": "90 Eisenhart Blvd, Bangor, PA 18013-2300", "lat": 40.865715, "lng": -75.220116, "ref_id": 27077710, "rating": 0, "num_reviews": 0, "website": "https://www.facebook.com/183671651711649", "contact_phone": "+1 610-588-2279", "contact_email": null, "status": 1, "source_type": 1}, {"name": "Huzars Club", "type": "attraction", "image": null, "address": "1122 E 10th St, Erie, PA 16503-1606", "lat": 42.13496, "lng": -80.05756, "ref_id": 27086550, "rating": 0, "num_reviews": 0, "website": "http://www.lifedevelopmentcenter.com", "contact_phone": "+1 814-454-5457", "contact_email": null, "status": 1, "source_type": 1}, {"name": "Crooked Tongue Brewing", "type": "attraction", "image": null, "address": "2516 Benjamin Franklin Hwy, Edinburg, PA 16116-4302", "lat": 41.04538, "lng": -80.42473, "ref_id": 27079865, "rating": 0, "num_reviews": 0, "website": "http://www.crookedtonguebrewing.com", "contact_phone": "+1 724-856-3765", "contact_email": null, "status": 1, "source_type": 1}, {"name": "Loft At Limerick", "type": "attraction", "image": null, "address": "765 N Lewis Rd, Royersford, PA 19468-1307", "lat": 40.22954, "lng": -75.53563, "ref_id": 27082934, "rating": 0, "num_reviews": 0, "website": "http://www.limerickgolfclub.com", "contact_phone": "+1 610-474-2283", "contact_email": null, "status": 1, "source_type": 1}, {"name": "Family Escape Room", "type": "attraction", "image": "https://dynamic-media-cdn.tripadvisor.com/media/photo-o/0b/cb/8b/78/family-escape-room.jpg?w=1000&s=1", "address": "582 Middletown Blvd Suite B-10, Langhorne, PA 19047-1828", "lat": 40.18687, "lng": -74.87804, "ref_id": 10340818, "rating": 3, "num_reviews": 0, "website": "http://familyescaperoom.com/", "contact_phone": "+1 267-666-8008", "contact_email": "booknow@familyescaperoom.com", "status": 1, "source_type": 1, "numberReviews": "4"}, {"name": "PineCrest Country Club - Golf Course", "type": "attraction", "image": "https://dynamic-media-cdn.tripadvisor.com/media/photo-o/24/f6/e6/4b/this-is-the-5th-hole.jpg?w=1000&s=1", "address": "101 Country Club Dr, Lansdale, PA 19446-1457", "lat": 40.2563, "lng": -75.24073, "ref_id": 6939071, "rating": 3, "num_reviews": 0, "website": "http://www.pcrestcc.com/golf_index.htm", "contact_phone": "+1 215-855-6112", "contact_email": null, "status": 1, "source_type": 1, "numberReviews": "16"}, {"name": "Ready Aim Fire", "type": "attraction", "image": "https://dynamic-media-cdn.tripadvisor.com/media/photo-o/2b/44/e1/c7/great-place-trained-my.jpg?w=1000&s=1", "address": "5800 Elwood Ave Ste F, Bristol, PA 19007-3409", "lat": 40.11713, "lng": -74.8483, "ref_id": 12218625, "rating": 3, "num_reviews": 0, "website": "http://www.rafire.com/range/range.htm", "contact_phone": "+1 215-788-5898", "contact_email": null, "status": 1, "source_type": 1, "numberReviews": "6"}, {"name": "Kid Company", "type": "attraction", "image": null, "address": "2381 Philmont Ave, Huntingdon Valley, PA 19006-6236", "lat": 40.11876, "lng": -75.06236, "ref_id": 1818163, "rating": 0, "num_reviews": 0, "website": null, "contact_phone": "+1 215-947-9600", "contact_email": "info@thekidco.com", "status": 1, "source_type": 1}, {"name": "The Double T Bar and Grill", "type": "attraction", "image": null, "address": "1595 McClellandtown Rd, McClellandtown, PA 15458-1101", "lat": 39.88121, "lng": -79.87542, "ref_id": 5836109, "rating": 2, "num_reviews": 0, "website": "https://www.facebook.com/The-Double-T-Bar-and-Grill-154658847921917/", "contact_phone": "+1 724-737-2216", "contact_email": null, "status": 1, "source_type": 1, "numberReviews": "1"}, {"name": "Pisci's Bar", "type": "attraction", "image": null, "address": "4501 Main St, Munhall, PA 15120-3331", "lat": 40.37933, "lng": -79.90716, "ref_id": 5844376, "rating": 1, "num_reviews": 0, "website": "https://www.facebook.com/Piscisbar/", "contact_phone": "+1 412-464-5181", "contact_email": null, "status": 1, "source_type": 1, "numberReviews": "1"}, {"name": "Molly's Irish Grille & Sports Pub", "type": "attraction", "image": "https://dynamic-media-cdn.tripadvisor.com/media/photo-o/09/ff/1c/f6/photo1jpg.jpg?w=1000&s=1", "address": "East 4th Street & New St, Bethlehem, PA 18015", "lat": 40.61034, "lng": -75.377525, "ref_id": 5847146, "rating": 3, "num_reviews": 0, "website": "http://www.mollysbethlehem.com", "contact_phone": "+1 610-868-1313", "contact_email": "info@mollysbethlehem.com", "status": 1, "source_type": 1, "numberReviews": "6"}, {"name": "Milton Rock Gym", "type": "attraction", "image": null, "address": "45 S Front St, Milton, PA 17847-1110", "lat": 41.01911, "lng": -76.85523, "ref_id": 11880187, "rating": 3, "num_reviews": 0, "website": "http://miltonrockgym.com/", "contact_phone": "+1 570-742-8290", "contact_email": null, "status": 1, "source_type": 1, "numberReviews": "3"}, {"name": "The Pittsburgh Bottleshop Cafe", "type": "attraction", "image": null, "address": "1597 Washington Pike, Bridgeville, PA 15017-2894", "lat": 40.38313, "lng": -80.09431, "ref_id": 5834528, "rating": 3, "num_reviews": 0, "website": "http://www.bottleshopcafe.com/", "contact_phone": "+1 412-279-8191", "contact_email": null, "status": 1, "source_type": 1, "numberReviews": "4"}, {"name": "Carmike 15", "type": "attraction", "image": "https://dynamic-media-cdn.tripadvisor.com/media/photo-o/10/1b/00/db/parking.jpg?w=1000&s=1", "address": "5280 US Hwy 30 E, Greensburg, PA 15601", "lat": 40.30288, "lng": -79.51231, "ref_id": 9700333, "rating": 3, "num_reviews": 0, "website": "http://www.carmike.com/", "contact_phone": "+1 724-834-1977", "contact_email": "facebook@carmike.com", "status": 1, "source_type": 1, "numberReviews": "9"}, {"name": "Pain Away Of Philly", "type": "attraction", "image": "https://dynamic-media-cdn.tripadvisor.com/media/photo-o/1c/25/4c/b7/lounge-are.jpg?w=1000&s=1", "address": "936 Arch St 2 Flr, Philadelphia, PA 19107-3107", "lat": 39.95332, "lng": -75.15614, "ref_id": 21297206, "rating": 2.5, "num_reviews": 0, "website": "http://www.painawayofphilly.com/", "contact_phone": "+1 267-690-4138", "contact_email": "painawayphilly@gmail.com", "status": 1, "source_type": 1, "numberReviews": "2"}, {"name": "Silver Moon Route 15 Flea Market", "type": "attraction", "image": "https://dynamic-media-cdn.tripadvisor.com/media/photo-o/28/76/a5/4b/sale.jpg?w=1000&s=1", "address": "150 Silvermoon Ln, Lewisburg, PA 17837-6351", "lat": 40.99337, "lng": -76.87472, "ref_id": 21292113, "rating": 2.5, "num_reviews": 0, "website": "https://www.facebook.com/Route15FleaMarket/", "contact_phone": "+1 570-568-8080", "contact_email": "info@silvermoonfleamarket.com", "status": 1, "source_type": 1, "numberReviews": "3"}, {"name": "Boulder Falls Miniature Golf", "type": "attraction", "image": null, "address": "1426 Marshallton Thorndale Rd, Downingtown, PA 19335-3673", "lat": 39.98196, "lng": -75.73938, "ref_id": 17852684, "rating": 2.5, "num_reviews": 0, "website": "http://www.boulderfallsminigolf.com/", "contact_phone": "+1 610-383-7973", "contact_email": "bfminigolf@gmail.com", "status": 1, "source_type": 1, "numberReviews": "2"}, {"name": "Camelback Lodge & Indoor Waterpark", "type": "attraction", "image": "https://dynamic-media-cdn.tripadvisor.com/media/photo-o/2b/ae/02/10/hotel-entrance.jpg?w=1000&s=1", "address": "193 Resort Dr, Tannersville, PA 18372-7993", "lat": 41.04009, "lng": -75.30574, "ref_id": 21229815, "rating": 3, "num_reviews": 0, "website": "https://www.camelbackresort.com/", "contact_phone": "+1 855-515-1283", "contact_email": "info@camelbackresort.com", "status": 1, "source_type": 1, "numberReviews": "16"}, {"name": "Lotus Day Spa", "type": "attraction", "image": null, "address": "505 Washington Ave, Newtown, PA 18940-2144", "lat": 40.22921, "lng": -74.92803, "ref_id": 10097988, "rating": 2.5, "num_reviews": 0, "website": "http://lotusspanewtown.com/", "contact_phone": "+1 215-968-5900", "contact_email": "contactus@lotusspanewtown.com", "status": 1, "source_type": 1, "numberReviews": "4"}, {"name": "The Comedy Works", "type": "attraction", "image": "https://dynamic-media-cdn.tripadvisor.com/media/photo-o/11/62/c4/84/bob-dibuono-on-stage.jpg?w=1000&s=1", "address": "1320 Newport Rd, Bristol, PA 19007-6530", "lat": 40.10458, "lng": -74.89077, "ref_id": 4269106, "rating": 3, "num_reviews": 0, "website": "http://www.comedyworksbristol.com", "contact_phone": "+1 215-741-1661", "contact_email": "comedy_works@yahoo.com", "status": 1, "source_type": 1, "numberReviews": "8"}, {"name": "The Wake Zone - Indoor Golf + Taproom", "type": "attraction", "image": "https://dynamic-media-cdn.tripadvisor.com/media/photo-o/21/b9/5d/30/the-wake-zone-indoor.jpg?w=1000&s=1", "address": "274 Route 507, Tafton, PA 18464-7815", "lat": 41.423046, "lng": -75.18668, "ref_id": 23729939, "rating": 2.5, "num_reviews": 0, "website": "http://thewakezone-pa.com/sports/", "contact_phone": "+1 570-390-8320", "contact_email": "manager@wallenpaupackbrewingco.com", "status": 1, "source_type": 1, "numberReviews": "3"}, {"name": "Burke's Gun Shop", "type": "attraction", "image": null, "address": "138 Trail Rd, Meshoppen, PA 18630-8570", "lat": 41.61289, "lng": -76.0728, "ref_id": 21088960, "rating": 3, "num_reviews": 0, "website": "http://www.burkesgunshop.com/", "contact_phone": "+1 570-712-2135", "contact_email": "Sales@BurkesGunShop.com", "status": 1, "source_type": 1, "numberReviews": "2"}, {"name": "The Lincoln Highway Hub", "type": "attraction", "image": "https://dynamic-media-cdn.tripadvisor.com/media/photo-o/1c/a1/a3/e3/inside.jpg?w=1000&s=1", "address": "1404 Lincoln Hwy, North Versailles, PA 15137-2452", "lat": 40.37488, "lng": -79.79669, "ref_id": 23057725, "rating": 2, "num_reviews": 0, "website": "http://www.facebook.com/The-Lincoln-Highway-HUB-1672045706410880/", "contact_phone": "+1 412-349-8499", "contact_email": null, "status": 1, "source_type": 1, "numberReviews": "1"}, {"name": "Ghosts N'at Paranormal Adventures", "type": "attraction", "image": null, "address": "Pittsburgh, PA 15205", "lat": null, "lng": null, "ref_id": 11670786, "rating": 2.5, "num_reviews": 0, "website": "http://www.ghostsnat.com/", "contact_phone": null, "contact_email": "ghostsnatbookings@gmail.com", "status": 1, "source_type": 1, "numberReviews": "2"}, {"name": "Ten Thousand Villages", "type": "attraction", "image": null, "address": "3523 Old Philadelphia Pike, Intercourse, PA 17534-7007", "lat": 40.03921, "lng": -76.1097, "ref_id": 17444409, "rating": 2.5, "num_reviews": 0, "website": "https://www.tenthousandvillages.com/kitchenkettlevillage#fndtn-home", "contact_phone": "+1 717-288-7370", "contact_email": "kitchenkettle@tenthousandvillages.com", "status": 1, "source_type": 1, "numberReviews": "2"}, {"name": "Polished Salon Spa and Wellness", "type": "attraction", "image": "https://dynamic-media-cdn.tripadvisor.com/media/photo-o/0f/4f/63/08/gorgeous-salon-lobby.jpg?w=1000&s=1", "address": "1200 Market St, Lemoyne, PA 17043-1417", "lat": 40.2402, "lng": -76.90755, "ref_id": 12315748, "rating": 3.5, "num_reviews": 0, "website": "http://Www.polishedspa.com", "contact_phone": "+1 717-975-9036", "contact_email": null, "status": 1, "source_type": 1, "numberReviews": "7"}, {"name": "RELAX Lounge", "type": "attraction", "image": "https://dynamic-media-cdn.tripadvisor.com/media/photo-o/28/d1/82/df/caption.jpg?w=1000&s=1", "address": "1580 Orchard Dr, Chambersburg, PA 17201-4811", "lat": 39.91297, "lng": -77.66238, "ref_id": 5836404, "rating": 3, "num_reviews": 0, "website": "http://orchardsrestaurant.com/", "contact_phone": "+1 717-264-4711", "contact_email": null, "status": 1, "source_type": 1, "numberReviews": "19"}, {"name": "Captain Jack's Bar & Grill", "type": "attraction", "image": "https://dynamic-media-cdn.tripadvisor.com/media/photo-o/10/f1/51/53/captain-jack-s-bar-grill.jpg?w=1000&s=1", "address": "616 Main St, Towanda, PA 18848-1614", "lat": 41.76382, "lng": -76.44341, "ref_id": 5836741, "rating": 2, "num_reviews": 0, "website": "https://www.facebook.com/Captain-Jacks-Bar-Grill-132848636761653/", "contact_phone": "+1 570-265-1329", "contact_email": null, "status": 1, "source_type": 1, "numberReviews": "2"}, {"name": "Institute for Biblical & Scientific Studies", "type": "attraction", "image": "https://dynamic-media-cdn.tripadvisor.com/media/photo-o/1d/ae/a3/a2/replicas.jpg?w=1000&s=1", "address": "2827 Lincoln Hwy E, Ronks, PA 17572-9608", "lat": 40.01661, "lng": -76.16161, "ref_id": 17837601, "rating": 2, "num_reviews": 0, "website": "https://www.facebook.com/InstituteForBiblicalAndScientificStudies/", "contact_phone": "+1 717-288-2279", "contact_email": "ibss@yahoo.com", "status": 1, "source_type": 1, "numberReviews": "1"}, {"name": "Bowling at Bedford Elks Country Club", "type": "attraction", "image": null, "address": "937 S Richard St, Bedford, PA 15522-9747", "lat": 40.00606, "lng": -78.49955, "ref_id": 7228318, "rating": 3.5, "num_reviews": 0, "website": "http://www.bedfordelkscc.com/bowling.htm", "contact_phone": "+1 814-263-9316", "contact_email": null, "status": 1, "source_type": 1, "numberReviews": "3"}, {"name": "The Chiefton Group", "type": "attraction", "image": "https://dynamic-media-cdn.tripadvisor.com/media/photo-o/1a/aa/b2/81/caption.jpg?w=1000&s=1", "address": "48 Riverview Avenue, Philadelphia, PA 08817", "lat": 39.87472, "lng": -75.32038, "ref_id": 19928640, "rating": 3, "num_reviews": 0, "website": "www.ride2theairports.com", "contact_phone": "+1 888-665-6660", "contact_email": "bookaride@ride2theairports.com", "status": 1, "source_type": 1, "numberReviews": "3"}, {"name": "Rich Maiden Golf Course", "type": "attraction", "image": null, "address": "234 Richmaiden Rd, Fleetwood, PA 19522-8678", "lat": 40.48286, "lng": -75.87858, "ref_id": 19266799, "rating": 2.5, "num_reviews": 0, "website": "http://richmaiden.com", "contact_phone": "+1 610-926-1606", "contact_email": null, "status": 1, "source_type": 1, "numberReviews": "2"}, {"name": "Disobedient Spirits", "type": "attraction", "image": "https://dynamic-media-cdn.tripadvisor.com/media/photo-o/13/ba/c3/17/great-specialty-bourbon.jpg?w=1000&s=1", "address": "30 S Main St, Homer City, PA 15748-1315", "lat": 40.54166, "lng": -79.16044, "ref_id": 14903862, "rating": 2.5, "num_reviews": 0, "website": "http://www.disobedientspirits.com", "contact_phone": "+1 724-915-8124", "contact_email": "contact@disobedientspirits.com", "status": 1, "source_type": 1, "numberReviews": "2"}, {"name": "Pike's Pub", "type": "attraction", "image": null, "address": "455 2nd Street Pike, Southampton, PA 18966-3801", "lat": 40.16807, "lng": -75.04557, "ref_id": 5845202, "rating": 2.5, "num_reviews": 0, "website": "https://www.facebook.com/Pikes-Pub-308951140693/", "contact_phone": "+1 215-354-1111", "contact_email": null, "status": 1, "source_type": 1, "numberReviews": "6"}, {"name": "Diamond Spa", "type": "attraction", "image": null, "address": "8430 Germantown Ave, Philadelphia, PA 19118-3302", "lat": 40.075527, "lng": -75.20608, "ref_id": 27011294, "rating": 0, "num_reviews": 0, "website": "http://ilovediamondspa.com", "contact_phone": "+1 215-242-4800", "contact_email": null, "status": 1, "source_type": 1}, {"name": "West Hills Community Park", "type": "attraction", "image": null, "address": "169 Heritage Park Dr, Kittanning, PA 16201-7025", "lat": 40.83259, "lng": -79.5578, "ref_id": 27012900, "rating": 0, "num_reviews": 0, "website": "https://www.facebook.com/648246438528345", "contact_phone": "", "contact_email": null, "status": 1, "source_type": 1}, {"name": "National Transit Art Studios", "type": "attraction", "image": null, "address": "206 Seneca St, Oil City, PA 16301-1304", "lat": 41.43431, "lng": -79.70879, "ref_id": 27007368, "rating": 0, "num_reviews": 0, "website": "http://www.artsoilcity.com/", "contact_phone": "+1 814-677-3152", "contact_email": null, "status": 1, "source_type": 1}, {"name": "Venus Day Spa", "type": "attraction", "image": null, "address": "1301 Columbia Blvd, Bloomsburg, PA 17815-8860", "lat": 41.00648, "lng": -76.43192, "ref_id": 27007370, "rating": 0, "num_reviews": 0, "website": "http://www.venus-spa.com", "contact_phone": "+1 570-389-1985", "contact_email": null, "status": 1, "source_type": 1}, {"name": "Witmer Memorial Field", "type": "attraction", "image": null, "address": "898 4th Ave, Prospect Park, PA 19076-2405", "lat": 39.878853, "lng": -75.30644, "ref_id": 27007592, "rating": 0, "num_reviews": 0, "website": "https://www.facebook.com/153230678021259", "contact_phone": "", "contact_email": null, "status": 1, "source_type": 1}, {"name": "Millenium Park", "type": "attraction", "image": null, "address": "5900 Baptist Rd, Pittsburgh, PA 15236", "lat": 40.348034, "lng": -80.018745, "ref_id": 27013878, "rating": 0, "num_reviews": 0, "website": "http://www.millenniumpark.org/", "contact_phone": "", "contact_email": null, "status": 1, "source_type": 1}, {"name": "Artisans Gallery", "type": "attraction", "image": null, "address": "100 Peddlers Vlg, Lahaska, PA 18931-9000", "lat": 40.34773, "lng": -75.03208, "ref_id": 27013634, "rating": 0, "num_reviews": 0, "website": "http://artisansgallery.com", "contact_phone": "+1 215-794-3112", "contact_email": null, "status": 1, "source_type": 1}, {"name": "Berlinsville Park", "type": "attraction", "image": null, "address": "4610 Aspen Dr, Walnutport, PA 18088", "lat": 40.76866, "lng": -75.5737, "ref_id": 27014354, "rating": 0, "num_reviews": 0, "website": "https://www.facebook.com/111113872309370", "contact_phone": "", "contact_email": null, "status": 1, "source_type": 1}, {"name": "Kohl's", "type": "attraction", "image": null, "address": "1067 W Baltimore Pike, Media, PA 19063-5141", "lat": 39.916393, "lng": -75.42657, "ref_id": 27013727, "rating": 0, "num_reviews": 0, "website": "https://www.kohls.com/stores/pa/media-278.shtml?utm_source=rio&utm_medium=referral&utm_campaign=facebook", "contact_phone": "+1 610-627-2600", "contact_email": null, "status": 1, "source_type": 1}, {"name": "Kohl's", "type": "attraction", "image": null, "address": "2600 Pleasant Valley Rd, York, PA 17402-9609", "lat": 39.9884, "lng": -76.681274, "ref_id": 27004039, "rating": 0, "num_reviews": 0, "website": "https://www.kohls.com/stores/pa/york-339.shtml?utm_source=rio&utm_medium=referral&utm_campaign=facebook", "contact_phone": "+1 717-755-5218", "contact_email": null, "status": 1, "source_type": 1}, {"name": "Hand & Stone Massage and Facial Spa", "type": "attraction", "image": null, "address": "411 Arena Hub Plz, Wilkes-Barre, PA 18702-6838", "lat": 41.2422, "lng": -75.8417, "ref_id": 27014690, "rating": 0, "num_reviews": 0, "website": "https://www.facebook.com/120737343102684", "contact_phone": "+1 570-828-3899", "contact_email": null, "status": 1, "source_type": 1}, {"name": "Unwind Day Spa", "type": "attraction", "image": null, "address": "711 Main St, Rockwood, PA 15557-1143", "lat": 39.91608, "lng": -79.15227, "ref_id": 27009956, "rating": 0, "num_reviews": 0, "website": "https://www.facebook.com/109600341210313", "contact_phone": "+1 814-926-6149", "contact_email": null, "status": 1, "source_type": 1}, {"name": "Co-Sign Speakeasy", "type": "attraction", "image": null, "address": "145 E 8th Ave, Homestead, PA 15120-1503", "lat": 40.40709, "lng": -79.9114, "ref_id": 27009960, "rating": 0, "num_reviews": 0, "website": "http://www.cosignpgh.com", "contact_phone": "+1 412-368-6962", "contact_email": null, "status": 1, "source_type": 1}, {"name": "Cocalico Creek Greenhouse", "type": "attraction", "image": null, "address": "50 W Mohler Church Rd, Ephrata, PA 17522-9206", "lat": 40.19544, "lng": -76.167725, "ref_id": 27692403, "rating": 0, "num_reviews": 0, "website": null, "contact_phone": "+1 717-721-7586", "contact_email": "2oclockcreations@gmail.com", "status": 1, "source_type": 1}, {"name": "Haverford Reserve Dog Park", "type": "attraction", "image": null, "address": "9000 Parkview Dr, Haverford, PA 19041-2030", "lat": 39.99221, "lng": -75.341125, "ref_id": 27010963, "rating": 0, "num_reviews": 0, "website": "http://www.hrdogpark.org/", "contact_phone": "+1 610-446-9397", "contact_email": null, "status": 1, "source_type": 1}, {"name": "Ya Mei Spa", "type": "attraction", "image": null, "address": "260 S 10th St, Philadelphia, PA 19107-5750", "lat": 39.9465, "lng": -75.15804, "ref_id": 27007288, "rating": 0, "num_reviews": 0, "website": "https://www.facebook.com/580535609129460", "contact_phone": "+1 215-413-1800", "contact_email": null, "status": 1, "source_type": 1}, {"name": "Skyline Park", "type": "attraction", "image": null, "address": "245 Eden Rd, Lancaster, PA 17601-4215", "lat": 40.070763, "lng": -76.29826, "ref_id": 27018159, "rating": 0, "num_reviews": 0, "website": "http://www.manheimtownship.org/", "contact_phone": "", "contact_email": null, "status": 1, "source_type": 1}, {"name": "DuBois City Memorial Park", "type": "attraction", "image": null, "address": "9 Parkway Dr, DuBois, PA 15801-2417", "lat": 41.12211, "lng": -78.76022, "ref_id": 27007369, "rating": 0, "num_reviews": 0, "website": "https://www.facebook.com/1323573771124660", "contact_phone": "+1 814-299-7196", "contact_email": null, "status": 1, "source_type": 1}, {"name": "Tru Form Skin Lab", "type": "attraction", "image": null, "address": "1100 Ludlow St, Philadelphia, PA 19107-4222", "lat": 39.950977, "lng": -75.15929, "ref_id": 27013905, "rating": 0, "num_reviews": 0, "website": "https://www.facebook.com/109416908082175", "contact_phone": "+1 267-343-1187", "contact_email": null, "status": 1, "source_type": 1}, {"name": "Downtime Salon & Spa", "type": "attraction", "image": null, "address": "1120 Center Tpke, Orwigsburg, PA 17961-9058", "lat": 40.640083, "lng": -76.09404, "ref_id": 27009179, "rating": 0, "num_reviews": 0, "website": "http://www.downtimesalonspa.com", "contact_phone": "+1 570-366-7373", "contact_email": null, "status": 1, "source_type": 1}, {"name": "Fieldwood Winery", "type": "attraction", "image": null, "address": "1083 Schuylkill Mountain Rd, Schuylkill Haven, PA 17972-9141", "lat": 40.616325, "lng": -76.171974, "ref_id": 27027464, "rating": 0, "num_reviews": 0, "website": "http://www.fieldwoodwinery.com/", "contact_phone": "+1 570-624-9288", "contact_email": null, "status": 1, "source_type": 1}, {"name": "Old York Road Country Club", "type": "attraction", "image": null, "address": "801 Tennis Ave, Ambler, PA 19002-2424", "lat": 40.18454, "lng": -75.20481, "ref_id": 27034454, "rating": 0, "num_reviews": 0, "website": "http://www.oyrcc.com/", "contact_phone": "+1 215-643-0180", "contact_email": null, "status": 1, "source_type": 1}, {"name": "Polk Township Walking Park", "type": "attraction", "image": null, "address": "121 Polk Township Rd, Kunkletown, PA 18058-8234", "lat": 40.90225, "lng": -75.49534, "ref_id": 27031619, "rating": 0, "num_reviews": 0, "website": "https://www.facebook.com/105316945015840", "contact_phone": "", "contact_email": null, "status": 1, "source_type": 1}, {"name": "Haven Spa", "type": "attraction", "image": null, "address": "220 Woodward Ave, Lock Haven, PA 17745-1739", "lat": 41.146732, "lng": -77.41885, "ref_id": 27034918, "rating": 0, "num_reviews": 0, "website": "http://www.havenspalh.com", "contact_phone": "+1 570-748-6800", "contact_email": null, "status": 1, "source_type": 1}, {"name": "James Memorial Park", "type": "attraction", "image": null, "address": "1027 Ridge Rd, Sellersville, PA 18960-1345", "lat": 40.36223, "lng": -75.34002, "ref_id": 27035167, "rating": 0, "num_reviews": 0, "website": "https://www.facebook.com/139431416098400", "contact_phone": "+1 215-257-9063", "contact_email": null, "status": 1, "source_type": 1}, {"name": "Hot Bed", "type": "attraction", "image": null, "address": "723 Chestnut St, Philadelphia, PA 19106-2315", "lat": 39.94985, "lng": -75.15322, "ref_id": 27031128, "rating": 0, "num_reviews": 0, "website": "https://www.facebook.com/160089407940909", "contact_phone": "+1 267-918-7432", "contact_email": null, "status": 1, "source_type": 1}, {"name": "LGG Creative Art", "type": "attraction", "image": null, "address": "1502 Hetzel St, Pittsburgh, PA 15212-3512", "lat": 40.467457, "lng": -79.98852, "ref_id": 27024201, "rating": 0, "num_reviews": 0, "website": "https://www.facebook.com/327130220634385", "contact_phone": "+1 315-750-5022", "contact_email": null, "status": 1, "source_type": 1}, {"name": "The Basement Nightspot", "type": "attraction", "image": null, "address": "112 W College Ave, State College, PA 16801-3838", "lat": 40.79395, "lng": -77.86179, "ref_id": 27033136, "rating": 0, "num_reviews": 0, "website": "https://www.facebook.com/2245034899116372", "contact_phone": "+1 814-234-1031", "contact_email": null, "status": 1, "source_type": 1}, {"name": "Westminster Park", "type": "attraction", "image": null, "address": "152 Perry Pl, York, PA 17401", "lat": 39.968506, "lng": -76.727295, "ref_id": 27031884, "rating": 0, "num_reviews": 0, "website": "https://www.facebook.com/153564835372604", "contact_phone": "", "contact_email": null, "status": 1, "source_type": 1}, {"name": "Maple Crest Golf Club", "type": "attraction", "image": null, "address": "350 Golf Course Rd, Portage, PA 15946-6018", "lat": 40.40092, "lng": -78.67689, "ref_id": 27033697, "rating": 0, "num_reviews": 0, "website": "http://www.maplecrestgolfcourse.com/", "contact_phone": "+1 814-736-3098", "contact_email": null, "status": 1, "source_type": 1}, {"name": "Showers Field", "type": "attraction", "image": null, "address": "311 Maple Ave, DuBois, PA 15801-2307", "lat": 41.117428, "lng": -78.754395, "ref_id": 27035745, "rating": 0, "num_reviews": 0, "website": "http://showersfield.com", "contact_phone": "+1 814-371-2000", "contact_email": null, "status": 1, "source_type": 1}, {"name": "Crispin Field", "type": "attraction", "image": null, "address": "1199 N Mulberry St, Berwick, PA 18603-2012", "lat": 41.060726, "lng": -76.24247, "ref_id": 27024872, "rating": 0, "num_reviews": 0, "website": "http://www.berwickdawgs.com/page/show/360007-crispin-field", "contact_phone": "", "contact_email": null, "status": 1, "source_type": 1}, {"name": "Island Park-Blossburg,PA", "type": "attraction", "image": null, "address": "Water St, Blossburg, PA 16912", "lat": 41.675587, "lng": -77.06748, "ref_id": 27025141, "rating": 0, "num_reviews": 0, "website": "http://www.blossburg.org/whattodo/island-park", "contact_phone": "+1 570-638-2452", "contact_email": null, "status": 1, "source_type": 1}, {"name": "Ross Dress for Less", "type": "attraction", "image": null, "address": "4711 Perkiomen Ave, Reading, PA 19606-9057", "lat": 40.307495, "lng": -75.85712, "ref_id": 27035098, "rating": 0, "num_reviews": 0, "website": "http://www.rossstores.com/", "contact_phone": "+1 610-370-3009", "contact_email": null, "status": 1, "source_type": 1}, {"name": "Jefferson Park", "type": "attraction", "image": null, "address": "5 Solly Ln, Bernville, PA 19506-9656", "lat": 40.437847, "lng": -76.119965, "ref_id": 27034864, "rating": 0, "num_reviews": 0, "website": "http://encyclopedia.chicagohistory.org/pages/667.html", "contact_phone": "", "contact_email": null, "status": 1, "source_type": 1}, {"name": "Plains Township Park", "type": "attraction", "image": null, "address": "103 Amesbury St, Plains, PA 18705-1103", "lat": 41.2733, "lng": -75.8539, "ref_id": 27035369, "rating": 0, "num_reviews": 0, "website": "https://www.facebook.com/133469747281083", "contact_phone": "", "contact_email": null, "status": 1, "source_type": 1}, {"name": "Endless Brewing", "type": "attraction", "image": null, "address": "20610 State Route 29, Montrose, PA 18801-7001", "lat": 41.916794, "lng": -75.84692, "ref_id": 27035696, "rating": 0, "num_reviews": 0, "website": "https://www.facebook.com/238527039560668", "contact_phone": "+1 570-967-0985", "contact_email": null, "status": 1, "source_type": 1}, {"name": "Antler Ridge Winery Mertztown", "type": "attraction", "image": null, "address": "951 State St, Mertztown, PA 19539-9157", "lat": 40.5059, "lng": -75.66737, "ref_id": 27025725, "rating": 0, "num_reviews": 0, "website": "http://www.antlerridgewinery.com/", "contact_phone": "+1 610-899-0165", "contact_email": null, "status": 1, "source_type": 1}, {"name": "Hickory Park", "type": "attraction", "image": null, "address": "351 Park Rd, Downingtown, PA 19335-1820", "lat": 40.07392, "lng": -75.69712, "ref_id": 27036366, "rating": 0, "num_reviews": 0, "website": "http://www.upperuwchlan-pa.gov/facilities.aspx?search=1&cid=2&rid=1&page=detail", "contact_phone": "+1 610-458-5926", "contact_email": null, "status": 1, "source_type": 1}, {"name": "Hand and Stone Massage and Facial Spa", "type": "attraction", "image": null, "address": "3200 Chestnut St, Philadelphia, PA 19104-3394", "lat": 39.953465, "lng": -75.18884, "ref_id": 27034964, "rating": 0, "num_reviews": 0, "website": "https://www.handandstoneuniversitycity.com/", "contact_phone": "+1 215-259-7533", "contact_email": null, "status": 1, "source_type": 1}, {"name": "Lenni Lenape Park", "type": "attraction", "image": null, "address": "723 Narrows Dr, Lebanon, PA 17046-9204", "lat": 40.364803, "lng": -76.382866, "ref_id": 27027041, "rating": 0, "num_reviews": 0, "website": "https://www.discgolfscene.com/courses/lenni_lenape_park", "contact_phone": "+1 717-273-7132", "contact_email": null, "status": 1, "source_type": 1}, {"name": "Wirt Park", "type": "attraction", "image": null, "address": "201 N Franklin St, Hanover, PA 17331-2442", "lat": 39.801105, "lng": -76.98747, "ref_id": 27037999, "rating": 0, "num_reviews": 0, "website": "https://www.facebook.com/105644406159942", "contact_phone": "+1 717-637-6671", "contact_email": null, "status": 1, "source_type": 1}, {"name": "Bethlehem Skateplaza", "type": "attraction", "image": null, "address": "1299 Steel Ave, Bethlehem, PA 18015", "lat": 40.612408, "lng": -75.35562, "ref_id": 27031375, "rating": 0, "num_reviews": 0, "website": "https://www.bethlehem-pa.gov/parks/skateplaza.html", "contact_phone": "+1 610-865-7061", "contact_email": null, "status": 1, "source_type": 1}, {"name": "Zen spa pedicure salon", "type": "attraction", "image": null, "address": "803 E Main St, Annville, PA 17003-1605", "lat": 40.332516, "lng": -76.500336, "ref_id": 27040351, "rating": 0, "num_reviews": 0, "website": "https://www.facebook.com/1054216397965221", "contact_phone": "+1 717-454-1747", "contact_email": null, "status": 1, "source_type": 1}, {"name": "James and Jess' House of Goods", "type": "attraction", "image": "https://dynamic-media-cdn.tripadvisor.com/media/photo-o/14/f5/24/c7/james-and-jess-house.jpg?w=1000&s=1", "address": "37 W Main St, Waynesboro, PA 17268-1555", "lat": 39.7566, "lng": -77.57925, "ref_id": 13533625, "rating": 5, "num_reviews": 0, "website": "http://www.jamesandjesshouseofgoods.com/", "contact_phone": "+1 240-543-8259", "contact_email": "info@jamesandjesshouseofgoods.com", "status": 1, "source_type": 1, "numberReviews": "1"}, {"name": "United Club", "type": "attraction", "image": "https://dynamic-media-cdn.tripadvisor.com/media/photo-o/0c/bc/48/9d/photo1jpg.jpg?w=1000&s=1", "address": "8000 Essington Ave Between Concourses C and D, Philadelphia, PA 19153-7064", "lat": 39.874577, "lng": -75.25198, "ref_id": 10493252, "rating": 3.5, "num_reviews": 0, "website": "http://www.united.com/web/en-US/content/travel/airport/lounge/locations/default.aspx", "contact_phone": null, "contact_email": null, "status": 1, "source_type": 1, "numberReviews": "4"}, {"name": "Curio Theatre Company", "type": "attraction", "image": null, "address": "4740 Baltimore Ave, Philadelphia, PA 19143-3503", "lat": 39.94817, "lng": -75.21851, "ref_id": 2372984, "rating": 4.5, "num_reviews": 0, "website": "http://curiotheatre.org/", "contact_phone": "+1 215-525-1350", "contact_email": "Company@curiotheatre.org", "status": 1, "source_type": 1, "numberReviews": "2"}, {"name": "The Presbyterian Historical Society", "type": "attraction", "image": "https://dynamic-media-cdn.tripadvisor.com/media/photo-o/06/e6/24/b2/three-statues-by-alexander.jpg?w=1000&s=1", "address": "425 Lombard St, Philadelphia, PA 19147-1516", "lat": 39.94272, "lng": -75.14937, "ref_id": 7224833, "rating": 4.5, "num_reviews": 0, "website": "http://www.history.pcusa.org/plan-your-visit", "contact_phone": "+1 215-627-1852", "contact_email": "refdesk@history.pcusa.org", "status": 1, "source_type": 1, "numberReviews": "3"}, {"name": "Tumi", "type": "attraction", "image": null, "address": "8000 Essington Ave Terminal B/C, Concourse B/C, Philadelphia, PA 19153-7064", "lat": 39.876083, "lng": -75.24223, "ref_id": 10492977, "rating": 4.5, "num_reviews": 0, "website": "http://www.tumi.com/", "contact_phone": "+1 215-863-2212", "contact_email": null, "status": 1, "source_type": 1, "numberReviews": "2"}, {"name": "Horwitz-Wasserman Holocaust Memorial Plaza", "type": "attraction", "image": "https://dynamic-media-cdn.tripadvisor.com/media/photo-o/17/fc/b1/22/the-horwitz-wasserman.jpg?w=1000&s=1", "address": "16th and Arch St on the Benjamin Franklin Parkway, Philadelphia, PA 19102", "lat": 39.95619, "lng": -75.1682, "ref_id": 17407897, "rating": 4.5, "num_reviews": 0, "website": "http://www.philaholocaustmemorial.org/", "contact_phone": "+1 215-809-2474", "contact_email": "ekutas@philaholocaustmemorial.org", "status": 1, "source_type": 1, "numberReviews": "3"}, {"name": "Afaze", "type": "attraction", "image": null, "address": "8000 Essington Ave Terminal B, Gate B2, Philadelphia, PA 19153-7064", "lat": 39.87565, "lng": -75.24409, "ref_id": 10492848, "rating": 5, "num_reviews": 0, "website": "http://www.facebook.com/ShopAfaze/", "contact_phone": "+1 215-492-9430", "contact_email": null, "status": 1, "source_type": 1, "numberReviews": "1"}, {"name": "Lest We Forget Museum of Slavery", "type": "attraction", "image": "https://dynamic-media-cdn.tripadvisor.com/media/photo-o/1d/58/74/c5/street-view.jpg?w=1000&s=1", "address": "5501 Germantown Ave Entrance on Church Lane, Philadelphia, PA 19144", "lat": 39.98882, "lng": -75.09101, "ref_id": 3601878, "rating": 4.5, "num_reviews": 0, "website": "http://lwfsm.com/", "contact_phone": "+1 215-205-4324", "contact_email": "info@lwfsm.com", "status": 1, "source_type": 1, "numberReviews": "5"}, {"name": "Niederkorn Silver", "type": "attraction", "image": "https://dynamic-media-cdn.tripadvisor.com/media/photo-o/13/c6/0b/00/getlstd-property-photo.jpg?w=1000&s=1", "address": "244 S 22nd St, Philadelphia, PA 19103-5533", "lat": 39.94917, "lng": -75.17796, "ref_id": 14924340, "rating": 5, "num_reviews": 0, "website": "http://niederkornsilver.com", "contact_phone": "+1 215-567-2606", "contact_email": "niederkornsilver@aol.com", "status": 1, "source_type": 1, "numberReviews": "1"}, {"name": "Brookstone", "type": "attraction", "image": null, "address": "8000 Essington Ave Terminal A - Gate A17, Philadelphia, PA 19153-7064", "lat": 39.874546, "lng": -75.25129, "ref_id": 10484585, "rating": 4.5, "num_reviews": 0, "website": "http://www.brookstone.com/", "contact_phone": "+1 217-365-8017", "contact_email": null, "status": 1, "source_type": 1, "numberReviews": "2"}, {"name": "Pandora", "type": "attraction", "image": "https://dynamic-media-cdn.tripadvisor.com/media/photo-o/12/25/7a/dd/pandora-philadelphia.jpg?w=1000&s=1", "address": "8000 Essington Ave Terminal B/C, Concourse B/C, Philadelphia, PA 19153-7064", "lat": 39.875763, "lng": -75.2435, "ref_id": 10492711, "rating": 4, "num_reviews": 0, "website": "http://www.pandora.net/en-us", "contact_phone": "+1 215-510-4232", "contact_email": null, "status": 1, "source_type": 1, "numberReviews": "2"}, {"name": "Philadelphia Shakespeare Theatre", "type": "attraction", "image": null, "address": "2111 Sansom St, Philadelphia, PA 19103-4406", "lat": 39.95166, "lng": -75.17624, "ref_id": 3813192, "rating": 5, "num_reviews": 0, "website": "http://phillyshakespeare.org/", "contact_phone": "+1 215-496-9722", "contact_email": null, "status": 1, "source_type": 1, "numberReviews": "5"}, {"name": "Doughboys WW1 Memorial", "type": "attraction", "image": "https://dynamic-media-cdn.tripadvisor.com/media/photo-o/0d/32/82/8d/memorial.jpg?w=1000&s=1", "address": "Spring Garden Road Junction Spring Garden Street/ N 2nd Street 1 minute walk from Spring Garden subway, Philadelphia, PA", "lat": 39.960323, "lng": -75.13748, "ref_id": 11616003, "rating": 4, "num_reviews": 0, "website": null, "contact_phone": null, "contact_email": null, "status": 1, "source_type": 1, "numberReviews": "1"}, {"name": "Lids / Lids Kids", "type": "attraction", "image": "https://dynamic-media-cdn.tripadvisor.com/media/photo-o/12/24/dd/9c/lids-lids-kids-philadelphia.jpg?w=1000&s=1", "address": "8000 Essington Ave Terminal D/E - D/E Connector, Philadelphia, PA 19153-7064", "lat": 39.877804, "lng": -75.23955, "ref_id": 10485137, "rating": 4, "num_reviews": 0, "website": "http://www.lids.com/", "contact_phone": "+1 215-937-1580", "contact_email": null, "status": 1, "source_type": 1, "numberReviews": "2"}, {"name": "InterAct Theatre Company", "type": "attraction", "image": "https://dynamic-media-cdn.tripadvisor.com/media/photo-o/12/1a/da/29/stage.jpg?w=1000&s=1", "address": "2030 Sansom St The Drake, Philadelphia, PA 19103-4527", "lat": 39.951275, "lng": -75.17458, "ref_id": 605250, "rating": 4.5, "num_reviews": 0, "website": "http://www.interacttheatre.org/", "contact_phone": "+1 215-568-8077", "contact_email": "InterAct@InterActTheatre.org", "status": 1, "source_type": 1, "numberReviews": "7"}, {"name": "The Bethany Mission Gallery", "type": "attraction", "image": "https://dynamic-media-cdn.tripadvisor.com/media/photo-o/10/bc/32/10/bethany-mission-gallery.jpg?w=1000&s=1", "address": "1527 Brandywine St, Philadelphia, PA 19130-4002", "lat": 39.96354, "lng": -75.16333, "ref_id": 12905867, "rating": 4, "num_reviews": 0, "website": "http://www.bethanymissiongallery.org/", "contact_phone": null, "contact_email": null, "status": 1, "source_type": 1, "numberReviews": "1"}, {"name": "Kiehl's", "type": "attraction", "image": "https://dynamic-media-cdn.tripadvisor.com/media/photo-o/12/25/e3/3c/kiehl-s-philadelphia.jpg?w=1000&s=1", "address": "8000 Essington Ave Terminal F - Gate F6, Philadelphia, PA 19153-7064", "lat": 39.880547, "lng": -75.237816, "ref_id": 10484927, "rating": 4, "num_reviews": 0, "website": "http://www.kiehls.com/", "contact_phone": "+1 215-365-3947", "contact_email": null, "status": 1, "source_type": 1, "numberReviews": "2"}, {"name": "Memorial Hall", "type": "attraction", "image": null, "address": "42nd and Parkside Streets, Philadelphia, PA 19131", "lat": 39.97624, "lng": -75.20934, "ref_id": 275283, "rating": 4, "num_reviews": 0, "website": null, "contact_phone": "+1 215-334-3472", "contact_email": "", "status": 1, "source_type": 1, "numberReviews": "3"}, {"name": "Old Academy Players", "type": "attraction", "image": null, "address": "3540-44 Indian Queen Lane, Philadelphia, PA 19129-1523", "lat": 40.00975, "lng": -75.18949, "ref_id": 13846934, "rating": 5, "num_reviews": 0, "website": "http://oldacademyplayers.org/", "contact_phone": "+1 215-843-1109", "contact_email": null, "status": 1, "source_type": 1, "numberReviews": "1"}, {"name": "Lithuanian Music Hall Association", "type": "attraction", "image": null, "address": "2715 E Allegheny Ave, Philadelphia, PA 19134-5914", "lat": 39.98393, "lng": -75.10189, "ref_id": 17118430, "rating": 5, "num_reviews": 0, "website": "http://lithuanianmha.org", "contact_phone": "+1 215-739-4831", "contact_email": null, "status": 1, "source_type": 1, "numberReviews": "1"}, {"name": "Reading Viaduct Park", "type": "attraction", "image": "https://dynamic-media-cdn.tripadvisor.com/media/photo-o/13/7f/35/a8/view-from-the-park.jpg?w=1000&s=1", "address": "1300 Noble St Callowhill St, Philadelphia, PA 19123", "lat": 39.95918, "lng": -75.16002, "ref_id": 14377206, "rating": 4, "num_reviews": 0, "website": "http://therailpark.org/the-park/", "contact_phone": null, "contact_email": "friends@therailpark.org", "status": 1, "source_type": 1, "numberReviews": "2"}, {"name": "Lids", "type": "attraction", "image": null, "address": "8000 Essington Ave Terminal B/C - Concourse B/C, Philadelphia, PA 19153-7064", "lat": 39.876034, "lng": -75.24254, "ref_id": 10485130, "rating": 3.5, "num_reviews": 0, "website": "http://www.lids.com/", "contact_phone": "+1 215-937-0652", "contact_email": null, "status": 1, "source_type": 1, "numberReviews": "3"}, {"name": "Philadelphia Clef Club of Jazz & Performing Arts", "type": "attraction", "image": null, "address": "736 S Broad St # 738, Philadelphia, PA 19146-2203", "lat": 39.94185, "lng": -75.16615, "ref_id": 605333, "rating": 5, "num_reviews": 0, "website": "http://www.clefclub.org/", "contact_phone": "+1 215-893-9912", "contact_email": "clefclub@clefclub.org", "status": 1, "source_type": 1, "numberReviews": "1"}, {"name": "The Chapel Of Four Chaplains", "type": "attraction", "image": "https://dynamic-media-cdn.tripadvisor.com/media/photo-o/2c/37/b8/34/chapel-of-four-chaplains.jpg?w=1000&s=1", "address": "1201 Constitution Ave, Philadelphia, PA 19112-1307", "lat": 39.89169, "lng": -75.17195, "ref_id": 10200958, "rating": 5, "num_reviews": 0, "website": "http://www.fourchaplains.org", "contact_phone": "+1 215-218-1943", "contact_email": null, "status": 1, "source_type": 1, "numberReviews": "2"}, {"name": "Brewery Ars", "type": "attraction", "image": null, "address": "1927-29 W Passyunk Ave, Philadelphia, PA 19145-3620", "lat": 39.92396, "lng": -75.17887, "ref_id": 12830903, "rating": 4.5, "num_reviews": 0, "website": "http://www.breweryars.com", "contact_phone": "+1 215-960-5173", "contact_email": "breweryars@gmail.com", "status": 1, "source_type": 1, "numberReviews": "2"}, {"name": "Association of Islamic Charitable Projects", "type": "attraction", "image": null, "address": "4431 Walnut St, Philadelphia, PA 19104-2924", "lat": 39.9553, "lng": -75.21102, "ref_id": 559034, "rating": 5, "num_reviews": 0, "website": null, "contact_phone": "+1 215-387-3814", "contact_email": "", "status": 1, "source_type": 1, "numberReviews": "4"}, {"name": "Deshler-Morris House", "type": "attraction", "image": "https://dynamic-media-cdn.tripadvisor.com/media/photo-o/1b/43/90/8b/deshler-morris-house.jpg?w=1000&s=1", "address": "5442 Germantown Ave, Philadelphia, PA 19144-2224", "lat": 40.0336, "lng": -75.17241, "ref_id": 312464, "rating": 4, "num_reviews": 0, "website": "http://www.nps.gov/inde/planyourvisit/germantownwhitehouse.htm", "contact_phone": "+1 215-596-1748", "contact_email": "", "status": 1, "source_type": 1, "numberReviews": "8"}, {"name": "La Salle University Art Museum", "type": "attraction", "image": null, "address": "1900 W Olney Ave Basement of Olney Hall, Philadelphia, PA 19141-1108", "lat": 40.039173, "lng": -75.15299, "ref_id": 9743807, "rating": 3.5, "num_reviews": 0, "website": "http://www.lasalle.edu/museum/", "contact_phone": "+1 215-951-1221", "contact_email": null, "status": 1, "source_type": 1, "numberReviews": "3"}, {"name": "Congregation Rodeph Shalom", "type": "attraction", "image": null, "address": "615 N Broad St, Philadelphia, PA 19123-2495", "lat": 39.96377, "lng": -75.16097, "ref_id": 559043, "rating": 5, "num_reviews": 0, "website": "http://rodephshalom.org", "contact_phone": "+1 215-627-6747", "contact_email": "rabwik@aol.com", "status": 1, "source_type": 1, "numberReviews": "2"}, {"name": "Grumman Greenhouse", "type": "attraction", "image": "https://dynamic-media-cdn.tripadvisor.com/media/photo-o/0e/8c/c2/19/grumman-greenhouse.jpg?w=1000&s=1", "address": "Cherry Street Lenfest Plaza, Philadelphia, PA 19102", "lat": 39.95554, "lng": -75.16457, "ref_id": 12189793, "rating": 3, "num_reviews": 0, "website": null, "contact_phone": "+1 215-972-7600", "contact_email": null, "status": 1, "source_type": 1, "numberReviews": "2"}, {"name": "Mahoning Valley Cinema", "type": "attraction", "image": null, "address": "1241 Blakeslee Boulevard Dr E Carbon Plaza Mall, Route 443, Lehighton, PA 18235-2401", "lat": 40.81416, "lng": -75.73224, "ref_id": 13195373, "rating": 3.5, "num_reviews": 0, "website": "http://www.mvcinema.com/", "contact_phone": "+1 570-386-4406", "contact_email": "mvcinema@yahoo.com", "status": 1, "source_type": 1, "numberReviews": "5"}, {"name": "Safari Spa & Wellness Center", "type": "attraction", "image": null, "address": "544 Route 6&209, Milford, PA 18337", "lat": 41.279327, "lng": -74.877014, "ref_id": 645016, "rating": 5, "num_reviews": 0, "website": null, "contact_phone": "+1 570-296-6488", "contact_email": "", "status": 1, "source_type": 1, "numberReviews": "1"}, {"name": "Vintage Aero Sports", "type": "attraction", "image": null, "address": "516 Cafferty Rd, Erwinna, PA 18920-9252", "lat": 40.48111, "lng": -75.10539, "ref_id": 2522701, "rating": 4, "num_reviews": 0, "website": "http://vansantairport.com/", "contact_phone": "+1 610-847-8444", "contact_email": "hahola@enter.net", "status": 1, "source_type": 1, "numberReviews": "1"}, {"name": "Rabes Trading Post", "type": "attraction", "image": "https://dynamic-media-cdn.tripadvisor.com/media/photo-o/17/dd/ed/77/store-front.jpg?w=1000&s=1", "address": "210 4th St, Monongahela, PA 15063-2502", "lat": 40.20295, "lng": -79.92681, "ref_id": 17560688, "rating": 4, "num_reviews": 0, "website": "http://www.rabestradingpost.com/", "contact_phone": "+1 724-258-6705", "contact_email": "rabestradingpost@gmail.com", "status": 1, "source_type": 1, "numberReviews": "4"}, {"name": "Hickory Hearth Highlands", "type": "attraction", "image": "https://dynamic-media-cdn.tripadvisor.com/media/photo-o/24/7a/13/dc/the-cows-behind-hickory.jpg?w=1000&s=1", "address": "460 Ridge Road Mcdonald Pa, Pittsburgh, PA 15057-3026", "lat": 40.3084, "lng": -80.31737, "ref_id": 24153840, "rating": 3, "num_reviews": 0, "website": "http://hickoryhearthhighlands.godaddysites.com/", "contact_phone": "+1 724-579-6950", "contact_email": "hickoryhhighlands@gmail.com", "status": 1, "source_type": 1, "numberReviews": "2"}, {"name": "Mountain Trail Horse Center: Canyon Wagon Rides", "type": "attraction", "image": null, "address": "Ansonia, PA", "lat": null, "lng": null, "ref_id": 2346341, "rating": 4, "num_reviews": 0, "website": "http://www.mountaintrailhorse.com/locations", "contact_phone": "+1 570-723-1643", "contact_email": "", "status": 1, "source_type": 1, "numberReviews": "1"}, {"name": "Leather Corner Post", "type": "attraction", "image": "https://dynamic-media-cdn.tripadvisor.com/media/photo-o/19/2b/46/84/20190908-115834-largejpg.jpg?w=1000&s=1", "address": "6855 Horseshoe Rd, Orefield, PA 18069-2802", "lat": 40.62117, "lng": -75.63882, "ref_id": 5841525, "rating": 3.5, "num_reviews": 0, "website": "http://www.theleathercornerpost.com", "contact_phone": "+1 610-395-1782", "contact_email": null, "status": 1, "source_type": 1, "numberReviews": "3"}, {"name": "Scary Harry's Haunted Trails", "type": "attraction", "image": null, "address": "1703 Pierce Rd, Homer City, PA 15748", "lat": 40.535603, "lng": -79.225136, "ref_id": 12231169, "rating": 3, "num_reviews": 0, "website": "http://Www.scaryharrys.com", "contact_phone": "+1 724-427-6703", "contact_email": "Scaryharrys@gmail.com", "status": 1, "source_type": 1, "numberReviews": "3"}, {"name": "Lykens Valley Golf Course", "type": "attraction", "image": "https://dynamic-media-cdn.tripadvisor.com/media/photo-o/0f/70/a0/77/hole-10.jpg?w=1000&s=1", "address": "1724 State Route 25, Millersburg, PA 17061-8120", "lat": 40.57133, "lng": -76.90595, "ref_id": 10766220, "rating": 3.5, "num_reviews": 0, "website": "http://lykensvalley.com", "contact_phone": "+1 717-692-3664", "contact_email": "golf@lykensvalley.com", "status": 1, "source_type": 1, "numberReviews": "3"}, {"name": "Overlook Golf Course", "type": "attraction", "image": null, "address": "2040 Lititz Pike, Lancaster, PA 17601-3898", "lat": 40.082275, "lng": -76.308304, "ref_id": 12659840, "rating": 3.5, "num_reviews": 0, "website": "https://www.overlookgolfcourse.com", "contact_phone": "+1 717-569-9551", "contact_email": null, "status": 1, "source_type": 1, "numberReviews": "4"}, {"name": "Toby Lerner", "type": "attraction", "image": null, "address": "117 S 17th St, Philadelphia, PA 19103-5025", "lat": 39.95086, "lng": -75.16884, "ref_id": 553434, "rating": 5, "num_reviews": 0, "website": null, "contact_phone": "+1 215-568-5760", "contact_email": "", "status": 1, "source_type": 1, "numberReviews": "1"}, {"name": "JD's Cocktail Lounge", "type": "attraction", "image": "https://dynamic-media-cdn.tripadvisor.com/media/photo-o/07/d3/52/08/caption.jpg?w=1000&s=1", "address": "180 Gamma Dr Comfort Inn & Suites Pittsburgh Allegheny Valley, Pittsburgh, PA 15238-2931", "lat": 40.50192, "lng": -79.86015, "ref_id": 3747078, "rating": 3, "num_reviews": 0, "website": null, "contact_phone": null, "contact_email": null, "status": 1, "source_type": 1, "numberReviews": "2"}, {"name": "Allegheny Flying Club", "type": "attraction", "image": null, "address": "Allegheny County Airport Suite 9, West Mifflin, PA 15216", "lat": 40.35049, "lng": -79.92587, "ref_id": 507676, "rating": 5, "num_reviews": 0, "website": null, "contact_phone": "", "contact_email": "", "status": 1, "source_type": 1, "numberReviews": "1"}, {"name": "Warmsprings Salon & Spa", "type": "attraction", "image": "https://dynamic-media-cdn.tripadvisor.com/media/photo-o/08/64/72/5f/the-waiting-room.jpg?w=1000&s=1", "address": "59 St. Paul Dr., Chambersburg, PA 17201", "lat": 39.94114, "lng": -77.64017, "ref_id": 7622708, "rating": 4, "num_reviews": 0, "website": "http://warmspringsdayspa.com/index.html", "contact_phone": "+1 717-263-0111", "contact_email": null, "status": 1, "source_type": 1, "numberReviews": "14"}, {"name": "Rich's Golf and Fun Center", "type": "attraction", "image": null, "address": "905 Wyoming Ave, Wyoming, PA 18644-1360", "lat": 41.30148, "lng": -75.85294, "ref_id": 4324189, "rating": 3, "num_reviews": 0, "website": "http://www.richsgolfandfuncenter.com/", "contact_phone": "+1 570-693-1608", "contact_email": null, "status": 1, "source_type": 1, "numberReviews": "12"}, {"name": "3 Lakes Golf Course", "type": "attraction", "image": "https://dynamic-media-cdn.tripadvisor.com/media/photo-o/10/07/57/ac/18th-hole-tee-box.jpg?w=1000&s=1", "address": "6700 Saltsburg Rd, Penn Hills, PA 15235-2130", "lat": 40.47785, "lng": -79.80505, "ref_id": 5237129, "rating": 3, "num_reviews": 0, "website": "http://www.3lakesgolf.com", "contact_phone": "+1 412-793-7111", "contact_email": null, "status": 1, "source_type": 1, "numberReviews": "5"}, {"name": "Fairways Golf Club", "type": "attraction", "image": "https://dynamic-media-cdn.tripadvisor.com/media/photo-o/0e/9d/af/58/fairways-among-the-houses.jpg?w=1000&s=1", "address": "750 Country Club Ln, Warrington, PA 18976-2049", "lat": 40.24092, "lng": -75.15026, "ref_id": 10232635, "rating": 3.5, "num_reviews": 0, "website": "http://www.fairwaysgolfclub.com", "contact_phone": "+1 215-343-9979", "contact_email": null, "status": 1, "source_type": 1, "numberReviews": "4"}, {"name": "The Borough Pub", "type": "attraction", "image": null, "address": "1800 Farragut Ave, Bristol, PA 19007-5606", "lat": 40.10715, "lng": -74.84213, "ref_id": 5846281, "rating": 3, "num_reviews": 0, "website": "http://www.theboroughpub.com", "contact_phone": "+1 215-788-9955", "contact_email": "theboroughpubpa@gmail.com", "status": 1, "source_type": 1, "numberReviews": "3"}, {"name": "360", "type": "attraction", "image": "https://dynamic-media-cdn.tripadvisor.com/media/photo-o/03/54/b3/d1/club-360.jpg?w=1000&s=1", "address": "2999 Street Rd, Bensalem, PA 19020-2060", "lat": 40.11363, "lng": -74.95621, "ref_id": 3469420, "rating": 3, "num_reviews": 0, "website": "http://www.parxcasino.com/360", "contact_phone": "+1 888-588-7279", "contact_email": "comments@parxcasino.com", "status": 1, "source_type": 1, "numberReviews": "2"}, {"name": "J&P Winery", "type": "attraction", "image": "https://dynamic-media-cdn.tripadvisor.com/media/photo-o/1c/a3/c2/35/photo0jpg.jpg?w=1000&s=1", "address": "48 Baltimore St, Gettysburg, PA 17325-2305", "lat": 39.82984, "lng": -77.23094, "ref_id": 19269066, "rating": 3, "num_reviews": 0, "website": "http://www.jpwinery.net", "contact_phone": "+1 717-549-2513", "contact_email": null, "status": 1, "source_type": 1, "numberReviews": "8"}, {"name": "Shooting For The Moon", "type": "attraction", "image": null, "address": "3200 Hamilton E. Stroudsburg, PA, East Stroudsburg, PA 18360", "lat": 40.95204, "lng": -75.32869, "ref_id": 10793363, "rating": 3, "num_reviews": 0, "website": "http://www.shootingforthemoon.com/home.html", "contact_phone": "+1 570-992-0943", "contact_email": null, "status": 1, "source_type": 1, "numberReviews": "2"}, {"name": "Amc Classic Williamsport 11", "type": "attraction", "image": "https://dynamic-media-cdn.tripadvisor.com/media/photo-o/14/f8/c2/3b/inside-the-movies.jpg?w=1000&s=1", "address": "300 W 4th St, Williamsport, PA 17701-6402", "lat": 41.240456, "lng": -77.00734, "ref_id": 15121826, "rating": 3, "num_reviews": 0, "website": "https://www.amctheatres.com/movie-theatres/wilkes-barre-pa/amc-classic-williamsport-11", "contact_phone": null, "contact_email": null, "status": 1, "source_type": 1, "numberReviews": "2"}, {"name": "Olde Indian Valley Inn", "type": "attraction", "image": null, "address": "101 E Broad St, Souderton, PA 18964-1210", "lat": 40.30975, "lng": -75.3206, "ref_id": 5841971, "rating": 3, "num_reviews": 0, "website": null, "contact_phone": "+1 215-723-6208", "contact_email": null, "status": 1, "source_type": 1, "numberReviews": "2"}, {"name": "River Forest Country Club", "type": "attraction", "image": "https://dynamic-media-cdn.tripadvisor.com/media/photo-o/1a/45/ef/43/amazing-views-from-the.jpg?w=1000&s=1", "address": "130 Club House Dr, Freeport, PA 16229-2308", "lat": 40.65701, "lng": -79.68832, "ref_id": 13482078, "rating": 3, "num_reviews": 0, "website": "http://www.riverforestgolf.com", "contact_phone": "+1 724-295-2217", "contact_email": null, "status": 1, "source_type": 1, "numberReviews": "10"}, {"name": "AROMA SPA HOUSE", "type": "attraction", "image": "https://dynamic-media-cdn.tripadvisor.com/media/photo-o/20/11/6e/61/aroma-spa-house-body.jpg?w=1000&s=1", "address": "1713 Cochecton Turnpike, Damascus, PA 18415-3001", "lat": 41.699993, "lng": -75.07642, "ref_id": 23579388, "rating": 3, "num_reviews": 0, "website": null, "contact_phone": "+1 570-234-8287", "contact_email": null, "status": 1, "source_type": 1, "numberReviews": "2"}, {"name": "Famous Smoke Shop", "type": "attraction", "image": "https://dynamic-media-cdn.tripadvisor.com/media/photo-o/19/a1/3c/04/caption.jpg?w=1000&s=1", "address": "90 Mort Dr, Easton, PA 18040-9202", "lat": 40.74048, "lng": -75.22334, "ref_id": 19185515, "rating": 3, "num_reviews": 0, "website": "https://www.famous-smoke.com/", "contact_phone": "+1 800-564-2486", "contact_email": "cigars@famous-smoke.com", "status": 1, "source_type": 1, "numberReviews": "7"}, {"name": "Mountainhome Candle", "type": "attraction", "image": "https://dynamic-media-cdn.tripadvisor.com/media/photo-o/0e/85/17/d4/getlstd-property-photo.jpg?w=1000&s=1", "address": "1131 Rt. 390, Cresco, Barrett Township, PA 18326-7905", "lat": 41.180233, "lng": -75.26922, "ref_id": 12190096, "rating": 3, "num_reviews": 0, "website": "http://www.mountainhomecandles.com", "contact_phone": "+1 570-595-3014", "contact_email": "mountainhomecandle@gmail.com", "status": 1, "source_type": 1, "numberReviews": "2"}, {"name": "Pajama Factory", "type": "attraction", "image": "https://dynamic-media-cdn.tripadvisor.com/media/photo-o/1c/36/4c/9c/events-are-always-happening.jpg?w=1000&s=1", "address": "1307 Park Ave, Williamsport, PA 17701-4590", "lat": 41.24232, "lng": -77.032936, "ref_id": 21327951, "rating": 3, "num_reviews": 0, "website": "http://pajamafactory.net", "contact_phone": "+1 570-323-7650", "contact_email": "info@pajamafactory.net", "status": 1, "source_type": 1, "numberReviews": "2"}, {"name": "Citywalksz Ltd", "type": "attraction", "image": "https://dynamic-media-cdn.tripadvisor.com/media/photo-o/1b/81/69/c7/caption.jpg?w=1000&s=1", "address": "55 Coote Road Bluff Hill, Philadelphia, PA 4010", "lat": 40.000347, "lng": -75.763664, "ref_id": 21082918, "rating": 3, "num_reviews": 0, "website": "tours.audio", "contact_phone": "+6468800401", "contact_email": "marion@citywalksz.com", "status": 1, "source_type": 1, "numberReviews": "2"}, {"name": "Stonehaus Meadery", "type": "attraction", "image": null, "address": "762 Main St, Stroudsburg, PA 18360", "lat": 40.985283, "lng": -75.1959, "ref_id": 26533712, "rating": 5, "num_reviews": 0, "website": "https://www.stonehausmeadery.com/", "contact_phone": "+1 570-234-3600", "contact_email": null, "status": 1, "source_type": 1, "numberReviews": "1"}, {"name": "T.J. Maxx & HomeGoods", "type": "attraction", "image": null, "address": "320 Town Centre Dr, Johnstown, PA 15904-2848", "lat": 40.275574, "lng": -78.843254, "ref_id": 27046557, "rating": 0, "num_reviews": 0, "website": "https://www.facebook.com/197058994081741", "contact_phone": "+1 814-266-0310", "contact_email": null, "status": 1, "source_type": 1}, {"name": "Sweet Willow Spa", "type": "attraction", "image": null, "address": "2819 Willow Street Pike, Willow Street, PA 17584-9495", "lat": 39.9776, "lng": -76.27536, "ref_id": 27051589, "rating": 0, "num_reviews": 0, "website": "https://www.facebook.com/330065964064723", "contact_phone": "+1 717-826-9549", "contact_email": null, "status": 1, "source_type": 1}, {"name": "Divine Relaxation", "type": "attraction", "image": null, "address": "190 Arsenal Rd, York, PA 17404-1842", "lat": 39.983486, "lng": -76.73268, "ref_id": 27052212, "rating": 0, "num_reviews": 0, "website": "https://www.facebook.com/132577790122641", "contact_phone": "+1 717-873-0716", "contact_email": null, "status": 1, "source_type": 1}, {"name": "Nordstrom Rack", "type": "attraction", "image": null, "address": "1585 Fruitville Pike, Lancaster, PA 17601-4005", "lat": 40.06664, "lng": -76.311516, "ref_id": 27043620, "rating": 0, "num_reviews": 0, "website": "https://stores.nordstromrack.com/us/pa/lancaster/1585-fruitville-pike?utm_source=facebook&utm_medium=organic&utm_campaign=rack&utm_content=652&utm_channel=low_nd_seo_local&sp_source=facebook&sp_campaign=rack", "contact_phone": "+1 717-666-6420", "contact_email": null, "status": 1, "source_type": 1}, {"name": "Woolrich Community Park", "type": "attraction", "image": null, "address": "62 Ballfield Ln, Lock Haven, PA 17745", "lat": 41.190765, "lng": -77.37321, "ref_id": 27043298, "rating": 0, "num_reviews": 0, "website": "https://www.facebook.com/418127812012321", "contact_phone": "", "contact_email": null, "status": 1, "source_type": 1}, {"name": "Deep Transformation Therapeutic Massage", "type": "attraction", "image": null, "address": "313 W Liberty St Suite 108, Lancaster, PA 17603-2798", "lat": 40.0521, "lng": -76.31416, "ref_id": 25253113, "rating": 0, "num_reviews": 0, "website": "www.deeptransformationmassage.com", "contact_phone": "+1 717-799-2231", "contact_email": "ben@deeptransformationmassage.com", "status": 1, "source_type": 1}, {"name": "Jim Thorpe Olive Oil Company", "type": "attraction", "image": null, "address": "91 Broadway, Jim Thorpe, PA 18229", "lat": 40.87387, "lng": -75.73382, "ref_id": 26353768, "rating": 0, "num_reviews": 0, "website": null, "contact_phone": "+1 610-909-1306", "contact_email": null, "status": 1, "source_type": 1}, {"name": "Butler Country Club", "type": "attraction", "image": null, "address": "310 Country Club Rd, Butler, PA 16002-7618", "lat": 40.785656, "lng": -79.943214, "ref_id": 27052576, "rating": 0, "num_reviews": 0, "website": "http://www.butlercc.org", "contact_phone": "+1 724-586-7701", "contact_email": null, "status": 1, "source_type": 1}, {"name": "Sharpsburg Family Worship Center", "type": "attraction", "image": null, "address": "200 8th St # 2217, Sharpsburg, PA 15215-2250", "lat": null, "lng": null, "ref_id": 25271757, "rating": 0, "num_reviews": 0, "website": "http://www.sfwc.org/", "contact_phone": null, "contact_email": null, "status": 1, "source_type": 1}, {"name": "Russian Pyramid Billard Club FM 312", "type": "attraction", "image": null, "address": "20 Franklin Mills Blvd, Philadelphia, PA 19154", "lat": 40.08557, "lng": -74.967026, "ref_id": 26358898, "rating": 0, "num_reviews": 0, "website": "https://billiardfm312.com", "contact_phone": "+1 215-992-2944", "contact_email": "inbox@billiardfm312.com", "status": 1, "source_type": 1}, {"name": "The Exchange", "type": "attraction", "image": null, "address": "5862 Forbes Ave, Pittsburgh, PA 15217", "lat": 40.44079, "lng": -79.99942, "ref_id": 26431230, "rating": 0, "num_reviews": 0, "website": null, "contact_phone": null, "contact_email": null, "status": 1, "source_type": 1}, {"name": "Omni Luxe Massage", "type": "attraction", "image": null, "address": "3735 Saxonburg Blvd Floor 2, Pittsburgh, PA 15217", "lat": 40.57871, "lng": -79.88711, "ref_id": 26397924, "rating": 0, "num_reviews": 0, "website": "https://omniluxemassage.com/", "contact_phone": "+1 412-478-3621", "contact_email": "omniluxemassage@gmail.com", "status": 1, "source_type": 1}, {"name": "Gumtown Memorial Park", "type": "attraction", "image": null, "address": "225 Water St, New Bethlehem, PA 16242-1005", "lat": 41.000744, "lng": -79.33369, "ref_id": 27047138, "rating": 0, "num_reviews": 0, "website": "https://www.facebook.com/233630349989273", "contact_phone": "", "contact_email": null, "status": 1, "source_type": 1}, {"name": "Pheasantland Roller-Drome", "type": "attraction", "image": null, "address": "551 Manatawny Rd, Boyertown, PA 19512-8057", "lat": 40.363163, "lng": -75.731636, "ref_id": 27053897, "rating": 0, "num_reviews": 0, "website": "http://www.pheasantlandrollerrink.com", "contact_phone": "+1 610-689-9249", "contact_email": null, "status": 1, "source_type": 1}, {"name": "Appalachian Harley-Davidson", "type": "attraction", "image": null, "address": "6695 Carlisle Pike, Mechanicsburg, PA 17050", "lat": 40.239372, "lng": -77.05168, "ref_id": 26351247, "rating": 0, "num_reviews": 0, "website": "http://www.appalachianhd.com", "contact_phone": "+1 717-766-9366", "contact_email": null, "status": 1, "source_type": 1}, {"name": "Beef Jerky Outlet - Ohiopyle", "type": "attraction", "image": null, "address": "15 Sherman St, Ohiopyle, PA 15470-1034", "lat": 39.868717, "lng": -79.49328, "ref_id": 24118384, "rating": 5, "num_reviews": 0, "website": null, "contact_phone": "+1 412-440-3136", "contact_email": null, "status": 1, "source_type": 1, "numberReviews": "1"}, {"name": "Chester County History Center", "type": "attraction", "image": "https://dynamic-media-cdn.tripadvisor.com/media/photo-o/23/c4/43/44/caption.jpg?w=1000&s=1", "address": "225 N High St, West Chester, PA 19380-2658", "lat": null, "lng": null, "ref_id": 24104838, "rating": 5, "num_reviews": 0, "website": "www.mycchc.org", "contact_phone": "+1 610-692-4800", "contact_email": "VolunteerPres@mycchc.org", "status": 1, "source_type": 1, "numberReviews": "1"}, {"name": "The Blue Mountain Golf Course", "type": "attraction", "image": "https://dynamic-media-cdn.tripadvisor.com/media/photo-o/10/6e/f2/f9/photo0jpg.jpg?w=1000&s=1", "address": "628 Blue Mountain Rd, Fredericksburg, PA 17026-9470", "lat": 40.45994, "lng": -76.40082, "ref_id": 12829333, "rating": 4, "num_reviews": 0, "website": "https://www.bluemountaingolf.com/", "contact_phone": "+1 717-865-4401", "contact_email": null, "status": 1, "source_type": 1, "numberReviews": "6"}, {"name": "Family Funscape-Copperhead Canyon", "type": "attraction", "image": "https://dynamic-media-cdn.tripadvisor.com/media/photo-o/18/ad/78/84/nice-waterfall.jpg?w=1000&s=1", "address": "7350 Hutchinson Rd, Elizabeth, PA 15037-1682", "lat": 40.2381, "lng": -79.8664, "ref_id": 15020067, "rating": 4.5, "num_reviews": 0, "website": "http://familyfunscape.com/", "contact_phone": "+1 412-405-9630", "contact_email": null, "status": 1, "source_type": 1, "numberReviews": "2"}, {"name": "Massage Quest", "type": "attraction", "image": "https://dynamic-media-cdn.tripadvisor.com/media/photo-o/1c/84/e9/f5/acupressure-therapy-is.jpg?w=1000&s=1", "address": "201 Second Ave, Collegeville, PA 19426-3613", "lat": 40.186977, "lng": -75.457855, "ref_id": 23063303, "rating": 5, "num_reviews": 0, "website": "http://massagequest.online", "contact_phone": "+1 610-937-8147", "contact_email": null, "status": 1, "source_type": 1, "numberReviews": "1"}, {"name": "Northern Light Counseling", "type": "attraction", "image": "https://dynamic-media-cdn.tripadvisor.com/media/photo-o/23/f8/83/00/individual-yoga-therapy.jpg?w=1000&s=1", "address": "951 Main St, Honesdale, PA 18431-1903", "lat": 41.574383, "lng": -75.2565, "ref_id": 24065811, "rating": 5, "num_reviews": 0, "website": "http://northernlightcounseling.org", "contact_phone": "+1 570-280-6321", "contact_email": "northernlightcounseling@gmail.com", "status": 1, "source_type": 1, "numberReviews": "1"}, {"name": "Mount Gretna Roller Rink", "type": "attraction", "image": null, "address": "Route 117, Mount Gretna, PA 17042", "lat": 40.25259, "lng": -76.47186, "ref_id": 9806925, "rating": 4, "num_reviews": 0, "website": "http://mtgretnarollerrink.com", "contact_phone": "+1 717-964-3631", "contact_email": null, "status": 1, "source_type": 1, "numberReviews": "4"}, {"name": "Rock Bottom Climbing", "type": "attraction", "image": null, "address": "28 Baltimore St Rear, Hanover, PA 17331-3163", "lat": 39.79996, "lng": -76.98202, "ref_id": 21243845, "rating": 5, "num_reviews": 0, "website": "http://www.rockbottomclimbing.com", "contact_phone": "+1 717-634-5734", "contact_email": "info.rockbottomclimbing@gmail.com", "status": 1, "source_type": 1, "numberReviews": "1"}, {"name": "Paradise Fishing Preserve", "type": "attraction", "image": null, "address": "123 Hatchery Dr, Cresco, Barrett Township, PA 18326-7212", "lat": 41.11661, "lng": -75.2723, "ref_id": 13543420, "rating": 4.5, "num_reviews": 0, "website": "http://www.paradisetrout.com", "contact_phone": "+1 570-629-0422", "contact_email": "bigbrownfish@verizon.net", "status": 1, "source_type": 1, "numberReviews": "2"}, {"name": "Nemacolin Field Club", "type": "attraction", "image": "https://dynamic-media-cdn.tripadvisor.com/media/photo-o/23/73/27/da/clay-shooting.jpg?w=1000&s=1", "address": "321 Pike School Rd, Markleysburg, Pa, Farmington, PA 15459-1131", "lat": 39.76567, "lng": -79.507805, "ref_id": 24067239, "rating": 5, "num_reviews": 0, "website": "http://www.nemacolin.com/experiences/sporting-clays/", "contact_phone": "+1 866-344-6957", "contact_email": null, "status": 1, "source_type": 1, "numberReviews": "1"}, {"name": "New Hope Body Care", "type": "attraction", "image": null, "address": "19 W Bridge St Ste A, New Hope, PA 18938-1396", "lat": 40.3641, "lng": -74.95256, "ref_id": 18955435, "rating": 5, "num_reviews": 0, "website": "http://www.newhopebodycare.com/", "contact_phone": "+1 215-622-7963", "contact_email": "gina@newhopebodycare.com", "status": 1, "source_type": 1, "numberReviews": "1"}, {"name": "Howling Henry's Brewery", "type": "attraction", "image": null, "address": "35 E 2nd St Ste 103, Hummelstown, PA 17036-1621", "lat": 40.266487, "lng": -76.70673, "ref_id": 24054194, "rating": 5, "num_reviews": 0, "website": null, "contact_phone": null, "contact_email": null, "status": 1, "source_type": 1, "numberReviews": "1"}, {"name": "Kilwins", "type": "attraction", "image": "https://dynamic-media-cdn.tripadvisor.com/media/photo-o/18/2e/ba/6c/kilwins-is-open-in-suburban.jpg?w=1000&s=1", "address": "85 Coulter Ave Suburban Square, Ardmore, PA 19003-2412", "lat": 40.00753, "lng": -75.28599, "ref_id": 17700551, "rating": 4, "num_reviews": 0, "website": "http://kilwins.com", "contact_phone": null, "contact_email": null, "status": 1, "source_type": 1, "numberReviews": "4"}, {"name": "Pedal Power Tours", "type": "attraction", "image": null, "address": "150 S 22nd St, Pittsburgh, PA 15203-2064", "lat": 40.42638, "lng": -79.97499, "ref_id": 8595365, "rating": 4, "num_reviews": 0, "website": "http://www.pedalpowertours.com", "contact_phone": "+1 412-418-9558", "contact_email": null, "status": 1, "source_type": 1, "numberReviews": "3"}, {"name": "Pa Made Clothing & Arts Co.", "type": "attraction", "image": "https://dynamic-media-cdn.tripadvisor.com/media/photo-o/23/64/7c/97/caption.jpg?w=1000&s=1", "address": "18452 Bennetts Valley Hwy, Weedville, PA 15868-3006", "lat": 41.26764, "lng": -78.496796, "ref_id": 23990303, "rating": 5, "num_reviews": 0, "website": "http://pamadeshop.com", "contact_phone": "+1 814-335-0728", "contact_email": "pamadeshop@gmail.com", "status": 1, "source_type": 1, "numberReviews": "1"}, {"name": "Allure Wellness Spa", "type": "attraction", "image": null, "address": "223 Tioga St Suite 1, Wellsboro, PA 16901-6776", "lat": 41.74735, "lng": -77.30177, "ref_id": 23803013, "rating": 5, "num_reviews": 0, "website": "http://www.allurewellnesswellsborospa.com/", "contact_phone": "+1 570-948-1964", "contact_email": "amber@allurewellnesswellsborospa.com", "status": 1, "source_type": 1, "numberReviews": "1"}, {"name": "First Lutheran Church", "type": "attraction", "image": "https://dynamic-media-cdn.tripadvisor.com/media/photo-o/1d/6b/df/94/beautiful-church-in-johnstown.jpg?w=1000&s=1", "address": "415 Vine St, Johnstown, PA 15901-1996", "lat": 40.32445, "lng": -78.92007, "ref_id": 23540133, "rating": 5, "num_reviews": 0, "website": "http://www.facebook.com/first-lutheran-church-1411069145883652/", "contact_phone": "+1 814-536-7521", "contact_email": "firstlutheran@wpia.net", "status": 1, "source_type": 1, "numberReviews": "1"}, {"name": "Old Stone Church And Cemetery", "type": "attraction", "image": "https://dynamic-media-cdn.tripadvisor.com/media/photo-o/1c/b2/c2/11/cemetery.jpg?w=1000&s=1", "address": "4007 Monroeville Blvd Strochein Road, Monroeville, PA 15146-2505", "lat": 40.43646, "lng": -79.77159, "ref_id": 23192590, "rating": 5, "num_reviews": 0, "website": "http://www.facebook.com/pages/old-stone-church/138397889561950", "contact_phone": "+1 412-373-2045", "contact_email": null, "status": 1, "source_type": 1, "numberReviews": "1"}, {"name": "Cashtown Inn General Store", "type": "attraction", "image": "https://dynamic-media-cdn.tripadvisor.com/media/photo-o/23/3b/ff/73/some-pretty-cool-and.jpg?w=1000&s=1", "address": "1325 Old Rte 30, Cashtown, PA 17310", "lat": 39.885612, "lng": -77.36023, "ref_id": 23728857, "rating": 5, "num_reviews": 0, "website": "https://www.facebook.com/CashtownInn/", "contact_phone": "+1 717-334-9722", "contact_email": "wizzyadventures@gmail.com", "status": 1, "source_type": 1, "numberReviews": "2"}, {"name": "Morton Contemporary Gallery", "type": "attraction", "image": null, "address": "115 S 13th St, Philadelphia, PA 19107-4807", "lat": 39.949986, "lng": -75.161674, "ref_id": 24035807, "rating": 5, "num_reviews": 0, "website": "http://mortoncontemporary.com", "contact_phone": "+1 215-735-2800", "contact_email": null, "status": 1, "source_type": 1, "numberReviews": "1"}, {"name": "Tri-Boro Sportsmen", "type": "attraction", "image": null, "address": "21st and Canal Street, Northampton, PA 18067", "lat": 40.68972, "lng": -75.50211, "ref_id": 5846423, "rating": 4, "num_reviews": 0, "website": "https://www.facebook.com/pg/triborosportsmen", "contact_phone": "+1 610-262-8151", "contact_email": null, "status": 1, "source_type": 1, "numberReviews": "4"}, {"name": "Tam O'Shanter of Pennsylvania Golf Course", "type": "attraction", "image": "https://dynamic-media-cdn.tripadvisor.com/media/photo-o/13/19/79/23/welcome.jpg?w=1000&s=1", "address": "2961 S Hermitage Rd, Hermitage, PA 16148-7087", "lat": 41.194324, "lng": -80.456024, "ref_id": 14046699, "rating": 4, "num_reviews": 0, "website": "https://www.tamoshanterpa.com", "contact_phone": "+1 724-981-3552", "contact_email": "info@tamoshanterpa.com", "status": 1, "source_type": 1, "numberReviews": "3"}, {"name": "The Paper Unicorn", "type": "attraction", "image": null, "address": "2 S Main St Main and State Streets, Doylestown, PA 18901-4608", "lat": 40.309765, "lng": -75.13052, "ref_id": 12086965, "rating": 5, "num_reviews": 0, "website": "http://www.thepaperunicorndoylestown.com", "contact_phone": "+1 215-345-8655", "contact_email": null, "status": 1, "source_type": 1, "numberReviews": "2"}, {"name": "Meera Salon and Day Spa", "type": "attraction", "image": null, "address": "3251 7th St, Whitehall, PA 18052-3441", "lat": 40.65421, "lng": -75.49608, "ref_id": 6924804, "rating": 4.5, "num_reviews": 0, "website": "http://www.meerasalon.com", "contact_phone": "+1 610-820-0337", "contact_email": null, "status": 1, "source_type": 1, "numberReviews": "3"}, {"name": "Joyful Arts Studio", "type": "attraction", "image": "https://dynamic-media-cdn.tripadvisor.com/media/photo-o/10/65/22/7f/black-eyed-susan-s.jpg?w=1000&s=1", "address": "21 E Baltimore St, Greencastle, PA 17225-1201", "lat": 39.78993, "lng": -77.72692, "ref_id": 8761485, "rating": 5, "num_reviews": 0, "website": "http://joyfulartstudio.com/", "contact_phone": "+1 717-658-2177", "contact_email": "susan@joyfulartstudio.com", "status": 1, "source_type": 1, "numberReviews": "3"}, {"name": "History Swiftly Walking Tour", "type": "attraction", "image": null, "address": "Independence Mall, Philadelphia, PA", "lat": 39.94953, "lng": -75.149734, "ref_id": 23601037, "rating": 5, "num_reviews": 0, "website": "http://www.historyswiftly.com", "contact_phone": null, "contact_email": "history.swiftly@gmail.com", "status": 1, "source_type": 1, "numberReviews": "1"}, {"name": "Human Nurture Massage & Wellness Center", "type": "attraction", "image": null, "address": "4088 Skippack Pike, Skippack, PA 19474", "lat": 40.2257, "lng": -75.40448, "ref_id": 11960196, "rating": 5, "num_reviews": 0, "website": "http://www.HumanNurtureMassage.com", "contact_phone": "+1 610-222-4787", "contact_email": "Info@HumanNurtureMassage.com", "status": 1, "source_type": 1, "numberReviews": "2"}, {"name": "Woodmont Wine Tasting", "type": "attraction", "image": null, "address": "313 Woodmont Dr, Cranberry Township, PA 16066-2729", "lat": 40.727844, "lng": -80.066, "ref_id": 23930949, "rating": 5, "num_reviews": 0, "website": null, "contact_phone": "+1 724-600-6895", "contact_email": "benzwm02@gmail.com", "status": 1, "source_type": 1, "numberReviews": "1"}, {"name": "Boro Bar & Grill", "type": "attraction", "image": null, "address": "401 E Main St, Hummelstown, PA 17036-1810", "lat": 40.26599, "lng": -76.69768, "ref_id": 5845023, "rating": 3.5, "num_reviews": 0, "website": "http://www.borobar.com", "contact_phone": "+1 717-566-5142", "contact_email": null, "status": 1, "source_type": 1, "numberReviews": "6"}, {"name": "Planet Bounce", "type": "attraction", "image": null, "address": "4025 Alpha Dr, Allison Park, Hampton Township, PA 15101-2961", "lat": 40.56518, "lng": -79.96772, "ref_id": 15142886, "rating": 4.5, "num_reviews": 0, "website": "http://Www.planetbouncepgh.com", "contact_phone": "+1 412-487-5867", "contact_email": null, "status": 1, "source_type": 1, "numberReviews": "2"}, {"name": "Ross Dress for Less", "type": "attraction", "image": null, "address": "2327 Cottman Ave, Philadelphia, PA 19149-1002", "lat": 40.0476, "lng": -75.05514, "ref_id": 27034225, "rating": 0, "num_reviews": 0, "website": "http://www.rossstores.com/", "contact_phone": "+1 215-335-1493", "contact_email": null, "status": 1, "source_type": 1}, {"name": "Massage Envy - Uptown Mt Lebanon", "type": "attraction", "image": null, "address": "680 Washington Rd, Pittsburgh, PA 15228-1915", "lat": 40.380424, "lng": -80.04477, "ref_id": 27028151, "rating": 0, "num_reviews": 0, "website": "https://locations.massageenvy.com/pennsylvania/pittsburgh/680-washington-road.html", "contact_phone": "+1 412-531-1100", "contact_email": null, "status": 1, "source_type": 1}, {"name": "Widow's Peak Distilling Company", "type": "attraction", "image": null, "address": "10 E Butler Ave, Ambler, PA 19002-4514", "lat": 40.15371, "lng": -75.22353, "ref_id": 27036481, "rating": 0, "num_reviews": 0, "website": "https://www.facebook.com/105225621883197", "contact_phone": "+1 267-609-0601", "contact_email": null, "status": 1, "source_type": 1}, {"name": "Townsend Park", "type": "attraction", "image": null, "address": "601 3rd Ave, New Brighton, PA 15066", "lat": 40.73695, "lng": -80.31572, "ref_id": 27030755, "rating": 0, "num_reviews": 0, "website": "http://newbrightonpa.org", "contact_phone": "+1 724-495-9417", "contact_email": null, "status": 1, "source_type": 1}, {"name": "Lambert Road Woodworks", "type": "attraction", "image": null, "address": "489 Lambert Rd, Narvon, PA 17555-9326", "lat": 40.15778, "lng": -75.98591, "ref_id": 27028951, "rating": 0, "num_reviews": 0, "website": "http://www.lambert-road-woodworks.com/", "contact_phone": "+1 717-445-7595", "contact_email": null, "status": 1, "source_type": 1}, {"name": "James A. Cisco Park & Pond", "type": "attraction", "image": null, "address": "299 Montgomery Ave, Glenside, PA 19038", "lat": 40.090668, "lng": -75.21168, "ref_id": 27028824, "rating": 0, "num_reviews": 0, "website": "https://www.facebook.com/161619243862236", "contact_phone": "", "contact_email": null, "status": 1, "source_type": 1}, {"name": "Cibotti Recreation Center", "type": "attraction", "image": null, "address": "7698 Elmwood Ave, Philadelphia, PA 19153-1335", "lat": 39.90834, "lng": -75.24837, "ref_id": 27035663, "rating": 0, "num_reviews": 0, "website": "https://www.facebook.com/1119877561439859", "contact_phone": "+1 215-685-4194", "contact_email": null, "status": 1, "source_type": 1}, {"name": "Ridgebury Township Community Park", "type": "attraction", "image": null, "address": "13278 Berwick Tpke, Gillett, PA 16925-9242", "lat": 41.94339, "lng": -76.71207, "ref_id": 27035795, "rating": 0, "num_reviews": 0, "website": "http://www.ridgeburytownship.com", "contact_phone": "+1 570-596-2731", "contact_email": null, "status": 1, "source_type": 1}, {"name": "Kennedy Redware", "type": "attraction", "image": null, "address": "10 N Market St, Muncy, PA 17756-1025", "lat": 41.20633, "lng": -76.78806, "ref_id": 27036203, "rating": 0, "num_reviews": 0, "website": "https://www.facebook.com/509931762492674", "contact_phone": "+1 570-772-5565", "contact_email": null, "status": 1, "source_type": 1}, {"name": "Friendship Park", "type": "attraction", "image": null, "address": "4807 Friendship Ave, Pittsburgh, PA 15224-1721", "lat": 40.459488, "lng": -79.94548, "ref_id": 27031744, "rating": 0, "num_reviews": 0, "website": "https://www.facebook.com/111256926209020", "contact_phone": "+1 412-404-2726", "contact_email": null, "status": 1, "source_type": 1}, {"name": "JUNGE Pavilion", "type": "attraction", "image": null, "address": "3002 Cairnwood Dr, Bryn Athyn, PA 19009", "lat": 40.13703, "lng": -75.06088, "ref_id": 27031401, "rating": 0, "num_reviews": 0, "website": "https://brynathyn.edu/about/campus-and-facilities/junge-pavilion.html", "contact_phone": "+1 267-502-2660", "contact_email": null, "status": 1, "source_type": 1}, {"name": "47arts", "type": "attraction", "image": null, "address": "47 E High St, Philadelphia, PA 19144-2116", "lat": 40.040745, "lng": -75.17711, "ref_id": 27031876, "rating": 0, "num_reviews": 0, "website": "http://www.47arts.com", "contact_phone": "+1 215-842-2028", "contact_email": null, "status": 1, "source_type": 1}, {"name": "Bell Acres Borough Park", "type": "attraction", "image": null, "address": "1999 Hitzel Hill Rd, Sewickley, PA 15143", "lat": 40.605705, "lng": -80.169014, "ref_id": 27032556, "rating": 0, "num_reviews": 0, "website": "https://www.facebook.com/2219542778293319", "contact_phone": "", "contact_email": null, "status": 1, "source_type": 1}, {"name": "Source Urban Brewery", "type": "attraction", "image": null, "address": "1101 Frankford Ave, Philadelphia, PA 19125-4117", "lat": 39.967724, "lng": -75.13393, "ref_id": 27038446, "rating": 0, "num_reviews": 0, "website": "https://www.facebook.com/107514291713617", "contact_phone": "+1 267-519-3237", "contact_email": null, "status": 1, "source_type": 1}, {"name": "Arona Park", "type": "attraction", "image": null, "address": "2128 Main St, Arona, PA 15617-1001", "lat": 40.268875, "lng": -79.66133, "ref_id": 27033775, "rating": 0, "num_reviews": 0, "website": "https://www.facebook.com/153600058058360", "contact_phone": "", "contact_email": null, "status": 1, "source_type": 1}, {"name": "Bricktown Museum", "type": "attraction", "image": null, "address": "300 W Small St, Mount Union, PA 17066-1201", "lat": 40.387375, "lng": -77.88714, "ref_id": 27033741, "rating": 0, "num_reviews": 0, "website": "https://bricktownmuseum.com", "contact_phone": "+1 814-386-4385", "contact_email": null, "status": 1, "source_type": 1}, {"name": "PW Photos", "type": "attraction", "image": null, "address": "1519 State Route 903, Jim Thorpe, PA 18229-2770", "lat": 40.9462, "lng": -75.65386, "ref_id": 27040305, "rating": 0, "num_reviews": 0, "website": "http://skirmishphotos.com", "contact_phone": "+1 570-357-7789", "contact_email": null, "status": 1, "source_type": 1}, {"name": "Charley Trippi Stadium", "type": "attraction", "image": null, "address": "5 Stout St, Pittston, PA 18640-3391", "lat": 41.304325, "lng": -75.793, "ref_id": 27035370, "rating": 0, "num_reviews": 0, "website": "https://www.facebook.com/250104941677215", "contact_phone": "+1 570-654-2415", "contact_email": null, "status": 1, "source_type": 1}, {"name": "Dalvino Wine Company", "type": "attraction", "image": "https://dynamic-media-cdn.tripadvisor.com/media/photo-o/1a/69/1b/2c/absolutely-awesome.jpg?w=1000&s=1", "address": "715 Furman Rd, Sunbury, PA 17801-5582", "lat": 40.869034, "lng": -76.67788, "ref_id": 16857825, "rating": 5, "num_reviews": 0, "website": "http://dalvinowineco.com", "contact_phone": "+1 570-284-6050", "contact_email": "dalvinowineco@gmail.com", "status": 1, "source_type": 1, "numberReviews": "2"}, {"name": "Stargazers Vineyard", "type": "attraction", "image": "https://dynamic-media-cdn.tripadvisor.com/media/photo-o/0b/de/a6/d8/stargazers-vineyard.jpg?w=1000&s=1", "address": "1024 Wheatland Dr, Coatesville, PA 19320-5203", "lat": 39.94051, "lng": -75.76077, "ref_id": 5036927, "rating": 4.5, "num_reviews": 0, "website": "www.stargazersvineyard.com", "contact_phone": "+1 610-486-0422", "contact_email": null, "status": 1, "source_type": 1, "numberReviews": "8"}, {"name": "Artspace Gallery", "type": "attraction", "image": null, "address": "221 Center St, Bloomsburg, PA 17815-1701", "lat": 41.00297, "lng": -76.45622, "ref_id": 1410960, "rating": 5, "num_reviews": 0, "website": "www.artspace-bloomsburg.com", "contact_phone": "+1 570-784-0737", "contact_email": "ohelbok@gmail.com", "status": 1, "source_type": 1, "numberReviews": "6"}, {"name": "Lawrence County Historical Society", "type": "attraction", "image": "https://dynamic-media-cdn.tripadvisor.com/media/photo-o/1c/b9/6b/7b/lawrence-county-historical.jpg?w=1000&s=1", "address": "408 N Jefferson St, New Castle, PA 16101-2239", "lat": 41.0059, "lng": -80.34698, "ref_id": 4155090, "rating": 5, "num_reviews": 0, "website": "http://www.lawrencechs.com", "contact_phone": null, "contact_email": null, "status": 1, "source_type": 1, "numberReviews": "3"}, {"name": "Slate Belt Heritage Center", "type": "attraction", "image": "https://dynamic-media-cdn.tripadvisor.com/media/photo-o/08/4f/fd/ef/slate-belt-heritage-center.jpg?w=1000&s=1", "address": "30 N 1st St, Bangor, PA 18013-1904", "lat": 40.86745, "lng": -75.20655, "ref_id": 8398513, "rating": 5, "num_reviews": 0, "website": "http://www.slatebeltheritage.com/", "contact_phone": null, "contact_email": null, "status": 1, "source_type": 1, "numberReviews": "5"}, {"name": "Luther's Mills Covered Bridge aka Knapp's Covered Bridge", "type": "attraction", "image": "https://dynamic-media-cdn.tripadvisor.com/media/photo-o/0d/7d/23/fb/view-going-west.jpg?w=1000&s=1", "address": "Covered Bridge Road Luthers Mills, Burlington Township, Bradford, PA 18848", "lat": 41.80023, "lng": -76.5455, "ref_id": 10667107, "rating": 4.5, "num_reviews": 0, "website": "http://uncoveringpa.com/visiting-covered-bridge-bradford-county-pennsylvania", "contact_phone": null, "contact_email": null, "status": 1, "source_type": 1, "numberReviews": "6"}, {"name": "Centre County Library & Historical Museum", "type": "attraction", "image": "https://dynamic-media-cdn.tripadvisor.com/media/photo-o/0e/bb/75/12/getlstd-property-photo.jpg?w=1000&s=1", "address": "200 N Allegheny St, Bellefonte, PA 16823-1602", "lat": 40.91365, "lng": -77.77809, "ref_id": 12262042, "rating": 5, "num_reviews": 0, "website": "http://www.centrecountylibrary.org/", "contact_phone": "+1 814-355-1516", "contact_email": "lerickson@centrecountylibrary.org", "status": 1, "source_type": 1, "numberReviews": "8"}, {"name": "Ann Street Antiques", "type": "attraction", "image": "https://dynamic-media-cdn.tripadvisor.com/media/photo-o/11/93/ad/98/img-20171214-092734-largejpg.jpg?w=1000&s=1", "address": "109 E Ann St, Milford, PA 18337-1311", "lat": 41.32214, "lng": -74.80187, "ref_id": 13305648, "rating": 4.5, "num_reviews": 0, "website": null, "contact_phone": "+1 570-296-3539", "contact_email": null, "status": 1, "source_type": 1, "numberReviews": "3"}, {"name": "Whipple Dam State Park", "type": "attraction", "image": "https://dynamic-media-cdn.tripadvisor.com/media/photo-o/06/b8/92/88/whipple-dam-state-park.jpg?w=1000&s=1", "address": "Pa 26, Huntingdon, PA 16652", "lat": 40.68835, "lng": -77.86212, "ref_id": 4324205, "rating": 4, "num_reviews": 0, "website": "http://www.dcnr.state.pa.us/stateparks/findapark/whippledam/", "contact_phone": "+1 814-667-1800", "contact_email": "greenwoodfurnacesp@pa.gov", "status": 1, "source_type": 1, "numberReviews": "17"}, {"name": "Christ Church Burial Ground", "type": "attraction", "image": "https://dynamic-media-cdn.tripadvisor.com/media/photo-o/05/1c/ac/52/christ-church-cemetery.jpg?w=1000&s=1", "address": "50 N Independence Mall E, Philadelphia, PA 19106", "lat": 39.95246, "lng": -75.14826, "ref_id": 147136, "rating": 4, "num_reviews": 0, "website": "http://christchurchphila.org/about-the-burial-grounds/", "contact_phone": "+1 215-922-1695", "contact_email": null, "status": 1, "source_type": 1, "numberReviews": "248"}, {"name": "Montgomery Mall", "type": "attraction", "image": "https://dynamic-media-cdn.tripadvisor.com/media/photo-o/0f/73/bb/a0/the-mall.jpg?w=1000&s=1", "address": "230 Montgomery Mall, North Wales, PA 19454-3904", "lat": 40.23505, "lng": -75.2445, "ref_id": 12495476, "rating": 3.5, "num_reviews": 0, "website": null, "contact_phone": "+1 215-362-1600", "contact_email": null, "status": 1, "source_type": 1, "numberReviews": "13"}, {"name": "Hazard's Distillery", "type": "attraction", "image": "https://dynamic-media-cdn.tripadvisor.com/media/photo-o/1b/1b/64/68/hazard-s-distillery.jpg?w=1000&s=1", "address": "26555 Industrial Park Rd, Mifflintown, PA 17059", "lat": 40.53887, "lng": -77.37818, "ref_id": 16239246, "rating": 5, "num_reviews": 0, "website": "http://www.hazardsdistillery.com/", "contact_phone": "+1 717-527-2328", "contact_email": null, "status": 1, "source_type": 1, "numberReviews": "1"}, {"name": "Starr Hill Vineyard & Winery", "type": "attraction", "image": "https://dynamic-media-cdn.tripadvisor.com/media/photo-o/1b/8d/4d/b2/experience-the-wines.jpg?w=1000&s=1", "address": "861 Bailey Rd, Curwensville, PA 16833-7174", "lat": 40.99058, "lng": -78.51302, "ref_id": 12514211, "rating": 5, "num_reviews": 0, "website": "http://starrhillwinery.com/", "contact_phone": "+1 814-236-0910", "contact_email": "starrhillwinery@yahoo.com", "status": 1, "source_type": 1, "numberReviews": "3"}, {"name": "Where the Ducks Walk on the Fish", "type": "attraction", "image": "https://dynamic-media-cdn.tripadvisor.com/media/photo-o/17/eb/6f/e4/mad-dash-for-bread-at.jpg?w=1000&s=1", "address": "The Spillway, Linesville, PA 16424", "lat": null, "lng": null, "ref_id": 17567452, "rating": 4, "num_reviews": 0, "website": null, "contact_phone": null, "contact_email": null, "status": 1, "source_type": 1, "numberReviews": "4"}, {"name": "Lippencott Alpacas", "type": "attraction", "image": null, "address": "265 Meadowbrook Rd, Waynesburg, PA 15370-2632", "lat": 39.94988, "lng": -80.11625, "ref_id": 16857674, "rating": 4, "num_reviews": 0, "website": "http://www.lippencottalpacas.com", "contact_phone": "+1 724-852-4084", "contact_email": "lenagaling@windstream.net", "status": 1, "source_type": 1, "numberReviews": "1"}, {"name": "Lecom Sports Park", "type": "attraction", "image": "https://dynamic-media-cdn.tripadvisor.com/media/photo-o/19/11/1b/5d/erie-bank-sports-park.jpg?w=1000&s=1", "address": "8159 Oliver Rd, Erie, PA 16509-4621", "lat": 42.044308, "lng": -80.08454, "ref_id": 278321, "rating": 3, "num_reviews": 0, "website": "http://www.lecomsportspark.com", "contact_phone": "+1 814-866-5425", "contact_email": "ice@lecomsportspark.com", "status": 1, "source_type": 1, "numberReviews": "47"}, {"name": "J. Maki Winery", "type": "attraction", "image": null, "address": "200 Grove Rd, Elverson, PA 19520-9013", "lat": 40.15807, "lng": -75.75853, "ref_id": 3656248, "rating": 3, "num_reviews": 0, "website": "http://www.jmakiwinery.com/", "contact_phone": "+1 610-286-7754", "contact_email": null, "status": 1, "source_type": 1, "numberReviews": "34"}, {"name": "The Foster and Muriel McCarl Coverlet Gallery", "type": "attraction", "image": "https://dynamic-media-cdn.tripadvisor.com/media/photo-o/2c/3a/bc/aa/caption.jpg?w=1000&s=1", "address": "300 Fraser Purchase Rd, Latrobe, PA 15650-2667", "lat": 40.29173, "lng": -79.39912, "ref_id": 17675319, "rating": 5, "num_reviews": 0, "website": "http://www.McCarlGallery.org", "contact_phone": "+1 724-805-2188", "contact_email": "info@mccarlgallery.org", "status": 1, "source_type": 1, "numberReviews": "1"}, {"name": "Dilworth Park", "type": "attraction", "image": "https://dynamic-media-cdn.tripadvisor.com/media/photo-o/07/b6/7e/6c/dilworth-park.jpg?w=1000&s=1", "address": "1 S 15th St, Philadelphia, PA 19102", "lat": 39.95267, "lng": -75.164825, "ref_id": 7953836, "rating": 4.5, "num_reviews": 0, "website": "http://www.ccdparks.org/dilworth-park", "contact_phone": "+1 215-440-5500", "contact_email": null, "status": 1, "source_type": 1, "numberReviews": "185"}, {"name": "Villanova Theatre", "type": "attraction", "image": null, "address": "800 E Lancaster Ave, Villanova, PA 19085-1478", "lat": 40.03494, "lng": -75.34058, "ref_id": 7194014, "rating": 4.5, "num_reviews": 0, "website": "http://www1.villanova.edu/villanova/admission/visit.html", "contact_phone": null, "contact_email": null, "status": 1, "source_type": 1, "numberReviews": "4"}, {"name": "Boiling Springs Pool", "type": "attraction", "image": "https://dynamic-media-cdn.tripadvisor.com/media/photo-o/03/47/5f/40/boiling-springs-pool.jpg?w=1000&s=1", "address": "2 Mountain Road or 100 Race Street, Boiling Springs, PA 17007", "lat": 40.14661, "lng": -77.12459, "ref_id": 2634429, "rating": 4, "num_reviews": 0, "website": "http://www.bspool.com/", "contact_phone": "+1 717-258-4121", "contact_email": "summerfest@bspool.com", "status": 1, "source_type": 1, "numberReviews": "19"},