[{"name": "Chez Choiniere", "type": "hotel", "image": "https://dynamic-media-cdn.tripadvisor.com/media/photo-o/18/ed/dd/03/photo0jpg.jpg?w=1000&s=1", "address": "127 Route 132 Saint-Simon Ouest Saint-Simon, Trois-Pistoles, Trois-Pistoles, Quebec G0L 4C0 Canada", "lat": 48.116074, "lng": -69.17881, "ref_id": 644676, "rating": 4, "num_reviews": 0, "website": "http://pages.globetrotter.net/chezchoiniere/", "contact_phone": "+1 418-738-2245", "contact_email": "chezchoiniere@hotmail.com", "status": 1, "source_type": 1, "numberReviews": 15}, {"name": "Bon Voyage Motel", "type": "hotel", "image": null, "address": "409 Mont\u00e9e Industrielle-et-Commerciale, Rimouski, Rimouski, Quebec G0L 2Z0 Canada", "lat": 48.2995, "lng": -68.86584, "ref_id": 10824647, "rating": 3.5, "num_reviews": 0, "website": "https://lesrestaurantsbonvoyage.com/%C3%A0-propos", "contact_phone": "+1 418-869-2313", "contact_email": null, "status": 1, "source_type": 1, "numberReviews": 6}, {"name": "Gite La Grenouille Sautee", "type": "hotel", "image": "https://dynamic-media-cdn.tripadvisor.com/media/photo-o/08/59/74/58/la-piece-que-j-affectionne.jpg?w=1000&s=1", "address": "36 Chemin Sugar Hill, Lac-Brome, Quebec J0E 1V0 Canada", "lat": 45.20296, "lng": -72.51644, "ref_id": 7986890, "rating": 5, "num_reviews": 0, "website": "http://www.lagrenouillesautee.com/", "contact_phone": "+1 450-242-1119", "contact_email": null, "status": 1, "source_type": 1, "numberReviews": 5}, {"name": "Camping Otamac", "type": "hotel", "image": "https://dynamic-media-cdn.tripadvisor.com/media/photo-o/0c/3b/66/22/camping-otamac.jpg?w=1000&s=1", "address": "5431 Av Tour du Lac S, Grand-M\u00e8re, Shawinigan, Quebec G0X 1L0 Canada", "lat": 46.60905, "lng": -72.61309, "ref_id": 4590947, "rating": 4, "num_reviews": 0, "website": "http://www.campingotamac.com/", "contact_phone": "+1 819-538-9697", "contact_email": null, "status": 1, "source_type": 1, "numberReviews": 6}, {"name": "Gite du Lac Poisson Blanc", "type": "hotel", "image": "https://dynamic-media-cdn.tripadvisor.com/media/partner/bookingcom/photo-o/2b/cc/b3/eb/caption.jpg?w=1000&s=1", "address": "631 Chemin Poisson Blanc, Notre-Dame-du-Laus, Quebec J0X 2M0 Canada", "lat": 46.098522, "lng": -75.68284, "ref_id": 10664747, "rating": 5, "num_reviews": 0, "website": "http://gitedulacpoissonblanc.com", "contact_phone": "+1 819-230-5350", "contact_email": "info@gitedulacpoissonblanc.com", "status": 1, "source_type": 1, "numberReviews": 5}, {"name": "Bookit Montreal - Rue Saint Hubert", "type": "hotel", "image": null, "address": "2024 Rue Saint Hubert, Montreal, Quebec H2L 3Z5 Canada", "lat": 45.51794, "lng": -73.56493, "ref_id": 16720623, "rating": 5, "num_reviews": 0, "website": null, "contact_phone": null, "contact_email": null, "status": 1, "source_type": 1, "numberReviews": 2}, {"name": "Camping Alouette", "type": "hotel", "image": "https://dynamic-media-cdn.tripadvisor.com/media/photo-o/18/2f/dd/84/pool.jpg?w=1000&s=1", "address": "3449 de L'Industrie, St-Mathieu-de-Beloeil, Quebec J3G 0R9 Canada", "lat": 45.593517, "lng": -73.27144, "ref_id": 668961, "rating": 3.5, "num_reviews": 0, "website": "http://www.parkbridge.com/en/resort/resort-detail/alouette?utm_medium=listing&utm_source=tripadvisor&utm_campaign=talisting", "contact_phone": "+1 450-464-1661", "contact_email": "alouette@parkbridge.com", "status": 1, "source_type": 1, "numberReviews": 48}, {"name": "G\u00eete la Charmeuse", "type": "hotel", "image": "https://dynamic-media-cdn.tripadvisor.com/media/photo-o/18/e4/c3/59/gite-la-charmeuse.jpg?w=1000&s=1", "address": "1640 Rte 138, Saint-Simeon, Quebec G0T 1X0 Canada", "lat": 47.81323, "lng": -69.92832, "ref_id": 6420506, "rating": 3.5, "num_reviews": 0, "website": null, "contact_phone": "+1 418-514-9268", "contact_email": null, "status": 1, "source_type": 1, "numberReviews": 13}, {"name": "l'Auberge de la Rive Gauche", "type": "hotel", "image": "https://dynamic-media-cdn.tripadvisor.com/media/photo-o/13/97/b0/65/l-auberge-de-la-rive.jpg?w=1000&s=1", "address": "106 Rue Masson, Sainte-Thecle, Quebec G0X 3G0 Canada", "lat": 46.815994, "lng": -72.50546, "ref_id": 13432764, "rating": 5, "num_reviews": 0, "website": "http://www.facebook.com/aubergedelarivegauche/", "contact_phone": "+1 581-781-7800", "contact_email": "info@aubergedelarivegauche.com", "status": 1, "source_type": 1, "numberReviews": 3}, {"name": "Gite La Marechante", "type": "hotel", "image": "https://dynamic-media-cdn.tripadvisor.com/media/photo-o/19/de/ce/7d/photo0jpg.jpg?w=1000&s=1", "address": "36 Route du Fleuve Ouest Ste-Luce,quebec, Sainte-Luce-sur-Mer, Quebec G0K 1P0 Canada", "lat": 48.549, "lng": -68.38767, "ref_id": 10155357, "rating": 4, "num_reviews": 0, "website": null, "contact_phone": "+1 418-739-5393", "contact_email": "marconormandeau@hotmail.com", "status": 1, "source_type": 1, "numberReviews": 11}, {"name": "Village des Soleils", "type": "hotel", "image": "https://dynamic-media-cdn.tripadvisor.com/media/photo-o/05/1d/2e/9a/village-des-soleils.jpg?w=1000&s=1", "address": "1400 rue Labelle, Mont Tremblant, Quebec J8E 2N5 Canada", "lat": 46.14294, "lng": -74.58691, "ref_id": 3643169, "rating": 3.5, "num_reviews": 0, "website": "http://www.villagedessoleils.com/", "contact_phone": "+1 819-717-1324", "contact_email": null, "status": 1, "source_type": 1, "numberReviews": 19}, {"name": "Gite a la Marguerite B&B", "type": "hotel", "image": "https://dynamic-media-cdn.tripadvisor.com/media/photo-o/18/c7/5d/a4/photo0jpg.jpg?w=1000&s=1", "address": "142 1re Avenue Sud, Saint-G\u00e9d\u00e9on-de-Beauce, Quebec G0M 1T0 Canada", "lat": 45.851612, "lng": -70.64315, "ref_id": 12548736, "rating": 5, "num_reviews": 0, "website": "http://www.hoteltuxpanvaradero.com/", "contact_phone": "+1 418-582-6751", "contact_email": null, "status": 1, "source_type": 1, "numberReviews": 2}, {"name": "Chalets Plage St-Jean citq121170", "type": "hotel", "image": "https://dynamic-media-cdn.tripadvisor.com/media/photo-o/13/78/5b/62/heated-pool-with-nice.jpg?w=1000&s=1", "address": "4878 Chemin Royal in front of Resto de la Plage, Saint-Jean-de-l'ile-d'Orleans, Quebec G0A 3W0 Canada", "lat": 46.912094, "lng": -70.907875, "ref_id": 8930963, "rating": 4.5, "num_reviews": 0, "website": "http://www.chaletsplagestjean.com/", "contact_phone": "+1 418-953-9431", "contact_email": "info@chaletsplagestjean.com", "status": 1, "source_type": 1, "numberReviews": 3}, {"name": "Apartment Hotel Quebec", "type": "hotel", "image": "https://dynamic-media-cdn.tripadvisor.com/media/photo-s/03/03/b7/6c/appart-hotel-riendeau.jpg?w=1000&s=1", "address": "1216 Cours du General-de-Montcalm, Quebec City, Quebec G1R 3G4 Canada", "lat": 46.80487, "lng": -71.21781, "ref_id": 2477752, "rating": 4, "num_reviews": 0, "website": null, "contact_phone": "", "contact_email": "", "status": 1, "source_type": 1, "numberReviews": 10}, {"name": "Auberge St-Simon", "type": "hotel", "image": "https://dynamic-media-cdn.tripadvisor.com/media/photo-s/02/ad/bb/f3/auberge-st-simon.jpg?w=1000&s=1", "address": "324, Route 132 Saint-Simon-de-Rimouski, Rimouski, Quebec Canada", "lat": 48.358624, "lng": -68.743385, "ref_id": 2239034, "rating": 4.5, "num_reviews": 0, "website": null, "contact_phone": "+1 418-738-2971", "contact_email": "aubergestsimon@gmail.com", "status": 1, "source_type": 1, "numberReviews": 10}, {"name": "WERFY Luxury Apart-Hotel", "type": "hotel", "image": null, "address": "1222 Des Bassins, Montreal, Quebec H3C 0X7 Canada", "lat": 45.491386, "lng": -73.55848, "ref_id": 27152288, "rating": -1, "num_reviews": 0, "website": "https://werfy.com/", "contact_phone": "+1 514-309-3739", "contact_email": "info@werfy.com", "status": 1, "source_type": 1, "numberReviews": 0}, {"name": "Le Penfield Par Nomade MTL", "type": "hotel", "image": "https://dynamic-media-cdn.tripadvisor.com/media/partner/bookingcom/photo-o/2b/cc/f6/2e/caption.jpg?w=1000&s=1", "address": "1595 Dr Penfield Av, Montreal, Quebec H3G 1C6 Canada", "lat": 45.49659, "lng": -73.58676, "ref_id": 26129516, "rating": -1, "num_reviews": 0, "website": null, "contact_phone": null, "contact_email": null, "status": 1, "source_type": 1, "numberReviews": 0}, {"name": "Parc Avenue Hostel", "type": "hotel", "image": "https://dynamic-media-cdn.tripadvisor.com/media/partner/bookingcom/photo-o/2b/7f/77/b0/caption.jpg?w=1000&s=1", "address": "5677 Ave Du Parc, Montreal, Quebec H2V 4H4 Canada", "lat": 45.523342, "lng": -73.60415, "ref_id": 25362244, "rating": -1, "num_reviews": 0, "website": "https://book.webrez.com/v31/#/property/3636/location/0/search", "contact_phone": "+1 514-670-0566", "contact_email": "info@parcavenuelofts.com", "status": 1, "source_type": 1, "numberReviews": 0}, {"name": "Apd Hotel", "type": "hotel", "image": null, "address": "1633 Rue Saint-Hubert, Montreal, Quebec H2L 3Z1 Canada", "lat": 45.517, "lng": -73.561806, "ref_id": 27177608, "rating": -1, "num_reviews": 0, "website": null, "contact_phone": "+1 514-594-3288", "contact_email": null, "status": 1, "source_type": 1, "numberReviews": 0}, {"name": "Faubourg Ste Cath", "type": "hotel", "image": "https://dynamic-media-cdn.tripadvisor.com/media/partner/bookingcom/photo-o/2b/cc/cd/51/caption.jpg?w=1000&s=1", "address": "Rue Sainte-Catherine Est., Montreal, Quebec H2L 2J4 Canada", "lat": 45.52197, "lng": -73.55295, "ref_id": 25642301, "rating": -1, "num_reviews": 0, "website": null, "contact_phone": "+1 514-939-3663", "contact_email": null, "status": 1, "source_type": 1, "numberReviews": 0}, {"name": "Pacane Et Potiron Cafe Couette", "type": "hotel", "image": null, "address": "1430 Rue Rolland Verdun, Montreal, Quebec H4H 2G6 Canada", "lat": 45.44627, "lng": -73.58665, "ref_id": 262877, "rating": -1, "num_reviews": 0, "website": null, "contact_phone": "+1 514-769-8315", "contact_email": "", "status": 1, "source_type": 1, "numberReviews": 0}, {"name": "Hotel Villard", "type": "hotel", "image": null, "address": "307 Ontario Est, Montreal, Quebec H2X 1H7 Canada", "lat": 45.515, "lng": -73.56591, "ref_id": 1188294, "rating": -1, "num_reviews": 0, "website": null, "contact_phone": "+1 514-845-9730", "contact_email": "", "status": 1, "source_type": 1, "numberReviews": 0}, {"name": "4Winds", "type": "hotel", "image": null, "address": "3220 Av. Ridgewood, Montreal, Quebec H3V 1B9 Canada", "lat": 45.49544, "lng": -73.60934, "ref_id": 26339186, "rating": -1, "num_reviews": 0, "website": null, "contact_phone": null, "contact_email": null, "status": 1, "source_type": 1, "numberReviews": 0}, {"name": "L Appartement Du Voyageur", "type": "hotel", "image": null, "address": "1096 Boulevard De La Rousseliere, Montreal, Quebec H1A 2X4 Canada", "lat": 45.66788, "lng": -73.49774, "ref_id": 17569625, "rating": -1, "num_reviews": 0, "website": null, "contact_phone": null, "contact_email": null, "status": 1, "source_type": 1, "numberReviews": 0}, {"name": "Apartement & Studio Palais Des Congr\u00e8s", "type": "hotel", "image": null, "address": "1099 Rue Anderson, Montreal, Quebec H2Z 1M1 Canada", "lat": 45.5054, "lng": -73.56342, "ref_id": 27161626, "rating": -1, "num_reviews": 0, "website": "https://www.appartementstudio.com/en", "contact_phone": "+1 514-823-8555", "contact_email": null, "status": 1, "source_type": 1, "numberReviews": 0}, {"name": "Bell Centre Apartments", "type": "hotel", "image": null, "address": "1288 Avenue des Canadiens-de-Montreal, Montreal, Quebec H3B 3B3 Canada", "lat": 45.496338, "lng": -73.57011, "ref_id": 16951752, "rating": -1, "num_reviews": 0, "website": null, "contact_phone": null, "contact_email": null, "status": 1, "source_type": 1, "numberReviews": 0}, {"name": "Stay In Montreal", "type": "hotel", "image": null, "address": "3854 Avenue Du Parc Lafontaine, Montreal, Quebec H2L 3M6 Canada", "lat": 45.52312, "lng": -73.57, "ref_id": 17414527, "rating": -1, "num_reviews": 0, "website": null, "contact_phone": null, "contact_email": null, "status": 1, "source_type": 1, "numberReviews": 0}, {"name": "Auberge Pvt Hostel", "type": "hotel", "image": null, "address": "4460 Christophe-colomb Ave, Montreal, Quebec H2J3G5 Canada", "lat": 45.50884, "lng": -73.58781, "ref_id": 28009817, "rating": -1, "num_reviews": 0, "website": "http://www.hellostel.com", "contact_phone": "+15144006369", "contact_email": "bookyourbed@hellostel.com", "status": 1, "source_type": 1, "numberReviews": 0}, {"name": "Glamping Parc Riviere Metabetchouane", "type": "hotel", "image": null, "address": "Chemins Desbiens, Montreal, Quebec G0W 1N0 Canada", "lat": 45.46976, "lng": -73.88453, "ref_id": 13813955, "rating": -1, "num_reviews": 0, "website": "http://www.glampingparc.com", "contact_phone": "+1 418-342-6451", "contact_email": "info@glampingparc.com", "status": 1, "source_type": 1, "numberReviews": 0}, {"name": "Avenue Liv MTL", "type": "hotel", "image": null, "address": "1277 Avenue du Mont-Royal Est, Montreal, Quebec H2J 1Y4 Canada", "lat": 45.529697, "lng": -73.57791, "ref_id": 26517965, "rating": -1, "num_reviews": 0, "website": null, "contact_phone": null, "contact_email": null, "status": 1, "source_type": 1, "numberReviews": 0}, {"name": "Like A Hotel - Le St-Jacques Old Montreal", "type": "hotel", "image": null, "address": "244 Rue St-Jacques No 63, Montreal, Quebec Canada", "lat": 45.5034, "lng": -73.5588, "ref_id": 25000539, "rating": -1, "num_reviews": 0, "website": null, "contact_phone": null, "contact_email": null, "status": 1, "source_type": 1, "numberReviews": 0}, {"name": "Corporate Stays With Golden Castle Group", "type": "hotel", "image": null, "address": "2061 Rue Stanley 204, Montreal, Quebec H3A 0B7 Canada", "lat": 45.500828, "lng": -73.576485, "ref_id": 26665326, "rating": -1, "num_reviews": 0, "website": null, "contact_phone": null, "contact_email": null, "status": 1, "source_type": 1, "numberReviews": 0}, {"name": "Le Village Montreal Apartments", "type": "hotel", "image": null, "address": "1117 Rene Levesque East, Montreal, Quebec H2L 0G4 Canada", "lat": 45.51663, "lng": -73.5549, "ref_id": 17464666, "rating": -1, "num_reviews": 0, "website": null, "contact_phone": null, "contact_email": null, "status": 1, "source_type": 1, "numberReviews": 0}, {"name": "Heart Of Downtown, Old Montreal, Uqam, Jazz Festival", "type": "hotel", "image": null, "address": "1661 Rue Berri, Montreal, Quebec H2L 4E9 Canada", "lat": 45.51633, "lng": -73.562935, "ref_id": 23302163, "rating": -1, "num_reviews": 0, "website": null, "contact_phone": null, "contact_email": null, "status": 1, "source_type": 1, "numberReviews": 0}, {"name": "Hotel Plateau Royale", "type": "hotel", "image": null, "address": "4555 Avenue Du Parc, Montreal, Quebec H2V 4E4 Canada", "lat": 45.5173, "lng": -73.5903, "ref_id": 17850002, "rating": -1, "num_reviews": 0, "website": null, "contact_phone": null, "contact_email": null, "status": 1, "source_type": 1, "numberReviews": 0}, {"name": "Les Appartements Homa", "type": "hotel", "image": null, "address": "Montreal, Quebec H1W 2T5 Canada", "lat": 45.54046, "lng": -73.54759, "ref_id": 21392952, "rating": -1, "num_reviews": 0, "website": null, "contact_phone": null, "contact_email": null, "status": 1, "source_type": 1, "numberReviews": 0}, {"name": "Urban Avenue", "type": "hotel", "image": null, "address": "1304 Avenue Mont-Royal Est, Montreal, Quebec H2J 1Y5 Canada", "lat": 45.52984, "lng": -73.57726, "ref_id": 17515432, "rating": -1, "num_reviews": 0, "website": null, "contact_phone": null, "contact_email": null, "status": 1, "source_type": 1, "numberReviews": 0}, {"name": "The Saint Hotel", "type": "hotel", "image": null, "address": "408 Rue Saint-Sulpice,, Montreal, Quebec H2Y 2V5 Canada", "lat": 45.50432, "lng": -73.55494, "ref_id": 15811383, "rating": -1, "num_reviews": 0, "website": null, "contact_phone": null, "contact_email": null, "status": 1, "source_type": 1, "numberReviews": 0}, {"name": "Residence Promenade Jarry", "type": "hotel", "image": null, "address": "238 Rue Jarry Est 2e Etage, Montreal, Quebec H2P 1T5 Canada", "lat": 45.54104, "lng": -73.6298, "ref_id": 15611871, "rating": -1, "num_reviews": 0, "website": null, "contact_phone": null, "contact_email": null, "status": 1, "source_type": 1, "numberReviews": 0}, {"name": "Sejour a Montreal", "type": "hotel", "image": null, "address": "10675 Avenue de Lorimier, Montreal, Quebec H2B 2J4 Canada", "lat": 45.57349, "lng": -73.65598, "ref_id": 21372296, "rating": -1, "num_reviews": 0, "website": null, "contact_phone": null, "contact_email": null, "status": 1, "source_type": 1, "numberReviews": 0}, {"name": "La Baraque", "type": "hotel", "image": null, "address": "928 Ste-Catherine East, Montreal, Quebec H2L 2E7 Canada", "lat": 45.51662, "lng": -73.55745, "ref_id": 1492785, "rating": -1, "num_reviews": 0, "website": null, "contact_phone": "+1 514-839-7928", "contact_email": "bbbaraque@gmail.com", "status": 1, "source_type": 1, "numberReviews": 0}, {"name": "RNR Residency", "type": "hotel", "image": null, "address": "4595 Avenue Saint Kevin Apt No-4, Montreal, Quebec H3T 1J1 Canada", "lat": 45.49362, "lng": -73.62913, "ref_id": 20857552, "rating": -1, "num_reviews": 0, "website": null, "contact_phone": null, "contact_email": null, "status": 1, "source_type": 1, "numberReviews": 0}, {"name": "Charming Bedroom In The Heart Of The City", "type": "hotel", "image": null, "address": "8156 Avenue Querbes, Montreal, Quebec H3N 2C4 Canada", "lat": 45.5321, "lng": -73.63654, "ref_id": 15842559, "rating": -1, "num_reviews": 0, "website": null, "contact_phone": null, "contact_email": null, "status": 1, "source_type": 1, "numberReviews": 0}, {"name": "Hotel Knox - Downtown Montreal", "type": "hotel", "image": null, "address": "3643 Rue Notre Dame O, Montreal, Quebec H4C 1P6 Canada", "lat": 45.47955, "lng": -73.58139, "ref_id": 24946329, "rating": -1, "num_reviews": 0, "website": null, "contact_phone": null, "contact_email": null, "status": 1, "source_type": 1, "numberReviews": 0}, {"name": "Hotel Leila", "type": "hotel", "image": null, "address": "2015 Bishop St., Montreal, Quebec H3G 2E8 Canada", "lat": 45.49772, "lng": -73.57801, "ref_id": 23866195, "rating": -1, "num_reviews": 0, "website": "https://www.facebook.com/Hotel-Leila-462955640773011/", "contact_phone": "+1 438-405-5599", "contact_email": "info@leilahotel.com", "status": 1, "source_type": 1, "numberReviews": 0}, {"name": "Motel Saint-Ambroise", "type": "hotel", "image": "https://dynamic-media-cdn.tripadvisor.com/media/partner/bookingcom/photo-o/2b/4a/1a/64/caption.jpg?w=1000&s=1", "address": "55 Rue Simard, Saint-Ambroise, Quebec G7P 2R6 Canada", "lat": 48.54597, "lng": -71.31954, "ref_id": 10430160, "rating": -1, "num_reviews": 0, "website": null, "contact_phone": null, "contact_email": null, "status": 1, "source_type": 1, "numberReviews": 0}, {"name": "Hotelia", "type": "hotel", "image": "https://dynamic-media-cdn.tripadvisor.com/media/partner/bookingcom/photo-o/2c/74/3e/1d/caption.jpg?w=1000&s=1", "address": "534 Rue Simard, Saint-Ambroise, Quebec G7P 2S7 Canada", "lat": 48.55769, "lng": -71.32436, "ref_id": 26616299, "rating": -1, "num_reviews": 0, "website": null, "contact_phone": "+1 418-579-1442", "contact_email": null, "status": 1, "source_type": 1, "numberReviews": 0}, {"name": "Parc Octopus", "type": "hotel", "image": "https://dynamic-media-cdn.tripadvisor.com/media/partner/bookingcom/photo-o/2b/9f/07/8e/caption.jpg?w=1000&s=1", "address": "255 Rue du Quai, Desbiens, Quebec G0W 1N0 Canada", "lat": 48.4194, "lng": -71.96182, "ref_id": 24051368, "rating": -1, "num_reviews": 0, "website": "https://parcoctopus.com/", "contact_phone": "+1 581-221-2487", "contact_email": null, "status": 1, "source_type": 1, "numberReviews": 0}, {"name": "Les Chalets Brise-de-Mer", "type": "hotel", "image": "https://dynamic-media-cdn.tripadvisor.com/media/partner/bookingcom/photo-o/2c/77/20/c3/caption.jpg?w=1000&s=1", "address": "28 Rue Mercier, Sainte-Therese-de-Gaspe, Quebec G0C 3B0 Canada", "lat": 48.40659, "lng": -64.43128, "ref_id": 15735201, "rating": -1, "num_reviews": 0, "website": null, "contact_phone": null, "contact_email": null, "status": 1, "source_type": 1, "numberReviews": 0}, {"name": "Casa Linda Victoriaville", "type": "hotel", "image": "https://dynamic-media-cdn.tripadvisor.com/media/partner/bookingcom/photo-o/29/2b/ea/9e/caption.jpg?w=1000&s=1", "address": "244 Noel, Princeville, Quebec G6L 5L9 Canada", "lat": 46.149204, "lng": -71.886856, "ref_id": 24031992, "rating": -1, "num_reviews": 0, "website": null, "contact_phone": "+1 819-369-9554", "contact_email": null, "status": 1, "source_type": 1, "numberReviews": 0}, {"name": "Vieux-Old Farnham Appart Condotel1", "type": "hotel", "image": "https://dynamic-media-cdn.tripadvisor.com/media/partner/bookingcom/photo-o/19/b1/e0/95/4295083.jpg?w=1000&s=1", "address": "291 Rue Principale Est, Farnham, Quebec J2N 1L5 Canada", "lat": 45.28431, "lng": -72.97675, "ref_id": 17607266, "rating": -1, "num_reviews": 0, "website": null, "contact_phone": null, "contact_email": null, "status": 1, "source_type": 1, "numberReviews": 0}, {"name": "G\u00eete Sur L'arc en Ciel", "type": "hotel", "image": "https://dynamic-media-cdn.tripadvisor.com/media/partner/bookingcom/photo-o/2b/52/a3/75/caption.jpg?w=1000&s=1", "address": "Chemin de l'Arc en Ciel, Saint-Adrien, Quebec J0A 1C0 Canada", "lat": 45.82799, "lng": -71.76498, "ref_id": 27108854, "rating": -1, "num_reviews": 0, "website": "https://gitesurlarcenciel.com/", "contact_phone": "+1 819-286-8477", "contact_email": "gitesurlarcenciel@outlook.com", "status": 1, "source_type": 1, "numberReviews": 0}, {"name": "Otis Nature", "type": "hotel", "image": "https://dynamic-media-cdn.tripadvisor.com/media/partner/bookingcom/photo-o/2c/ad/53/77/caption.jpg?w=1000&s=1", "address": "2000 Mountain Road, Lamarche, Quebec G0W 1X0 Canada", "lat": 48.834442, "lng": -71.416916, "ref_id": 25447174, "rating": -1, "num_reviews": 0, "website": "https://otisnature.com/", "contact_phone": "+1 418-481-1666", "contact_email": "info@otisnature.com", "status": 1, "source_type": 1, "numberReviews": 0}, {"name": "Auberge Val Menaud", "type": "hotel", "image": null, "address": "362 Rue Principale, Saint-Ambroise, Quebec J0K 1C0 Canada", "lat": 46.08097, "lng": -73.54852, "ref_id": 6583320, "rating": -1, "num_reviews": 0, "website": null, "contact_phone": "+1 418-526-8424", "contact_email": null, "status": 1, "source_type": 1, "numberReviews": 0}, {"name": "Un Apercu du Paradis", "type": "hotel", "image": null, "address": "Chemin des Bernaches, Saint-Gedeon, Quebec G0W 2P0 Canada", "lat": 48.5062, "lng": -71.77787, "ref_id": 15432813, "rating": -1, "num_reviews": 0, "website": null, "contact_phone": null, "contact_email": null, "status": 1, "source_type": 1, "numberReviews": 0}, {"name": "Chambre Chez L'habitant", "type": "hotel", "image": null, "address": "2186 Chemin du Lac, Saint-Felicien, Quebec G8K 3E5 Canada", "lat": 48.68599, "lng": -72.35835, "ref_id": 23432569, "rating": -1, "num_reviews": 0, "website": null, "contact_phone": null, "contact_email": null, "status": 1, "source_type": 1, "numberReviews": 0}, {"name": "Auberge \u00cele du Repos", "type": "hotel", "image": null, "address": "105 Chem. de l'\u00cele du Repos, Sainte-Monique, Quebec G0W 2G0 Canada", "lat": 48.743713, "lng": -71.86197, "ref_id": 23939754, "rating": -1, "num_reviews": 0, "website": "http://www.iledurepos.com/", "contact_phone": "+1 418-347-5649", "contact_email": "iledurepos@bellnet.ca", "status": 1, "source_type": 1, "numberReviews": 0}, {"name": "Gite le Saint-Henri", "type": "hotel", "image": null, "address": "1 President Kennedy street, Saint-Henri-de-Taillon, Quebec G0R 3E0 Canada", "lat": 46.69089, "lng": -71.0683, "ref_id": 2302562, "rating": -1, "num_reviews": 0, "website": null, "contact_phone": "+1 418-882-2274", "contact_email": "info@lesainthenri.com", "status": 1, "source_type": 1, "numberReviews": 0}, {"name": "Auberge Jeunesse saint-prime", "type": "hotel", "image": "https://dynamic-media-cdn.tripadvisor.com/media/photo-o/11/47/76/de/auberge-jeunesse.jpg?w=1000&s=1", "address": "1125 6e Rang, Saint-Prime, Quebec G8J 1X8 Canada", "lat": 48.592213, "lng": -72.44604, "ref_id": 11729034, "rating": -1, "num_reviews": 0, "website": null, "contact_phone": "+1 418-218-0640", "contact_email": "serge.gagno@hotmail.com", "status": 1, "source_type": 1, "numberReviews": 0}, {"name": "Spamania Villa & Mini Loft", "type": "hotel", "image": null, "address": "4740 Bd Trudel E, Saint-Boniface-de-Shawinigan, Quebec G0X 2L0 Canada", "lat": 46.53869, "lng": -72.78, "ref_id": 26219584, "rating": -1, "num_reviews": 0, "website": "https://spamania.ca/", "contact_phone": "+1 819-852-4740", "contact_email": null, "status": 1, "source_type": 1, "numberReviews": 0}, {"name": "La Maison Rodriguez", "type": "hotel", "image": null, "address": "141 Corcoran St St-Alphonse-Rodriguez, St-Alphonse-Rodriguez, Quebec J0K 1W0 Canada", "lat": 46.13224, "lng": -73.66382, "ref_id": 1013542, "rating": -1, "num_reviews": 0, "website": null, "contact_phone": "+1 450-883-1520", "contact_email": "info@maisonrodriguez.ca", "status": 1, "source_type": 1, "numberReviews": 0}, {"name": "Residence Saint Alphonse", "type": "hotel", "image": null, "address": "951 Rue Notre Dame, St-Alphonse-Rodriguez, Quebec J0K 1W0 Canada", "lat": 46.18653, "lng": -73.6914, "ref_id": 12856985, "rating": -1, "num_reviews": 0, "website": null, "contact_phone": null, "contact_email": null, "status": 1, "source_type": 1, "numberReviews": 0}, {"name": "Gite Chez Francine", "type": "hotel", "image": null, "address": "Route 138 260, Val-Racine, Quebec G0T 1A0 Canada", "lat": 48.349705, "lng": -69.4054, "ref_id": 1890803, "rating": -1, "num_reviews": 0, "website": null, "contact_phone": "+1 418-237-4428", "contact_email": "f.laflamme@ccapcable.com", "status": 1, "source_type": 1, "numberReviews": 0}, {"name": "Camping Mercier", "type": "hotel", "image": null, "address": "690, Route 161, Frontenac, Quebec G6B 2S1 Canada", "lat": 45.48325, "lng": -70.87183, "ref_id": 2413406, "rating": -1, "num_reviews": 0, "website": "http://www.tourisme-megantic2.com/bin/files/file_c030.php", "contact_phone": "+1 819-583-4923", "contact_email": "", "status": 1, "source_type": 1, "numberReviews": 0}, {"name": "Chalets de la Montagne", "type": "hotel", "image": null, "address": "122, Chemin Duchesneau, Saint-Hermenegilde, Quebec Canada", "lat": 45.02527, "lng": -71.56785, "ref_id": 1987717, "rating": -1, "num_reviews": 0, "website": null, "contact_phone": "+1 819-849-6909", "contact_email": "celinedube@chaletsdelamontagne.com", "status": 1, "source_type": 1, "numberReviews": 0}, {"name": "Gite Chez Norm", "type": "hotel", "image": null, "address": "126 Gagnon, Princeville, Quebec G6L 4N5 Canada", "lat": 46.16796, "lng": -71.87343, "ref_id": 12908092, "rating": -1, "num_reviews": 0, "website": null, "contact_phone": null, "contact_email": null, "status": 1, "source_type": 1, "numberReviews": 0}, {"name": "Casa Linda", "type": "hotel", "image": null, "address": "244 Rue Noel, Princeville, Quebec G6L 5L9 Canada", "lat": 46.14921, "lng": -71.88685, "ref_id": 24046213, "rating": -1, "num_reviews": 0, "website": null, "contact_phone": "+1 819-369-9554", "contact_email": null, "status": 1, "source_type": 1, "numberReviews": 0}, {"name": "La Maison Jackelson Vue Sur Fleuve", "type": "hotel", "image": null, "address": "552 Route 138, Les Escoumins, Quebec G0T 1K0 Canada", "lat": 48.37662, "lng": -69.36682, "ref_id": 20242700, "rating": -1, "num_reviews": 0, "website": null, "contact_phone": null, "contact_email": null, "status": 1, "source_type": 1, "numberReviews": 0}, {"name": "La Petite Maison Bleue", "type": "hotel", "image": null, "address": "17 Rue Arnaud, Les Escoumins, Quebec G0T 1K0 Canada", "lat": 48.3427, "lng": -69.40838, "ref_id": 19782032, "rating": -1, "num_reviews": 0, "website": null, "contact_phone": null, "contact_email": null, "status": 1, "source_type": 1, "numberReviews": 0}, {"name": "Hillhouse B&B", "type": "hotel", "image": null, "address": "529 Bondville Road, Lac-Brome, Quebec J0E 1R0 Canada", "lat": 45.225452, "lng": -72.567276, "ref_id": 26260991, "rating": -1, "num_reviews": 0, "website": "http://www.bbhillhouse.ca/english-menu.html", "contact_phone": "+1 450-242-2209", "contact_email": "info.bbhillhouse@gmail.com", "status": 1, "source_type": 1, "numberReviews": 0}, {"name": "Motel Beaver Pond", "type": "hotel", "image": null, "address": "26, Ch. Bolton Pass Bolten-Ouest, Lac-Brome, Quebec J0E 2T0 Canada", "lat": 45.16009, "lng": -72.404175, "ref_id": 7827613, "rating": -1, "num_reviews": 0, "website": null, "contact_phone": "+1 450-243-6878", "contact_email": null, "status": 1, "source_type": 1, "numberReviews": 0}, {"name": "Couette & Cafe du 7e Ciel", "type": "hotel", "image": null, "address": "214 7e rang Ouest, Stoke, Quebec J0B 3G0 Canada", "lat": 45.5252, "lng": -71.81437, "ref_id": 1863574, "rating": -1, "num_reviews": 0, "website": null, "contact_phone": "", "contact_email": "", "status": 1, "source_type": 1, "numberReviews": 0}, {"name": "Camping Plein air", "type": "hotel", "image": "https://dynamic-media-cdn.tripadvisor.com/media/photo-o/28/4a/ee/7c/chapiteau-pour-nos-evenements.jpg?w=1000&s=1", "address": "1328 chemin de la Presqu'\u00eele, Lac-des-Iles, Quebec J0W 1J0 Canada", "lat": 46.421906, "lng": -75.52782, "ref_id": 25320055, "rating": -1, "num_reviews": 0, "website": "www.campingpleinair.com", "contact_phone": "+1 819-597-2284", "contact_email": "info@campingpleinair.com", "status": 1, "source_type": 1, "numberReviews": 0}, {"name": "G\u00eete La Temperance B&B", "type": "hotel", "image": null, "address": "441 rue de l'\u00c9glise, Charette, Quebec G0X 1E0 Canada", "lat": 46.444504, "lng": -72.91937, "ref_id": 23600116, "rating": -1, "num_reviews": 0, "website": null, "contact_phone": "+1 819-221-3462", "contact_email": null, "status": 1, "source_type": 1, "numberReviews": 0}, {"name": "VioChalets", "type": "hotel", "image": null, "address": "3246 Chem. Des Plages, Saint-Damien, Quebec J0K 2E0 Canada", "lat": 46.32726, "lng": -73.52904, "ref_id": 26830481, "rating": -1, "num_reviews": 0, "website": "https://viochalets.com/", "contact_phone": "+1 450-386-0260", "contact_email": "viochalets@gmail.com", "status": 1, "source_type": 1, "numberReviews": 0}, {"name": "La Maison De L'\u00eele D'orl\u00e9ans", "type": "hotel", "image": "https://dynamic-media-cdn.tripadvisor.com/media/photo-o/2c/9e/fc/94/si-pour-vous-le-petit.jpg?w=1000&s=1", "address": "21 Route du Mitan Citq #302431, Saint-Jean-de-l'ile-d'Orleans, Quebec G0A 3W0 Canada", "lat": 46.9215, "lng": -70.88985, "ref_id": 23475172, "rating": 5, "num_reviews": 0, "website": "http://www.lamaisondeliledorleans.com", "contact_phone": "+1 581-748-6268", "contact_email": "lamaisondelile@videotron.ca", "status": 1, "source_type": 1, "numberReviews": 162}, {"name": "Au Saut Du Lit", "type": "hotel", "image": "https://dynamic-media-cdn.tripadvisor.com/media/photo-o/1a/7e/93/b8/foyer-au-propane-exterieur.jpg?w=1000&s=1", "address": "224 rue Merry Nord, Magog, Quebec J1X 2E8 Canada", "lat": 45.269665, "lng": -72.15481, "ref_id": 2664468, "rating": 5, "num_reviews": 0, "website": "http://www.ausautdulit.ca", "contact_phone": "+1 888-833-3074", "contact_email": "info@bbausautdulit.com", "status": 1, "source_type": 1, "numberReviews": 262}, {"name": "Domaine Le Bostonnais", "type": "hotel", "image": "https://dynamic-media-cdn.tripadvisor.com/media/photo-s/02/f6/b8/4a/domaine-le-bostonnais.jpg?w=1000&s=1", "address": "2000 Rte 155 N, La Bostonnais, Quebec G9X 0A7 Canada", "lat": 47.57778, "lng": -72.61631, "ref_id": 2276643, "rating": 5, "num_reviews": 0, "website": "http://www.domainelebostonnais.com", "contact_phone": "+1 819-523-5127", "contact_email": "domainelebostonnais@hotmail.com", "status": 1, "source_type": 1, "numberReviews": 185}, {"name": "Auberge Cap aux Corbeaux", "type": "hotel", "image": "https://dynamic-media-cdn.tripadvisor.com/media/photo-o/08/85/79/8a/photo4jpg.jpg?w=1000&s=1", "address": "62 Rue du Nordet, Baie-St-Paul, Quebec G3Z 3C1 Canada", "lat": 47.431007, "lng": -70.45227, "ref_id": 569501, "rating": 4.5, "num_reviews": 0, "website": "https://www.cap-aux-corbeaux.com/en", "contact_phone": "+1 418-435-5676", "contact_email": "", "status": 1, "source_type": 1, "numberReviews": 340}, {"name": "Nature Ocean Chalets", "type": "hotel", "image": "https://dynamic-media-cdn.tripadvisor.com/media/photo-o/0e/7e/78/43/sitting-on-the-comfortable.jpg?w=1000&s=1", "address": "400 Route 132 Ouest, Perce, Quebec G0C 2L0 Canada", "lat": 48.50625, "lng": -64.223274, "ref_id": 2283967, "rating": 4.5, "num_reviews": 0, "website": "http://www.natureocean.com", "contact_phone": "+1 418-782-2400", "contact_email": "jasonpitre@natureocean.com", "status": 1, "source_type": 1, "numberReviews": 192}, {"name": "La Seigneurie des Monts", "type": "hotel", "image": "https://dynamic-media-cdn.tripadvisor.com/media/photo-o/0c/3f/88/31/la-seigneurie-des-monts.jpg?w=1000&s=1", "address": "21 1re Ave E, Sainte Anne des Monts, Quebec G4V 1A2 Canada", "lat": 49.129856, "lng": -66.484, "ref_id": 1852488, "rating": 4, "num_reviews": 0, "website": "http://www.seigneurie-des-monts.com/", "contact_phone": "+1 418-763-5308", "contact_email": "info@aubergelaseigneuriedesmonts.com", "status": 1, "source_type": 1, "numberReviews": 194}, {"name": "Motel Claude", "type": "hotel", "image": "https://dynamic-media-cdn.tripadvisor.com/media/photo-o/0c/6b/c1/5f/motel-claude.jpg?w=1000&s=1", "address": "1077, Ave De L'Accueil, Degelis, Quebec G5T 1P3 Canada", "lat": 47.54405, "lng": -68.6413, "ref_id": 8572942, "rating": 4, "num_reviews": 0, "website": "http://motelclaude.com", "contact_phone": "+1 800-363-3914", "contact_email": "info@motelclaude.com", "status": 1, "source_type": 1, "numberReviews": 45}, {"name": "Chateau de l'Argoat", "type": "hotel", "image": "https://dynamic-media-cdn.tripadvisor.com/media/photo-o/0b/06/51/14/chambre-superieure-2.jpg?w=1000&s=1", "address": "524 Rue Sherbrooke Est, Montreal, Quebec H2L 1K1 Canada", "lat": 45.51852, "lng": -73.566376, "ref_id": 183227, "rating": 4.5, "num_reviews": 0, "website": "", "contact_phone": "+1 514-842-2046", "contact_email": "chateauargoat@videotron.ca", "status": 1, "source_type": 1, "numberReviews": 591}, {"name": "Auberge Handfield Et Spa", "type": "hotel", "image": "https://dynamic-media-cdn.tripadvisor.com/media/photo-o/0f/8f/99/58/auberge-handfield-et.jpg?w=1000&s=1", "address": "555 Richelieu, Saint Marc sur Richelieu, Quebec J0L 2E0 Canada", "lat": 45.67361, "lng": -73.194084, "ref_id": 1162097, "rating": 4.5, "num_reviews": 0, "website": "http://www.aubergehandfield.com/", "contact_phone": "+1 450-584-2226", "contact_email": "info@aubergehandfield.com", "status": 1, "source_type": 1, "numberReviews": 502}, {"name": "Auberge Restaurant La Mara", "type": "hotel", "image": "https://dynamic-media-cdn.tripadvisor.com/media/photo-o/04/17/34/c6/auberge-la-mara.jpg?w=1000&s=1", "address": "127 Chemin Gosford Sud, Ham-Sud, Quebec J0B 3J0 Canada", "lat": 45.73969, "lng": -71.59585, "ref_id": 3397979, "rating": 4.5, "num_reviews": 0, "website": "http://www.aubergelamara.com", "contact_phone": "+1 819-877-5189", "contact_email": "aubergerestaurantlamara@gmail.com", "status": 1, "source_type": 1, "numberReviews": 66}, {"name": "Motel l'Abri", "type": "hotel", "image": "https://dynamic-media-cdn.tripadvisor.com/media/photo-o/1b/be/c3/ad/included-a-kitchenette.jpg?w=1000&s=1", "address": "360, boulevard Perron, Carleton-sur-Mer, Quebec G0C 1J0 Canada", "lat": 48.111786, "lng": -66.145226, "ref_id": 6982473, "rating": 4.5, "num_reviews": 0, "website": "http://www.motellabri.com/", "contact_phone": "+1 800-827-7001", "contact_email": "motellabri@globetrotter.net", "status": 1, "source_type": 1, "numberReviews": 58}, {"name": "Auberge du Vieux Moulin", "type": "hotel", "image": "https://dynamic-media-cdn.tripadvisor.com/media/photo-o/0f/a0/c3/f1/vue-auberge-le-soir.jpg?w=1000&s=1", "address": "200 chemin du Vieux Moulin, Sainte-Emelie-de-L'Energie, Quebec J0K 2K0 Canada", "lat": 46.40285, "lng": -73.71073, "ref_id": 2060492, "rating": 4.5, "num_reviews": 0, "website": "http://www.auberge-lanaudiere.com", "contact_phone": "+1 450-884-0211", "contact_email": "info@auberge-lanaudiere.com", "status": 1, "source_type": 1, "numberReviews": 186}, {"name": "Auberge la Seigneurie", "type": "hotel", "image": "https://dynamic-media-cdn.tripadvisor.com/media/photo-o/0c/84/6c/8b/theo.jpg?w=1000&s=1", "address": "621 St-Jerome, Matane, Quebec Canada", "lat": 48.85073, "lng": -67.53269, "ref_id": 1747440, "rating": 4, "num_reviews": 0, "website": "http://www.aubergelaseigneurie.com/", "contact_phone": "+1 877-783-4466", "contact_email": "info@aubergelaseigneurie.com", "status": 1, "source_type": 1, "numberReviews": 64}, {"name": "Auberge Sur Mer", "type": "hotel", "image": "https://dynamic-media-cdn.tripadvisor.com/media/photo-o/04/32/43/d6/auberge-sur-mer.jpg?w=1000&s=1", "address": "363 Du Fleuve Rd, Notre-Dame-du-Portage, Quebec G0L 1Y0 Canada", "lat": 47.779503, "lng": -69.59912, "ref_id": 1162061, "rating": 4, "num_reviews": 0, "website": "http://www.aubergesurmer.ca", "contact_phone": "+1 418-862-0642", "contact_email": "aubergesurmer@videotron.ca", "status": 1, "source_type": 1, "numberReviews": 213}, {"name": "H\u00f4tel Motel Le Ch\u00e2teauguay", "type": "hotel", "image": "https://dynamic-media-cdn.tripadvisor.com/media/photo-o/18/ae/25/12/chambre-2-lits-doubles.jpg?w=1000&s=1", "address": "3842 Boulevard Ste-Anne, Quebec City, Quebec G1E 3M3 Canada", "lat": 46.8576, "lng": -71.177, "ref_id": 185284, "rating": 3.5, "num_reviews": 0, "website": "http://www.hotelchateauguay.com/", "contact_phone": "+1 418-661-0037", "contact_email": "alex@hotelchateauguay.com", "status": 1, "source_type": 1, "numberReviews": 404}, {"name": "Auberge sur la C\u00f4te", "type": "hotel", "image": "https://dynamic-media-cdn.tripadvisor.com/media/photo-o/07/a4/14/82/ancestral-home-maison.jpg?w=1000&s=1", "address": "205, Ch des Falaises, La Malbaie, Quebec G5A 3C9 Canada", "lat": 47.637672, "lng": -70.151955, "ref_id": 620196, "rating": 4.5, "num_reviews": 0, "website": "http://aubergesurlacote.com/", "contact_phone": "+1 418-202-9881", "contact_email": "info@aubergesurlacote.com", "status": 1, "source_type": 1, "numberReviews": 58}, {"name": "Auberge Comme Au Premier Jour", "type": "hotel", "image": "https://dynamic-media-cdn.tripadvisor.com/media/photo-o/13/f9/a4/cc/piscine-de-l-auberge.jpg?w=1000&s=1", "address": "224 Boulevard Begin, Saint Pacome, Quebec G0L 3X0 Canada", "lat": 47.410095, "lng": -69.94733, "ref_id": 1880366, "rating": 4.5, "num_reviews": 0, "website": "http://www.aubergecommeaupremierjour.com", "contact_phone": "+1 418-852-1377", "contact_email": "commeaupremierjour@bellnet.ca", "status": 1, "source_type": 1, "numberReviews": 53}, {"name": "Au Domaine De La Giroux-Ette", "type": "hotel", "image": "https://dynamic-media-cdn.tripadvisor.com/media/photo-o/18/8a/94/01/au-domaine-de-la-giroux.jpg?w=1000&s=1", "address": "141 Route 212 Est, La Patrie, Quebec J0B 1Y0 Canada", "lat": 45.39447, "lng": -71.14758, "ref_id": 17782959, "rating": 5, "num_reviews": 0, "website": "https://lagiroux-ette.com/", "contact_phone": "+1 819-888-0204", "contact_email": "info@lagiroux-ette.com", "status": 1, "source_type": 1, "numberReviews": 12}, {"name": "Le Pimbina", "type": "hotel", "image": "https://dynamic-media-cdn.tripadvisor.com/media/photo-o/26/4b/06/28/pimbina-spa-massage.jpg?w=1000&s=1", "address": "1239 Labelle street, Mont Tremblant, Quebec J8E 2N5 Canada", "lat": 46.138252, "lng": -74.588974, "ref_id": 620689, "rating": 5, "num_reviews": 0, "website": "http://www.pimbina.com/", "contact_phone": "+1 819-681-0746", "contact_email": "info@pimbina.com", "status": 1, "source_type": 1, "numberReviews": 259}, {"name": "Maison Cadorette", "type": "hotel", "image": "https://dynamic-media-cdn.tripadvisor.com/media/photo-o/1c/a4/c3/e7/chambre-la-chasse-galerie.jpg?w=1000&s=1", "address": "1701, Chemin de St-Jean-des-Piles Shawinigan, Qu\u00e9bec, Saint-Jean-des-Piles, Shawinigan, Quebec G0X 2V0 Canada", "lat": 46.693314, "lng": -72.742165, "ref_id": 2289727, "rating": 4.5, "num_reviews": 0, "website": "www.maisoncadorette.com", "contact_phone": "+1 819-538-9883", "contact_email": "maisoncadorette@gmail.com", "status": 1, "source_type": 1, "numberReviews": 17}, {"name": "Auberge la Fjordelaise", "type": "hotel", "image": "https://dynamic-media-cdn.tripadvisor.com/media/photo-s/01/4f/61/27/l-auberge.jpg?w=1000&s=1", "address": "370 St-Jean-Baptiste,, L'Anse-Saint-Jean, Quebec G0V 1J0 Canada", "lat": 48.24432, "lng": -70.17701, "ref_id": 1566749, "rating": 4.5, "num_reviews": 0, "website": "", "contact_phone": "+1 418-272-2560", "contact_email": "infos@fjordelaise.com", "status": 1, "source_type": 1, "numberReviews": 217}, {"name": "A L'Ancestrale B & B", "type": "hotel", "image": "https://dynamic-media-cdn.tripadvisor.com/media/photo-o/06/b6/82/39/a-l-ancestrale-b-b.jpg?w=1000&s=1", "address": "200 Abbott, Magog, Quebec J1X 2H5 Canada", "lat": 45.26924, "lng": -72.15373, "ref_id": 258427, "rating": 4.5, "num_reviews": 0, "website": "http://www.ancestrale.com", "contact_phone": "+1 819-847-5555", "contact_email": "info@ancestrale.com", "status": 1, "source_type": 1, "numberReviews": 75}, {"name": "Quality Inn", "type": "hotel", "image": "https://dynamic-media-cdn.tripadvisor.com/media/photo-o/23/e1/27/15/hotel-exterior.jpg?w=1000&s=1", "address": "1009 Boulevard Laure, Sept Iles, Quebec G4R 0S9 Canada", "lat": 50.22715, "lng": -66.392, "ref_id": 7843554, "rating": 4, "num_reviews": 0, "website": "http://www.qualityinn.com/hotel-septiles-canada-CNA46", "contact_phone": "+1 418-960-5600", "contact_email": "gm.cna46@choicehotels.com", "status": 1, "source_type": 1, "numberReviews": 51}, {"name": "Gite Crystal-Inn B&B Mont Tremblant", "type": "hotel", "image": "https://dynamic-media-cdn.tripadvisor.com/media/photo-o/10/62/21/f4/spa-crystal-inn-b-b-mont.jpg?w=1000&s=1", "address": "100 Joseph Thibault, Mont Tremblant, Quebec J8E 2G4 Canada", "lat": 46.142223, "lng": -74.61909, "ref_id": 573220, "rating": 5, "num_reviews": 0, "website": "http://www.crystal-inn.com/", "contact_phone": "+1 819-681-7775", "contact_email": "gitecrystalinn@gmail.com", "status": 1, "source_type": 1, "numberReviews": 257}, {"name": "Hotel Kennedy", "type": "hotel", "image": "https://dynamic-media-cdn.tripadvisor.com/media/photo-s/01/7a/a1/e3/superior-room.jpg?w=1000&s=1", "address": "129, Route du President Kennedy, Levis, Quebec G6V 6C8 Canada", "lat": 46.787865, "lng": -71.16514, "ref_id": 183209, "rating": 4, "num_reviews": 0, "website": "http://www.hotelkennedy.ca/confort-407-accueil.php", "contact_phone": "+1 418-837-0233", "contact_email": "info@hotelkennedy.ca", "status": 1, "source_type": 1, "numberReviews": 175}, {"name": "Auberge Presbytere Mont Lac-Vert", "type": "hotel", "image": "https://dynamic-media-cdn.tripadvisor.com/media/photo-o/23/b3/04/36/auberge-presbytere-mont.jpg?w=1000&s=1", "address": "335, rang Lac-Vert R\u00e9gion Lac St-Jean, Hebertville, Quebec G8N 1M1 Canada", "lat": 48.35995, "lng": -71.64058, "ref_id": 668718, "rating": 4, "num_reviews": 0, "website": "https://aubergepresbytere.com/", "contact_phone": "+1 418-344-1548", "contact_email": "info@aubergeprebytere.com", "status": 1, "source_type": 1, "numberReviews": 52}, {"name": "La Maison entre Mer et Montagnes S.E.N.C.", "type": "hotel", "image": "https://dynamic-media-cdn.tripadvisor.com/media/photo-o/0c/20/1a/55/facade-du-gite-la-maison.jpg?w=1000&s=1", "address": "6, Notre-Dame E, Cap-Chat, Quebec G0J 1E0 Canada", "lat": 49.097294, "lng": -66.680885, "ref_id": 3975422, "rating": 4.5, "num_reviews": 0, "website": null, "contact_phone": "+1 418-786-3071", "contact_email": "lamaisonentremeretmontagnes@gmail.com", "status": 1, "source_type": 1, "numberReviews": 34}, {"name": "Eco Spa Highland", "type": "hotel", "image": "https://dynamic-media-cdn.tripadvisor.com/media/photo-o/0c/da/a0/55/eco-spa-highland.jpg?w=1000&s=1", "address": "18 Mountain Road, Grenville-sur-la-Rouge, Quebec J0V 1B0 Canada", "lat": 45.771732, "lng": -74.643745, "ref_id": 9463955, "rating": 4.5, "num_reviews": 0, "website": "http://www.ecospahighland.com/", "contact_phone": "+1 855-532-6772", "contact_email": "info@ecospahighland.com", "status": 1, "source_type": 1, "numberReviews": 54}, {"name": "Gite Saint-Laurent", "type": "hotel", "image": "https://dynamic-media-cdn.tripadvisor.com/media/photo-o/06/85/8e/d1/gite-saint-laurent.jpg?w=1000&s=1", "address": "4551, Rue Notre Dame O, Trois-Rivieres, Quebec G9A 4Z4 Canada", "lat": 46.321102, "lng": -72.56154, "ref_id": 679418, "rating": 4.5, "num_reviews": 0, "website": null, "contact_phone": "+1 819-378-3533", "contact_email": null, "status": 1, "source_type": 1, "numberReviews": 45}, {"name": "Econo Lodge", "type": "hotel", "image": "https://dynamic-media-cdn.tripadvisor.com/media/photo-o/2c/91/2f/31/hotel-exterior.jpg?w=1000&s=1", "address": "11 Rue des Pins, Deschambault-Grondines, Quebec G0A 1S0 Canada", "lat": 46.63898, "lng": -71.99639, "ref_id": 1480719, "rating": 3.5, "num_reviews": 0, "website": "https://www.choicehotels.com/fr-ca/quebec/deschambault/econo-lodge-hotels/cnc11?", "contact_phone": "+1 418-286-4959", "contact_email": null, "status": 1, "source_type": 1, "numberReviews": 21}, {"name": "Kilometre 42", "type": "hotel", "image": "https://dynamic-media-cdn.tripadvisor.com/media/photo-o/11/bc/ac/46/kilometre-42.jpg?w=1000&s=1", "address": "2500 rue Faubert, Val David, Quebec J0T 2N0 Canada", "lat": 46.02599, "lng": -74.19974, "ref_id": 1863910, "rating": 5, "num_reviews": 0, "website": "http://www.km42.ca", "contact_phone": "+1 819-322-6060", "contact_email": "info@km42.ca", "status": 1, "source_type": 1, "numberReviews": 5}, {"name": "BOHO Boutique-Hostels - Dunham", "type": "hotel", "image": "https://dynamic-media-cdn.tripadvisor.com/media/photo-o/17/43/25/78/chambre-partages-au-hotel.jpg?w=1000&s=1", "address": "3809 Rue Principale, Dunham, Quebec J0E 1M0 Canada", "lat": 45.13031, "lng": -72.80026, "ref_id": 17149790, "rating": 4, "num_reviews": 0, "website": "http://www.bohodunham.com/", "contact_phone": "+1 514-549-3738", "contact_email": "info@bohodunham.com", "status": 1, "source_type": 1, "numberReviews": 6}, {"name": "Gite J.A Dufour", "type": "hotel", "image": "https://dynamic-media-cdn.tripadvisor.com/media/photo-o/10/25/ae/6a/l-environnement-inoubliable.jpg?w=1000&s=1", "address": "170 Principale, Saint-Alexis-de-Matapedia, Quebec G0J 2E0 Canada", "lat": 47.97003, "lng": -67.04998, "ref_id": 3349016, "rating": 4, "num_reviews": 0, "website": null, "contact_phone": "+1 418-299-3040", "contact_email": null, "status": 1, "source_type": 1, "numberReviews": 12}, {"name": "Auberge Laetus Le Joyeux", "type": "hotel", "image": "https://dynamic-media-cdn.tripadvisor.com/media/photo-o/04/0b/ef/e7/auberge-laetus-le-joyeux.jpg?w=1000&s=1", "address": "4333, chemin du lac Brennan, Rawdon, Quebec J0K 1S0 Canada", "lat": 46.07641, "lng": -73.77305, "ref_id": 2289750, "rating": 4, "num_reviews": 0, "website": "http://www.aubergelaetus.com", "contact_phone": "001 450 864 23 64", "contact_email": "contact@aubergelaetus.com", "status": 1, "source_type": 1, "numberReviews": 16}, {"name": "Hotel Les Mouettes", "type": "hotel", "image": "https://dynamic-media-cdn.tripadvisor.com/media/photo-o/12/7d/73/b1/hotel-les-mouettes.jpg?w=1000&s=1", "address": "842 Laure Centre ville \u00e0 c\u00f4t\u00e9 du restaurant Mike's, Sept Iles, Quebec G4R 1Y7 Canada", "lat": 50.22452, "lng": -66.389, "ref_id": 535901, "rating": 3.5, "num_reviews": 0, "website": "http://www.hotellesmouettes.com/", "contact_phone": "+1 418-962-9427", "contact_email": "reception@hotellesmouettes.com", "status": 1, "source_type": 1, "numberReviews": 18}, {"name": "Auberge de l'Eveche", "type": "hotel", "image": "https://dynamic-media-cdn.tripadvisor.com/media/photo-s/01/51/d7/0c/our-bedroom.jpg?w=1000&s=1", "address": "37, rue de l'Eveche, Rimouski, Quebec Canada", "lat": 48.447872, "lng": -68.52517, "ref_id": 1177575, "rating": 3.5, "num_reviews": 0, "website": null, "contact_phone": "+1 866-623-5411", "contact_email": "aubergeeveche@hotmail.com", "status": 1, "source_type": 1, "numberReviews": 66}, {"name": "Motel L'Anse De La Lanterne", "type": "hotel", "image": "https://dynamic-media-cdn.tripadvisor.com/media/photo-o/10/d1/76/4c/photo1jpg.jpg?w=1000&s=1", "address": "636 Rue Notre-Dame, Montebello, Quebec J0V 1L0 Canada", "lat": 45.65016, "lng": -74.9355, "ref_id": 10051470, "rating": 3.5, "num_reviews": 0, "website": null, "contact_phone": null, "contact_email": null, "status": 1, "source_type": 1, "numberReviews": 30}, {"name": "Motel Domaine L'avantage Inn", "type": "hotel", "image": "https://dynamic-media-cdn.tripadvisor.com/media/photo-o/10/ce/f2/d2/motel-l-avantage.jpg?w=1000&s=1", "address": "112 Boul De L'Anse, Roberval, Quebec G8H 1Y9 Canada", "lat": 48.49553, "lng": -72.217384, "ref_id": 5462013, "rating": 3.5, "num_reviews": 0, "website": "http://www.motel-avantage.com/", "contact_phone": "+1 418-275-4880", "contact_email": null, "status": 1, "source_type": 1, "numberReviews": 31}, {"name": "Hotel Le Versailles", "type": "hotel", "image": "https://dynamic-media-cdn.tripadvisor.com/media/photo-o/08/7c/fa/92/quality-inn-suites-le.jpg?w=1000&s=1", "address": "50 Rue Principale, Saint Sauveur des Monts, Quebec J0R 1R6 Canada", "lat": 45.899418, "lng": -74.1455, "ref_id": 1234309, "rating": 3.5, "num_reviews": 0, "website": "https://www.facebook.com/hotelversaillesstsauveur/", "contact_phone": "+1 450-240-0808", "contact_email": "info@hotelversailles.ca", "status": 1, "source_type": 1, "numberReviews": 213}, {"name": "Quality Inn Mont Laurier", "type": "hotel", "image": "https://dynamic-media-cdn.tripadvisor.com/media/photo-o/23/b0/15/82/hotel-exterior.jpg?w=1000&s=1", "address": "111 boulevard Albiny-Paquette, Mont Laurier, Quebec J9L 1J2 Canada", "lat": 46.55021, "lng": -75.5135, "ref_id": 1200566, "rating": 3.5, "num_reviews": 0, "website": "http://www.qualityinn.com", "contact_phone": "+1 800-346-3557", "contact_email": "info@qualityinn-ml.ca", "status": 1, "source_type": 1, "numberReviews": 48}, {"name": "Maison Coslett Saunders", "type": "hotel", "image": "https://dynamic-media-cdn.tripadvisor.com/media/photo-o/14/7c/7c/85/best-breakfast-ever.jpg?w=1000&s=1", "address": "33 Rue De La Rivi\u00e8re, Bedford, Quebec J0J 1A0 Canada", "lat": 45.11934, "lng": -72.98514, "ref_id": 8432626, "rating": 5, "num_reviews": 0, "website": "https://fr-ca.facebook.com/pg/Monique1959.ca/about/?ref=page_internal", "contact_phone": "+1 514-755-8632", "contact_email": null, "status": 1, "source_type": 1, "numberReviews": 6}, {"name": "Oasis du Vieux Longueuil", "type": "hotel", "image": "https://dynamic-media-cdn.tripadvisor.com/media/photo-o/13/7d/71/f4/lovely-backyard.jpg?w=1000&s=1", "address": "318 rue de Longueuil, Longueuil, Quebec J4H 1H4 Canada", "lat": 45.53692, "lng": -73.51065, "ref_id": 2587160, "rating": 4.5, "num_reviews": 0, "website": "http://pages.videotron.com/loasis", "contact_phone": "+1 450-670-9839", "contact_email": "luc.ginette@videotron.ca", "status": 1, "source_type": 1, "numberReviews": 7}, {"name": "Auberge Taylor Manor", "type": "hotel", "image": "https://dynamic-media-cdn.tripadvisor.com/media/photo-o/0d/c8/f8/69/siegneur-s-room.jpg?w=1000&s=1", "address": "540 Route Taylor Cumberland Mills St-Georges, Beauce, Saint Georges, Quebec G5Y 5C2 Canada", "lat": 46.198555, "lng": -70.623726, "ref_id": 8154276, "rating": 4.5, "num_reviews": 0, "website": "http://www.aubergetaylormanor.ca", "contact_phone": "+1 418-228-7329", "contact_email": "jamesdeanhunter@gmail.com", "status": 1, "source_type": 1, "numberReviews": 12}, {"name": "McGill Student Apartments", "type": "hotel", "image": "https://dynamic-media-cdn.tripadvisor.com/media/photo-o/08/9d/47/d3/photo7jpg.jpg?w=1000&s=1", "address": "3935 rue University, Montreal, Quebec H3A 2B4 Canada", "lat": 45.507885, "lng": -73.5856, "ref_id": 185751, "rating": 4.5, "num_reviews": 0, "website": "http://www.mcgill.ca/residences/", "contact_phone": "+1 514-398-6367", "contact_email": "", "status": 1, "source_type": 1, "numberReviews": 15}, {"name": "G\u00eete au Pied Lev\u00e9", "type": "hotel", "image": "https://dynamic-media-cdn.tripadvisor.com/media/photo-o/0d/ce/7a/90/photo4jpg.jpg?w=1000&s=1", "address": "1107 chemin Fitch Bay, Magog, Quebec J1X 3W2 Canada", "lat": 45.178024, "lng": -72.14087, "ref_id": 8857272, "rating": 4, "num_reviews": 0, "website": "http://www.aupiedleve.ca/", "contact_phone": "+1 819-843-6143", "contact_email": "fermeaupiedleve@gmail.com", "status": 1, "source_type": 1, "numberReviews": 27}, {"name": "La Ruelle H\u00e9bergement", "type": "hotel", "image": "https://dynamic-media-cdn.tripadvisor.com/media/photo-o/1c/0d/1b/d5/la-ruelle-hebergement.jpg?w=1000&s=1", "address": "253, Boulevard Perron Est, Saint-Simeon, Quebec G0C 3A0 Canada", "lat": 48.06908, "lng": -65.56072, "ref_id": 21298325, "rating": 5, "num_reviews": 0, "website": "http://laruelle.ca", "contact_phone": "+1 418-534-4143", "contact_email": "hebergement@laruelle.ca", "status": 1, "source_type": 1, "numberReviews": 3}, {"name": "Au Coin De La Berge", "type": "hotel", "image": "https://dynamic-media-cdn.tripadvisor.com/media/photo-o/19/b2/66/67/petit-coucou-a-la-fenetre.jpg?w=1000&s=1", "address": "564 Route 132 Ouest, Perce, Quebec G0C 2L0 Canada", "lat": 48.49167, "lng": -64.26378, "ref_id": 2282204, "rating": 4, "num_reviews": 0, "website": "http://www.giteaucoindelaberge.com/", "contact_phone": "+1 418-782-1441", "contact_email": "info@giteaucoindelaberge.com", "status": 1, "source_type": 1, "numberReviews": 20}, {"name": "Auberge Motel Godard", "type": "hotel", "image": "https://dynamic-media-cdn.tripadvisor.com/media/photo-o/11/0c/84/63/auberge-motel-godard.jpg?w=1000&s=1", "address": "3838 Route 117, Nominingue, Quebec J0W 1R0 Canada", "lat": 46.46304, "lng": -74.94414, "ref_id": 1523199, "rating": 4, "num_reviews": 0, "website": "http://www.aubergegodard.com/", "contact_phone": "+1 819-275-2026", "contact_email": "", "status": 1, "source_type": 1, "numberReviews": 12}, {"name": "Au Reve Fleuri", "type": "hotel", "image": "https://dynamic-media-cdn.tripadvisor.com/media/photo-o/10/c6/64/ad/photo0jpg.jpg?w=1000&s=1", "address": "1474, Rue de Vinci, Quebec City, Quebec G2G 1P5 Canada", "lat": 46.7731, "lng": -71.37077, "ref_id": 1654348, "rating": 4.5, "num_reviews": 0, "website": null, "contact_phone": "+1 418-872-0117", "contact_email": "", "status": 1, "source_type": 1, "numberReviews": 9}, {"name": "Auberge Willow Inn", "type": "hotel", "image": "https://dynamic-media-cdn.tripadvisor.com/media/photo-o/17/29/72/c2/auberge-willow-inn.jpg?w=1000&s=1", "address": "208 Rue Main, Hudson, Quebec J0P 1H0 Canada", "lat": 45.44822, "lng": -74.10803, "ref_id": 15053566, "rating": 4, "num_reviews": 0, "website": "https://aubergewillowinn.com/", "contact_phone": null, "contact_email": null, "status": 1, "source_type": 1, "numberReviews": 8}, {"name": "Auberge Aux Mille P\u00eacher", "type": "hotel", "image": "https://dynamic-media-cdn.tripadvisor.com/media/photo-o/1a/df/6c/a3/auberge-aux-mille-pecher.jpg?w=1000&s=1", "address": "156 Pascal-Comeau, Godbout, Quebec G0H 1G0 Canada", "lat": 49.3238, "lng": -67.59345, "ref_id": 7089466, "rating": 5, "num_reviews": 0, "website": "http://aubergemillepecher.com", "contact_phone": "+1 418-568-7535", "contact_email": "bonjour@aubergemillepecher.com", "status": 1, "source_type": 1, "numberReviews": 5}, {"name": "Condos De La Mer", "type": "hotel", "image": "https://dynamic-media-cdn.tripadvisor.com/media/photo-o/08/87/b1/c5/exterieur-de-la-maison.jpg?w=1000&s=1", "address": "109, rue de la Mer, Longue-Pointe-de-Mingan, Quebec G0G 1V0 Canada", "lat": 50.27228, "lng": -64.13354, "ref_id": 3492955, "rating": 4, "num_reviews": 0, "website": "http://www.tourisme-loiselle.com/fr/condos.html", "contact_phone": "+1 418-949-2307", "contact_email": null, "status": 1, "source_type": 1, "numberReviews": 10}, {"name": "Aux Portes du Temps", "type": "hotel", "image": "https://dynamic-media-cdn.tripadvisor.com/media/photo-s/01/ed/61/8e/caption.jpg?w=1000&s=1", "address": "573 Route 222, Roxton Falls, Quebec J0H 1E0 Canada", "lat": 45.57734, "lng": -72.51432, "ref_id": 2200937, "rating": 5, "num_reviews": 0, "website": "http://www.auxportesdumedieval.com", "contact_phone": "+1 450-548-2245", "contact_email": "costumiere@xplornet.com", "status": 1, "source_type": 1, "numberReviews": 7}, {"name": "Gite la Bonne Bouffe", "type": "hotel", "image": "https://dynamic-media-cdn.tripadvisor.com/media/photo-o/0d/06/65/4c/gite-la-bonne-bouffe.jpg?w=1000&s=1", "address": "4902 Ch. De L\u2019Ile, Notre-Dame-des-Sept-Douleurs, Quebec G0L 1K0 Canada", "lat": null, "lng": null, "ref_id": 8505584, "rating": 5, "num_reviews": 0, "website": "http://www.gitelabonnebouffe.com/index.html", "contact_phone": "+1 418-898-3325", "contact_email": null, "status": 1, "source_type": 1, "numberReviews": 7}, {"name": "Auberge Eva", "type": "hotel", "image": "https://dynamic-media-cdn.tripadvisor.com/media/photo-o/11/14/93/77/loft-12-personnes.jpg?w=1000&s=1", "address": "160 Chemin de la Montagne, Lac-Bouchette, Quebec G0W 1V0 Canada", "lat": 48.24886, "lng": -72.210434, "ref_id": 6984937, "rating": 3.5, "num_reviews": 0, "website": "http://aubergeeva.com", "contact_phone": "+1 418-348-6832", "contact_email": "info@centrevacancesnature.com", "status": 1, "source_type": 1, "numberReviews": 17}, {"name": "Maison Tim", "type": "hotel", "image": "https://dynamic-media-cdn.tripadvisor.com/media/photo-o/08/76/91/9a/otra-habitacion.jpg?w=1000&s=1", "address": "84 rue St. Louis, Quebec City, Quebec G1R 3Z5 Canada", "lat": 46.81039, "lng": -71.20969, "ref_id": 6822947, "rating": 4.5, "num_reviews": 0, "website": null, "contact_phone": "+1 418-694-0776", "contact_email": "maisontim@hotmail.com", "status": 1, "source_type": 1, "numberReviews": 8}, {"name": "Gite Zazen", "type": "hotel", "image": "https://dynamic-media-cdn.tripadvisor.com/media/photo-o/14/2e/86/c0/deuxieme-partie-du-petit.jpg?w=1000&s=1", "address": "191 rue de la Madone, Mont Laurier, Quebec J9L 1R1 Canada", "lat": 46.5494, "lng": -75.50812, "ref_id": 12136040, "rating": 4.5, "num_reviews": 0, "website": "http://www.gitezazen.com/", "contact_phone": "+1 819-499-0829", "contact_email": "gitezazen@gmail.com", "status": 1, "source_type": 1, "numberReviews": 7}, {"name": "Sunset Suites", "type": "hotel", "image": "https://dynamic-media-cdn.tripadvisor.com/media/photo-o/14/d0/d3/c6/living-room.jpg?w=1000&s=1", "address": "2445 Sunset Rd, Montreal, Quebec H3R 2Y9 Canada", "lat": 45.51638, "lng": -73.65661, "ref_id": 307079, "rating": 3.5, "num_reviews": 0, "website": "http://www.sunsetsuites.com/", "contact_phone": "+1 514-806-7711", "contact_email": "info@sunsetsuites.com", "status": 1, "source_type": 1, "numberReviews": 44}, {"name": "G\u00eete Chez Rosemarie", "type": "hotel", "image": "https://dynamic-media-cdn.tripadvisor.com/media/photo-o/18/4b/08/a2/gite-chez-rosemarie.jpg?w=1000&s=1", "address": "2322 Route 132 Est, Le Bic, Rimouski, Quebec G0L 1B0 Canada", "lat": 48.39274, "lng": -68.66772, "ref_id": 1532039, "rating": 4, "num_reviews": 0, "website": "http://www.gitechezrosemarie.com", "contact_phone": "+1 418-736-4954", "contact_email": "contact@gitechezrosemarie.com", "status": 1, "source_type": 1, "numberReviews": 8}, {"name": "H\u00f4tel de la Rive", "type": "hotel", "image": "https://dynamic-media-cdn.tripadvisor.com/media/photo-o/19/e2/0e/9f/nouveaute-o-spa-nordique.jpg?w=1000&s=1", "address": "165 Chemin Ste-Anne, Sorel-Tracy, Quebec J3P 6J7 Canada", "lat": 46.049477, "lng": -73.08983, "ref_id": 1380851, "rating": 3.5, "num_reviews": 0, "website": "http://www.hoteldelarive.com", "contact_phone": "+1 450-742-5691", "contact_email": "info@hoteldelarive.com", "status": 1, "source_type": 1, "numberReviews": 100}, {"name": "Condos Chateau-Bromont", "type": "hotel", "image": "https://dynamic-media-cdn.tripadvisor.com/media/photo-o/18/95/77/25/condos-chateau-bromont.jpg?w=1000&s=1", "address": "Rue de Bagot, Bromont, Quebec J2L 1M6 Canada", "lat": 45.30328, "lng": -72.63384, "ref_id": 17499976, "rating": 4, "num_reviews": 0, "website": null, "contact_phone": null, "contact_email": null, "status": 1, "source_type": 1, "numberReviews": 18}, {"name": "Hotel Motel du Havre", "type": "hotel", "image": "https://dynamic-media-cdn.tripadvisor.com/media/photo-o/10/3e/7e/e2/la-poignee-de-porte-visible.jpg?w=1000&s=1", "address": "970 boulevard de l'Escale, Havre St. Pierre, Quebec G0G 1P0 Canada", "lat": 50.244293, "lng": -63.605797, "ref_id": 2208171, "rating": 3.5, "num_reviews": 0, "website": "http://www.hotelduhavre.ca", "contact_phone": "+1 418-538-2800", "contact_email": "info@hotelduhavre.ca", "status": 1, "source_type": 1, "numberReviews": 63}, {"name": "Restaurant Motel le Rond Point", "type": "hotel", "image": "https://dynamic-media-cdn.tripadvisor.com/media/photo-o/12/e5/06/12/20180508-202604-largejpg.jpg?w=1000&s=1", "address": "1773 Route 169, Metabetchouan-Lac-a-la-Croix, Quebec G8G 1A8 Canada", "lat": 48.43485, "lng": -71.85609, "ref_id": 8872326, "rating": 4, "num_reviews": 0, "website": "http://www.motelrondpoint.com/", "contact_phone": "+1 418-349-3413", "contact_email": null, "status": 1, "source_type": 1, "numberReviews": 17}, {"name": "Camping La Cl\u00e9 des Champs Complexe VR", "type": "hotel", "image": "https://dynamic-media-cdn.tripadvisor.com/media/photo-o/1d/00/fb/0f/camping-la-cle-des-champs.jpg?w=1000&s=1", "address": "415 Mont\u00e9e St Claude, Saint-Philippe, Quebec J0L 2K0 Canada", "lat": 45.36272, "lng": -73.44325, "ref_id": 10804135, "rating": 4.5, "num_reviews": 0, "website": "http://campinglacledeschamps.com/", "contact_phone": "+1 450-659-3389", "contact_email": "info@campinglacledeschamps.com", "status": 1, "source_type": 1, "numberReviews": 13}, {"name": "Le Philemon", "type": "hotel", "image": "https://dynamic-media-cdn.tripadvisor.com/media/photo-o/07/10/7f/12/le-philemon.jpg?w=1000&s=1", "address": "47, Dumas street, Gatineau, Quebec J8Y 2N2 Canada", "lat": 45.43742, "lng": -75.73612, "ref_id": 1420803, "rating": 4.5, "num_reviews": 0, "website": "http://www.lephilemon.com", "contact_phone": "+1 819-776-0769", "contact_email": "info@lephilemon.com", "status": 1, "source_type": 1, "numberReviews": 15}, {"name": "Gite la Jeanne-Claire Couette et Caf\u00e9", "type": "hotel", "image": "https://dynamic-media-cdn.tripadvisor.com/media/photo-o/1a/ef/d9/fc/gite-la-jeanne-claire.jpg?w=1000&s=1", "address": "303 5 Ave, Saint-Gabriel-de-Valcartier, Quebec G0A 4S0 Canada", "lat": 47.031788, "lng": -71.48283, "ref_id": 4799478, "rating": 5, "num_reviews": 0, "website": "http://www.lajeanneclaire.com/", "contact_phone": "+1 418-848-3093", "contact_email": "mc.gaumond@lajeanneclaire.com", "status": 1, "source_type": 1, "numberReviews": 10}, {"name": "Auberge Radisson", "type": "hotel", "image": "https://dynamic-media-cdn.tripadvisor.com/media/photo-o/07/41/5a/01/lounge-53.jpg?w=1000&s=1", "address": "66 Avenue des Groseillers, Baie-James, Quebec J0Y 2X0 Canada", "lat": 53.792755, "lng": -77.6143, "ref_id": 1486464, "rating": 4, "num_reviews": 0, "website": "http://www.aubergeradisson.com/", "contact_phone": "+1 819-638-7201", "contact_email": "auberge@aubergeradisson.ca", "status": 1, "source_type": 1, "numberReviews": 27}, {"name": "Moulin Banal du Ruisseau a la Loutre", "type": "hotel", "image": "https://dynamic-media-cdn.tripadvisor.com/media/photo-o/06/7c/d9/e5/moulin-banal-du-ruisseau.jpg?w=1000&s=1", "address": "156, route du Fleuve Ouest, Sainte-Luce-sur-Mer, Quebec G0K 1P0 Canada", "lat": 48.55585, "lng": -68.34154, "ref_id": 1484406, "rating": 5, "num_reviews": 0, "website": "http://www.giteetaubergedupassant.com/moulinbanal", "contact_phone": "+1 418-739-3076", "contact_email": "", "status": 1, "source_type": 1, "numberReviews": 15}, {"name": "Motel Princesse", "type": "hotel", "image": "https://dynamic-media-cdn.tripadvisor.com/media/photo-o/14/38/d7/68/chambre.jpg?w=1000&s=1", "address": "2166 rue des \u00c9tudiants, Jonquiere, Saguenay, Quebec G7X 9E1 Canada", "lat": 48.4157, "lng": -71.2281, "ref_id": 4678601, "rating": 3.5, "num_reviews": 0, "website": "http://www.motelprincesse.ca/", "contact_phone": "+1 418-542-8106", "contact_email": "contact@motelprincesse.ca", "status": 1, "source_type": 1, "numberReviews": 33}, {"name": "Club Notawissi", "type": "hotel", "image": "https://dynamic-media-cdn.tripadvisor.com/media/photo-o/28/49/63/5e/quelques-photos-de-notre.jpg?w=1000&s=1", "address": "Cp 280, Sainte-Anne-du-Lac, Quebec J0W 1V0 Canada", "lat": 47.108078, "lng": -75.4591, "ref_id": 25325589, "rating": 5, "num_reviews": 0, "website": "www.notawissi.com", "contact_phone": "+1 819-623-2525", "contact_email": "info@notawissi.com", "status": 1, "source_type": 1, "numberReviews": 6}, {"name": "Motel Du Fleuve", "type": "hotel", "image": "https://dynamic-media-cdn.tripadvisor.com/media/photo-o/14/7f/c5/fb/sunset.jpg?w=1000&s=1", "address": "5800 Boul. Marie Victorin, Brossard, Quebec J4W 1A4 Canada", "lat": 45.473, "lng": -73.4977, "ref_id": 3386675, "rating": 3.5, "num_reviews": 0, "website": "http://www.moteldufleuve.ca", "contact_phone": "+1 450-671-6754", "contact_email": "info@moteldufleuve.ca", "status": 1, "source_type": 1, "numberReviews": 63}, {"name": "British Hotel", "type": "hotel", "image": "https://dynamic-media-cdn.tripadvisor.com/media/photo-o/11/4a/ea/68/201-tchorewski.jpg?w=1000&s=1", "address": "71 rue Principale, Gatineau, Quebec J9H 3L6 Canada", "lat": 45.39486, "lng": -75.84722, "ref_id": 12109540, "rating": 4, "num_reviews": 0, "website": "http://thebritish.ca/en/hotel-en/", "contact_phone": "+1 819-682-3000", "contact_email": "info@thebritish.ca", "status": 1, "source_type": 1, "numberReviews": 34}, {"name": "Grey Nuns Residence", "type": "hotel", "image": "https://dynamic-media-cdn.tripadvisor.com/media/photo-o/08/48/e2/df/grey-nuns-residence.jpg?w=1000&s=1", "address": "1190 Guy Street Concordia University, Montreal, Quebec H3H 2L4 Canada", "lat": 45.494064, "lng": -73.5761, "ref_id": 2510574, "rating": 3.5, "num_reviews": 0, "website": "https://www.concordia.ca/summerstays", "contact_phone": "+1 514-848-2424", "contact_email": "residenceinfo@concordia.ca", "status": 1, "source_type": 1, "numberReviews": 62}, {"name": "Hotel Historique Route 66", "type": "hotel", "image": "https://dynamic-media-cdn.tripadvisor.com/media/photo-o/10/06/f4/7c/suite-quebec.jpg?w=1000&s=1", "address": "266, Rue Principale, Saint-Victor, Quebec G0M 2B0 Canada", "lat": 46.14861, "lng": -70.90455, "ref_id": 12281664, "rating": 4.5, "num_reviews": 0, "website": "http://www.hotelroute66.ca", "contact_phone": "+1 418-588-6966", "contact_email": "info@hotelroute66.ca", "status": 1, "source_type": 1, "numberReviews": 10}, {"name": "Mon Coin de Pays", "type": "hotel", "image": "https://dynamic-media-cdn.tripadvisor.com/media/photo-o/10/35/fd/d0/photo7jpg.jpg?w=1000&s=1", "address": "45 Rue Principale Nord, Sacr\u00e9-Coeur-Saguenay, Quebec G0T 1Y0 Canada", "lat": 48.22961, "lng": -69.80097, "ref_id": 12509219, "rating": 4, "num_reviews": 0, "website": null, "contact_phone": null, "contact_email": null, "status": 1, "source_type": 1, "numberReviews": 18}, {"name": "Lentracte Homestay", "type": "hotel", "image": "https://dynamic-media-cdn.tripadvisor.com/media/photo-s/03/17/21/42/lentracte-home.jpg?w=1000&s=1", "address": "425 Marie-anne Est coin marie Anne et rivard, Montreal, Quebec H2J 1Z9 Canada", "lat": 45.52335, "lng": -73.58039, "ref_id": 1904496, "rating": 4.5, "num_reviews": 0, "website": null, "contact_phone": "+1 514-982-4546", "contact_email": "larbaouiyannick@hotmail.com", "status": 1, "source_type": 1, "numberReviews": 22}, {"name": "Centre de Vill\u00e9giature et de Congr\u00e8s Lanaudi\u00e8re", "type": "hotel", "image": "https://dynamic-media-cdn.tripadvisor.com/media/photo-o/08/f7/89/bb/photo0jpg.jpg?w=1000&s=1", "address": "2650 Route Louis-Cyr (Route 131 Nord), Saint-Jean-de-Matha, Quebec J0K 2S0 Canada", "lat": 46.28888, "lng": -73.56106, "ref_id": 1508609, "rating": 4.5, "num_reviews": 0, "website": "http://www.cvc-lanaudiere.com/", "contact_phone": "+1 450-886-9301", "contact_email": "infoauberge@cvc-lanaudiere.com", "status": 1, "source_type": 1, "numberReviews": 22}, {"name": "Confort et S\u00e9r\u00e9nit\u00e9", "type": "hotel", "image": "https://dynamic-media-cdn.tripadvisor.com/media/photo-s/01/b6/af/57/front-of-b-b.jpg?w=1000&s=1", "address": "115 Hwy 364, Morin Heights, Quebec J0R 1H0 Canada", "lat": 45.899975, "lng": -74.217995, "ref_id": 1909953, "rating": 5, "num_reviews": 0, "website": "", "contact_phone": "+1 450-226-8791", "contact_email": "info@confortetserenite.com", "status": 1, "source_type": 1, "numberReviews": 25}, {"name": "Domaine des Vacanciers", "type": "hotel", "image": "https://dynamic-media-cdn.tripadvisor.com/media/photo-o/08/bd/83/d6/chambre-lit-double.jpg?w=1000&s=1", "address": "290-1 chemin de la Dune-du-Sud, Quebec G4T 5G1 Canada", "lat": 47.4145, "lng": -61.75749, "ref_id": 6850421, "rating": 5, "num_reviews": 0, "website": "http://www.ilesdelamadeleine.com/vacanciers", "contact_phone": "+1 418-969-4312", "contact_email": "jacinthearseneau@hotmail.com", "status": 1, "source_type": 1, "numberReviews": 11}, {"name": "Motel le Noroit", "type": "hotel", "image": "https://dynamic-media-cdn.tripadvisor.com/media/photo-o/28/75/dd/df/motel-le-noroit.jpg?w=1000&s=1", "address": "589, Boulevard Griffon Anse-au-Griffon, Gaspe, Quebec G4X 6A5 Canada", "lat": 48.93199, "lng": -64.29875, "ref_id": 2078160, "rating": 4, "num_reviews": 0, "website": "http://www.motellenoroit.com", "contact_phone": "+1 418-360-4574", "contact_email": "hcouillard@globetrotter.net", "status": 1, "source_type": 1, "numberReviews": 23}, {"name": "Auberge Beausejour", "type": "hotel", "image": "https://dynamic-media-cdn.tripadvisor.com/media/photo-o/10/88/fd/15/photo1jpg.jpg?w=1000&s=1", "address": "569 Chemin du Quai, Saint-Joseph-de-la-Rive, Quebec G0A 3Y0 Canada", "lat": 47.45593, "lng": -70.36748, "ref_id": 1766904, "rating": 3.5, "num_reviews": 0, "website": "http://www.aubergebeausejour.com/", "contact_phone": "+1 418-635-2895", "contact_email": "hotel@charlevoix.net", "status": 1, "source_type": 1, "numberReviews": 40}, {"name": "Kayak & Cabana", "type": "hotel", "image": "https://dynamic-media-cdn.tripadvisor.com/media/photo-o/0e/ce/e4/c6/wagon-de-berger-interieur.jpg?w=1000&s=1", "address": "2202 Chemin du Moulin, Labelle, Quebec J0T 1H0 Canada", "lat": 46.270077, "lng": -74.71899, "ref_id": 10782708, "rating": 4.5, "num_reviews": 0, "website": "http://www.kayak-cabana.com", "contact_phone": "+1 819-686-1111", "contact_email": "info@kayak-cabana.com", "status": 1, "source_type": 1, "numberReviews": 11}, {"name": "Chez Les Bergeron", "type": "hotel", "image": "https://dynamic-media-cdn.tripadvisor.com/media/photo-o/1b/1a/d4/ea/saint-aime-des-lacs.jpg?w=1000&s=1", "address": "13, Rue Principale, Saint Aime Des Lacs, Quebec G0T 1S0 Canada", "lat": 47.67897, "lng": -70.2886, "ref_id": 19844553, "rating": 5, "num_reviews": 0, "website": "http://www.chezlesbergeron.com/", "contact_phone": null, "contact_email": null, "status": 1, "source_type": 1, "numberReviews": 6}, {"name": "Camping Tadoussac", "type": "hotel", "image": "https://dynamic-media-cdn.tripadvisor.com/media/photo-o/0b/fb/d6/6c/formule-pret-a-camper.jpg?w=1000&s=1", "address": "428 Bateau Passeur Street, Tadoussac, Quebec G0T 2A0 Canada", "lat": 48.148632, "lng": -69.71308, "ref_id": 8439511, "rating": 3.5, "num_reviews": 0, "website": "http://vacancesessipit.com/campings/tadoussac/", "contact_phone": "+1 418-235-4501", "contact_email": "info@essipit.com", "status": 1, "source_type": 1, "numberReviews": 71}, {"name": "L'Escale Celtic", "type": "hotel", "image": "https://dynamic-media-cdn.tripadvisor.com/media/photo-o/12/64/a2/1e/chambre-mont-saint-michel.jpg?w=1000&s=1", "address": "689 Chemin de l'Auberge, Orford, Magog, Quebec J1X 0N2 Canada", "lat": 45.303776, "lng": -72.17332, "ref_id": 13797092, "rating": 5, "num_reviews": 0, "website": "http://lescaleceltic.com/", "contact_phone": "+1 819-571-2496", "contact_email": "info@lescaleceltic.com", "status": 1, "source_type": 1, "numberReviews": 9}, {"name": "Le Presbyt\u00e8re du Bootlegger", "type": "hotel", "image": "https://dynamic-media-cdn.tripadvisor.com/media/photo-o/04/49/fa/7c/le-presbytere-du-bootlegger.jpg?w=1000&s=1", "address": "4 rue du Patrimoine, La Malbaie, Quebec G5A 2A7 Canada", "lat": 47.66264, "lng": -70.26852, "ref_id": 4585947, "rating": 4, "num_reviews": 0, "website": "http://www.maisondubootlegger.com", "contact_phone": "+1 418-439-3711", "contact_email": "clubdesmonts@mac.com", "status": 1, "source_type": 1, "numberReviews": 19}, {"name": "Centre Hotelier Deville", "type": "hotel", "image": "https://dynamic-media-cdn.tripadvisor.com/media/photo-o/1d/14/4c/0d/lobby-view.jpg?w=1000&s=1", "address": "95 Avenue Horne, Rouyn-Noranda, Quebec J9X 4S4 Canada", "lat": 48.240566, "lng": -79.0215, "ref_id": 1435831, "rating": 4, "num_reviews": 0, "website": "http://devillehotelier.com/", "contact_phone": "+1 819-762-0725", "contact_email": "reservation@devillehotelier.com", "status": 1, "source_type": 1, "numberReviews": 71}, {"name": "KiNipi", "type": "hotel", "image": "https://dynamic-media-cdn.tripadvisor.com/media/photo-o/14/9e/31/ab/getlstd-property-photo.jpg?w=1000&s=1", "address": "8210 Des Forges Blvd, Trois-Rivieres, Quebec G8Y 4W2 Canada", "lat": 46.380928, "lng": -72.623344, "ref_id": 15116770, "rating": 5, "num_reviews": 0, "website": "http://www.kinipi.ca", "contact_phone": "+1 819-693-9999", "contact_email": "commentaires@kinipi.ca", "status": 1, "source_type": 1, "numberReviews": 8}, {"name": "Camping d'Amqui", "type": "hotel", "image": "https://dynamic-media-cdn.tripadvisor.com/media/photo-o/13/cf/72/da/photo0jpg.jpg?w=1000&s=1", "address": "686, route 132 Ouest, Amqui, Quebec G5J 2H1 Canada", "lat": 48.49698, "lng": -67.45668, "ref_id": 8645174, "rating": 4, "num_reviews": 0, "website": "http://www.campingamqui.com/", "contact_phone": "+1 418-629-3433", "contact_email": null, "status": 1, "source_type": 1, "numberReviews": 17}, {"name": "G\u00eete La Nuit\u00e9e", "type": "hotel", "image": "https://dynamic-media-cdn.tripadvisor.com/media/partner/bookingcom/photo-o/2b/8b/ea/3a/caption.jpg?w=1000&s=1", "address": "493 Rue des Quatre-Vents, Coaticook, Quebec J1A 3A3 Canada", "lat": 45.12947, "lng": -71.81908, "ref_id": 26850275, "rating": -1, "num_reviews": 0, "website": "https://www.facebook.com/people/G%C3%AEte-La-Nuit%C3%A9e/100057686040591/", "contact_phone": "+1 819-849-9478", "contact_email": "jocelyne.lemieux@hotmail.com", "status": 1, "source_type": 1, "numberReviews": 0}, {"name": "Waterfall Cottage", "type": "hotel", "image": null, "address": "1317, 8e Rang, Sainte-Melanie, Quebec J0K 3A0 Canada", "lat": 46.14098, "lng": -73.50495, "ref_id": 18185164, "rating": -1, "num_reviews": 0, "website": null, "contact_phone": null, "contact_email": null, "status": 1, "source_type": 1, "numberReviews": 0}, {"name": "Auberge Mandala", "type": "hotel", "image": null, "address": "1889 Chemin Principal, Saint-Mathieu-du-Parc, Quebec G0X 1N0 Canada", "lat": 46.574448, "lng": -72.92448, "ref_id": 27052011, "rating": -1, "num_reviews": 0, "website": "https://www.facebook.com/aubergemandala/", "contact_phone": "+1 819-532-1062", "contact_email": "aubergemandala@hotmail.com", "status": 1, "source_type": 1, "numberReviews": 0}, {"name": "Auberge des Korrigans", "type": "hotel", "image": null, "address": "98 1re Avenue, Stoneham-et-Tewkesbury, Quebec G3C 0L1 Canada", "lat": 46.997147, "lng": -71.36474, "ref_id": 27985632, "rating": -1, "num_reviews": 0, "website": null, "contact_phone": "+1 418-805-3524", "contact_email": null, "status": 1, "source_type": 1, "numberReviews": 0}, {"name": "Auberge de la Grande Ligne", "type": "hotel", "image": null, "address": "318 chemin de la Grande Ligne, Racine, Quebec J0E 1Y0 Canada", "lat": 45.480972, "lng": -72.23709, "ref_id": 3372174, "rating": -1, "num_reviews": 0, "website": null, "contact_phone": "+1 450-532-3177", "contact_email": "info@aubergegrandeligne.ca", "status": 1, "source_type": 1, "numberReviews": 0}, {"name": "Chalets a Louer a Stoneham", "type": "hotel", "image": null, "address": "26 Chemin Des Quarante, Stoneham-et-Tewkesbury, Quebec G3C 0C8 Canada", "lat": 47.03814, "lng": -71.38317, "ref_id": 21044853, "rating": -1, "num_reviews": 0, "website": null, "contact_phone": null, "contact_email": null, "status": 1, "source_type": 1, "numberReviews": 0}, {"name": "La Nuitee Coaticook", "type": "hotel", "image": null, "address": "91 Rue Verret, Coaticook, Quebec J1A 1V1 Canada", "lat": 45.12732, "lng": -71.80634, "ref_id": 23739369, "rating": -1, "num_reviews": 0, "website": null, "contact_phone": null, "contact_email": null, "status": 1, "source_type": 1, "numberReviews": 0}, {"name": "Hotel UNIQ - Parc de la Gorge de Coaticook", "type": "hotel", "image": null, "address": "400 Rue Saint-Marc, Coaticook, Quebec J1A 2M3 Canada", "lat": 45.144955, "lng": -71.79789, "ref_id": 24092536, "rating": -1, "num_reviews": 0, "website": null, "contact_phone": null, "contact_email": null, "status": 1, "source_type": 1, "numberReviews": 0}, {"name": "Couette & Caf\u00e9 Pont Rouge Estrie", "type": "hotel", "image": "https://dynamic-media-cdn.tripadvisor.com/media/partner/bookingcom/photo-o/2b/5e/5b/4b/caption.jpg?w=1000&s=1", "address": "83 Rue Saint-Marc, Coaticook, Quebec J1A 2M2 Canada", "lat": 45.14969, "lng": -71.80269, "ref_id": 26721499, "rating": -1, "num_reviews": 0, "website": "https://www.pontrougecoaticook.com/", "contact_phone": "+1 819-580-0422", "contact_email": "pontrougecoaticook@gmail.com", "status": 1, "source_type": 1, "numberReviews": 0}, {"name": "The G\u00eete L'Escapade", "type": "hotel", "image": null, "address": "1027 Ch Saint-Henri, Sainte-Marthe, Quebec J0P 1W0 Canada", "lat": 45.42883, "lng": -74.31653, "ref_id": 1940840, "rating": -1, "num_reviews": 0, "website": null, "contact_phone": "+1 450-459-4570", "contact_email": "lisa@giteescapade.ca", "status": 1, "source_type": 1, "numberReviews": 0}, {"name": "La Maison Blanche", "type": "hotel", "image": null, "address": "151 Rue Grenier, Laurierville, Quebec G0S 1P0 Canada", "lat": 46.29793, "lng": -71.65732, "ref_id": 17575031, "rating": -1, "num_reviews": 0, "website": null, "contact_phone": null, "contact_email": null, "status": 1, "source_type": 1, "numberReviews": 0}, {"name": "L'Aubergiste", "type": "hotel", "image": null, "address": "2054 Route Principale, La Conception, Quebec J0T 1M0 Canada", "lat": 46.15377, "lng": -74.69921, "ref_id": 12263215, "rating": -1, "num_reviews": 0, "website": null, "contact_phone": null, "contact_email": null, "status": 1, "source_type": 1, "numberReviews": 0}, {"name": "Parc La Conception", "type": "hotel", "image": null, "address": "1158 Chemin Des Ormes, La Conception, Quebec J0T 1M0 Canada", "lat": 46.13928, "lng": -74.69794, "ref_id": 12445236, "rating": -1, "num_reviews": 0, "website": null, "contact_phone": null, "contact_email": null, "status": 1, "source_type": 1, "numberReviews": 0}, {"name": "Au Chat Qui Dort", "type": "hotel", "image": null, "address": "1067 Rue Du Rivage, Saint-Antoine-sur-Richelieu, Quebec J0L 1R0 Canada", "lat": 45.7804, "lng": -73.17072, "ref_id": 6427790, "rating": -1, "num_reviews": 0, "website": "http://www.auchatquidort.ca/", "contact_phone": "+1 450-787-2926", "contact_email": null, "status": 1, "source_type": 1, "numberReviews": 0}, {"name": "Le Mistral - Club Lac Walfred", "type": "hotel", "image": null, "address": "522 Rte Masson, Sainte-Marguerite-du-Lac-Masson, Quebec J0T 1L0 Canada", "lat": 46.05201, "lng": -74.07761, "ref_id": 16646455, "rating": -1, "num_reviews": 0, "website": "http://www.clublacwalfred.com/", "contact_phone": "+1 888-440-0476", "contact_email": null, "status": 1, "source_type": 1, "numberReviews": 0}, {"name": "La Terrasse du Joli-Bois", "type": "hotel", "image": null, "address": "38 rue du Joli-Bosquet, Sainte-Marguerite-du-Lac-Masson, Quebec J0T 1L0 Canada", "lat": 46.01407, "lng": -74.06025, "ref_id": 6560950, "rating": -1, "num_reviews": 0, "website": null, "contact_phone": null, "contact_email": null, "status": 1, "source_type": 1, "numberReviews": 0}, {"name": "Chalet Lac Walfred", "type": "hotel", "image": null, "address": "16320 Rang St Dominique, Sainte-Marguerite-du-Lac-Masson, Quebec J7N 1T6 Canada", "lat": 46.0532, "lng": -74.0784, "ref_id": 24147135, "rating": -1, "num_reviews": 0, "website": "http://www.chaletlacwalfred.com/", "contact_phone": "+1 450-431-7676", "contact_email": null, "status": 1, "source_type": 1, "numberReviews": 0}, {"name": "Chalets Scandik", "type": "hotel", "image": null, "address": "20 Rue Du Guerrier, Sainte-Marguerite-du-Lac-Masson, Quebec J0T 1L0 Canada", "lat": 46.044605, "lng": -74.09336, "ref_id": 26578626, "rating": -1, "num_reviews": 0, "website": "https://chaletsscandik.ca/", "contact_phone": "+1 877-703-8770", "contact_email": "info@chaletsscandik.ca", "status": 1, "source_type": 1, "numberReviews": 0}, {"name": "Parc Cavaland", "type": "hotel", "image": "https://dynamic-media-cdn.tripadvisor.com/media/photo-o/27/52/c1/e4/piscine.jpg?w=1000&s=1", "address": "340 Chemin De Chertsey, Sainte-Marguerite-du-Lac-Masson, Quebec J0T 1L0 Canada", "lat": 46.046387, "lng": -74.01048, "ref_id": 25189774, "rating": -1, "num_reviews": 0, "website": "https://www.cavaland.com/", "contact_phone": "+1 450-228-3006", "contact_email": "info@cavaland.com", "status": 1, "source_type": 1, "numberReviews": 0}, {"name": "KanataTremblant", "type": "hotel", "image": null, "address": "695 Chem. Rockway Valley, Amherst, Quebec J0T 2L0 Canada", "lat": 45.989628, "lng": -74.74883, "ref_id": 15685673, "rating": -1, "num_reviews": 0, "website": "https://www.kanatatremblant.com/", "contact_phone": "+1 877-734-3414", "contact_email": null, "status": 1, "source_type": 1, "numberReviews": 0}, {"name": "Prince Hotel", "type": "hotel", "image": null, "address": "217 Rue Amherst, Amherst, Quebec J0T 2L0 Canada", "lat": 46.008728, "lng": -74.76323, "ref_id": 11886656, "rating": -1, "num_reviews": 0, "website": null, "contact_phone": "+1 819-687-9952", "contact_email": null, "status": 1, "source_type": 1, "numberReviews": 0}, {"name": "Li\u00e8vre Rouge- Forest Retreat", "type": "hotel", "image": "https://dynamic-media-cdn.tripadvisor.com/media/photo-o/2a/db/eb/8e/pine-cabin.jpg?w=1000&s=1", "address": "158 CH Des 5 & 6 Rang, Lac-Saguay, Quebec J0W 1L0 Canada", "lat": 46.477314, "lng": -75.20017, "ref_id": 25223654, "rating": -1, "num_reviews": 0, "website": "http://www.lievrerouge.ca/", "contact_phone": "+1 819-921-0354", "contact_email": "mathieu@lievrerouge.ca", "status": 1, "source_type": 1, "numberReviews": 0}, {"name": "Camping Domaine Du Reve", "type": "hotel", "image": null, "address": "85 Rang De La Cote Double, Sainte-Angele-de-Monnoir, Quebec J0L 1P0 Canada", "lat": 45.4008, "lng": -73.06528, "ref_id": 17827211, "rating": -1, "num_reviews": 0, "website": "http://domainedureve.com/", "contact_phone": "+1 450-469-2524", "contact_email": null, "status": 1, "source_type": 1, "numberReviews": 0}, {"name": "La Grande Maison Blanche", "type": "hotel", "image": null, "address": "451 Rue Dufferin, Stanstead, Quebec J0B 3E0 Canada", "lat": 45.01249, "lng": -72.09628, "ref_id": 7064243, "rating": -1, "num_reviews": 0, "website": null, "contact_phone": "+1 514-621-7939", "contact_email": null, "status": 1, "source_type": 1, "numberReviews": 0}, {"name": "Domaine Gagnon", "type": "hotel", "image": null, "address": "284 1Er Rang, C.P. 467, Saint-Sebastien, Quebec G0Y 1L0 Canada", "lat": 45.7856, "lng": -71.035965, "ref_id": 17442422, "rating": -1, "num_reviews": 0, "website": null, "contact_phone": null, "contact_email": null, "status": 1, "source_type": 1, "numberReviews": 0}, {"name": "Auberge Du Lac Tiblemont", "type": "hotel", "image": null, "address": "Route 113 Sud Senneterre 459, Obaska, Quebec J0Y 2M0 Canada", "lat": 48.22031, "lng": -77.34802, "ref_id": 17531960, "rating": -1, "num_reviews": 0, "website": "https://www.facebook.com/AubergelacTiblemont2018/", "contact_phone": "+1 819-736-3636", "contact_email": null, "status": 1, "source_type": 1, "numberReviews": 0}, {"name": "Pavillon Montreuil", "type": "hotel", "image": "https://dynamic-media-cdn.tripadvisor.com/media/photo-o/25/a9/60/27/pavillon-montreuil.jpg?w=1000&s=1", "address": "74 Chemin du Camping, L'Etang-du-Nord, Quebec G4T 3P2 Canada", "lat": 47.34577, "lng": -61.881653, "ref_id": 12545572, "rating": -1, "num_reviews": 0, "website": "https://www.parcdegroscap.ca/prets-a-camper/", "contact_phone": "+1 418-986-4505", "contact_email": "info@parcdegroscap.ca", "status": 1, "source_type": 1, "numberReviews": 0}, {"name": "Chalets Beausejour", "type": "hotel", "image": null, "address": "1300 Chemin Des Caps, Fatima, Quebec G4T 2V6 Canada", "lat": 47.393085, "lng": -61.94164, "ref_id": 16732363, "rating": -1, "num_reviews": 0, "website": null, "contact_phone": null, "contact_email": null, "status": 1, "source_type": 1, "numberReviews": 0}, {"name": "Jumelles Sur Mer", "type": "hotel", "image": null, "address": "222 Route 199, Quebec G4T 9B7 Canada", "lat": 47.24086, "lng": -61.893734, "ref_id": 15858312, "rating": -1, "num_reviews": 0, "website": "https://jumellessurmer.com/", "contact_phone": "+1 514-588-8331", "contact_email": "kmiron@jumellessurmer.com", "status": 1, "source_type": 1, "numberReviews": 0}, {"name": "Gite du P\u00eacheur", "type": "hotel", "image": null, "address": "201, du Bassin, Les Bergeronnes, Quebec G0T 1G0 Canada", "lat": 48.24752, "lng": -69.55029, "ref_id": 8520575, "rating": -1, "num_reviews": 0, "website": null, "contact_phone": "+(1)418(232)6757", "contact_email": "gitedupecheur@hotmail.com", "status": 1, "source_type": 1, "numberReviews": 0}, {"name": "La Bonne Adresse", "type": "hotel", "image": "https://dynamic-media-cdn.tripadvisor.com/media/photo-o/10/2b/84/d7/salle-a-diner-adaptee.jpg?w=1000&s=1", "address": "1196 Rue de la Pisciculture, Mont-Blanc, Quebec J0T 1J3 Canada", "lat": 46.113, "lng": -74.4802, "ref_id": 284030, "rating": 4.5, "num_reviews": 0, "website": "http://bonneadresse.ca", "contact_phone": "+1 819-688-6422", "contact_email": "courrier@bonneadresse.ca", "status": 1, "source_type": 1, "numberReviews": 30}, {"name": "Gite au Fil du Temps", "type": "hotel", "image": "https://dynamic-media-cdn.tripadvisor.com/media/photo-o/0c/e8/48/23/gite-au-fil-du-temps.jpg?w=1000&s=1", "address": "43 rue Principale, Saint Aime Des Lacs, Quebec G0T 1S0 Canada", "lat": 47.67921, "lng": -70.29555, "ref_id": 4696336, "rating": 5, "num_reviews": 0, "website": null, "contact_phone": "+1 418-439-3730", "contact_email": null, "status": 1, "source_type": 1, "numberReviews": 32}, {"name": "Domaine du Lac Taureau", "type": "hotel", "image": "https://dynamic-media-cdn.tripadvisor.com/media/photo-o/06/1c/17/96/domaine-du-lac-taureau.jpg?w=1000&s=1", "address": "391 chemin de la Place des Cedres, Saint Michel des Saints, Quebec J0K 3B0 Canada", "lat": 46.710064, "lng": -73.89023, "ref_id": 1774503, "rating": 4.5, "num_reviews": 0, "website": "http://www.domainelactaureau.com/", "contact_phone": "+1 450-833-1616", "contact_email": "info@domainelactaureau.com", "status": 1, "source_type": 1, "numberReviews": 59}, {"name": "La maison d'Elyse", "type": "hotel", "image": "https://dynamic-media-cdn.tripadvisor.com/media/photo-o/12/5a/eb/4c/mon-dejeuner-un-delice.jpg?w=1000&s=1", "address": "218, avenue Lambert, Beauceville, Quebec G5X 1S5 Canada", "lat": 46.21443, "lng": -70.78045, "ref_id": 1089475, "rating": 5, "num_reviews": 0, "website": "http://www.maisondelyse.com/", "contact_phone": "", "contact_email": "maisondelyse@maisondelyse.com", "status": 1, "source_type": 1, "numberReviews": 34}, {"name": "Une Fleur au Bord de l Eau", "type": "hotel", "image": "https://dynamic-media-cdn.tripadvisor.com/media/photo-o/0f/f6/a3/62/photo1jpg.jpg?w=1000&s=1", "address": "90 Drummond, Granby, Quebec J2G 2S6 Canada", "lat": 45.39751, "lng": -72.71478, "ref_id": 1902838, "rating": 4.5, "num_reviews": 0, "website": "http://www.unefleur.ca/", "contact_phone": "+1 514-755-3888", "contact_email": "", "status": 1, "source_type": 1, "numberReviews": 49}, {"name": "Auberge Le Petit St-Andr\u00e9", "type": "hotel", "image": "https://dynamic-media-cdn.tripadvisor.com/media/photo-o/29/b1/28/74/front.jpg?w=1000&s=1", "address": "211 St-Andr\u00e9, Terrebonne, Quebec J6W 3C6 Canada", "lat": 45.69367, "lng": -73.63431, "ref_id": 1804854, "rating": 4.5, "num_reviews": 0, "website": "http://www.aubergelestandre.ca/", "contact_phone": "+1 450-471-8822", "contact_email": "info@aubergelestandre.ca", "status": 1, "source_type": 1, "numberReviews": 59}, {"name": "Gite Sous la Bonne Etoile", "type": "hotel", "image": "https://dynamic-media-cdn.tripadvisor.com/media/photo-o/04/0e/f2/a4/gite-sous-la-bonne-etoile.jpg?w=1000&s=1", "address": "30, 5ieme Rue Est, Sainte Anne des Monts, Quebec Canada", "lat": 49.130493, "lng": -66.47515, "ref_id": 1539290, "rating": 4.5, "num_reviews": 0, "website": null, "contact_phone": "+1 418-763-3402", "contact_email": "souslabonne_etoile@globetrotter.net", "status": 1, "source_type": 1, "numberReviews": 57}, {"name": "Aux Trois Couettes", "type": "hotel", "image": "https://dynamic-media-cdn.tripadvisor.com/media/photo-o/0c/8a/94/d6/aux-trois-couettes.jpg?w=1000&s=1", "address": "7901 chemin de l_Ile Notre-Dame-des-Sept-Douleurs, Ile Verte, Notre-Dame-des-Sept-Douleurs, Quebec G0L 1K0 Canada", "lat": 47.999252, "lng": -69.47209, "ref_id": 3296039, "rating": 5, "num_reviews": 0, "website": "http://www.auxtroiscouettes.ca", "contact_phone": "+1 819-346-3836", "contact_email": "info@auxtroiscouettes.ca", "status": 1, "source_type": 1, "numberReviews": 43}, {"name": "Motel La Croisiere", "type": "hotel", "image": "https://dynamic-media-cdn.tripadvisor.com/media/photo-o/14/78/04/af/motel-la-croisiere.jpg?w=1000&s=1", "address": "1087 Route 138, Grandes-Bergeronnes, Quebec G0T 1G0 Canada", "lat": 48.24631, "lng": -69.53892, "ref_id": 2302669, "rating": 4.5, "num_reviews": 0, "website": null, "contact_phone": "+1 418-232-6247", "contact_email": "", "status": 1, "source_type": 1, "numberReviews": 56}, {"name": "La Maison du Restaurateur", "type": "hotel", "image": "https://dynamic-media-cdn.tripadvisor.com/media/photo-o/17/d3/95/d0/bedroom.jpg?w=1000&s=1", "address": "90 Route de Lanse-Au-Persil Route de Lanse-Au-Persil, Riviere du Loup, Quebec G5R 5Z6 Canada", "lat": 47.86678, "lng": -69.54549, "ref_id": 12539742, "rating": 5, "num_reviews": 0, "website": null, "contact_phone": null, "contact_email": null, "status": 1, "source_type": 1, "numberReviews": 23}, {"name": "La Huronniere", "type": "hotel", "image": "https://dynamic-media-cdn.tripadvisor.com/media/photo-o/0c/6f/b9/3c/piscine.jpg?w=1000&s=1", "address": "415 Chef Maurice S\u00e9bastien, Wendake, Quebec G0A 4V0 Canada", "lat": 46.86612, "lng": -71.35854, "ref_id": 1498372, "rating": 4.5, "num_reviews": 0, "website": "http://www.lahuronniere.com", "contact_phone": "+1 418-845-4118", "contact_email": "lahuronniere@gmail.com", "status": 1, "source_type": 1, "numberReviews": 40}, {"name": "Motel Petit Hameau", "type": "hotel", "image": "https://dynamic-media-cdn.tripadvisor.com/media/photo-o/1b/bf/96/cf/20200807-180952-largejpg.jpg?w=1000&s=1", "address": "7160 Blvd Wilfrid-Hamel Quebec,Qc, Quebec City, Quebec G2G 1B7 Canada", "lat": 46.78498, "lng": -71.36187, "ref_id": 1854654, "rating": 5, "num_reviews": 0, "website": "", "contact_phone": "+1 418-872-2510", "contact_email": "", "status": 1, "source_type": 1, "numberReviews": 20}, {"name": "Louis Hebert", "type": "hotel", "image": "https://dynamic-media-cdn.tripadvisor.com/media/photo-o/03/50/2f/ff/louis-hebert.jpg?w=1000&s=1", "address": "668, Grande-Allee Est, Quebec City, Quebec G1R 2K5 Canada", "lat": 46.80669, "lng": -71.21614, "ref_id": 1413159, "rating": 4, "num_reviews": 0, "website": "http://www.louishebert.com/", "contact_phone": "+1 418-525-7812", "contact_email": "restaurant@louishebert.com", "status": 1, "source_type": 1, "numberReviews": 67}, {"name": "La Maison des Falaises", "type": "hotel", "image": "https://dynamic-media-cdn.tripadvisor.com/media/photo-o/13/7c/03/1b/la-maison-des-falaises.jpg?w=1000&s=1", "address": "162, Chemin des Echoueries sur chemin Pointe-Basse qui devient chemin des \u00e9choueries, Quebec G4T 5J6 Canada", "lat": 47.395634, "lng": -61.77246, "ref_id": 582697, "rating": 5, "num_reviews": 0, "website": "http://www.tourismeilesdelamadeleine.com/fr/la-maison-des-falaises/gites/", "contact_phone": "+1 418-969-4782", "contact_email": "lucieaucoin@gmail.com", "status": 1, "source_type": 1, "numberReviews": 37}, {"name": "La Maison de l'Irlandais", "type": "hotel", "image": "https://dynamic-media-cdn.tripadvisor.com/media/photo-o/11/c3/d0/d6/la-maison-de-l-irlandais.jpg?w=1000&s=1", "address": "182, 1ere Rue, Saint-Fabien, Quebec G0L 2Z0 Canada", "lat": 48.30416, "lng": -68.85834, "ref_id": 4004260, "rating": 4.5, "num_reviews": 0, "website": "http://www.maisondelirlandais.com", "contact_phone": "+1 888-869-2913", "contact_email": "dancaissy@hotmail.com", "status": 1, "source_type": 1, "numberReviews": 39}, {"name": "Quebec City KOA", "type": "hotel", "image": "https://dynamic-media-cdn.tripadvisor.com/media/photo-o/1d/1f/04/6c/quebec-city-koa.jpg?w=1000&s=1", "address": "684 Chemin Olivier, Levis, Quebec G7A 2N6 Canada", "lat": 46.699333, "lng": -71.30123, "ref_id": 4702401, "rating": 4, "num_reviews": 0, "website": "http://koa.com/campgrounds/quebec-city/", "contact_phone": "+1 418-831-1813", "contact_email": "koaquebec@gmail.com", "status": 1, "source_type": 1, "numberReviews": 121}, {"name": "Holiday Inn Gatineau \u2013 Ottawa", "type": "hotel", "image": "https://dynamic-media-cdn.tripadvisor.com/media/photo-o/2c/c2/d3/2e/welcome-to-our-hotel.jpg?w=1000&s=1", "address": "7 Boulevard du Casino, Gatineau, Quebec J8Y 6V7 Canada", "lat": 45.425194, "lng": -75.72272, "ref_id": 183204, "rating": 3.5, "num_reviews": 0, "website": "https://www.ihg.com/holidayinn/hotels/us/en/gatineau/yowgn/hoteldetail", "contact_phone": "1800-1110-2295", "contact_email": "info@holidayinngatineau.com", "status": 1, "source_type": 1, "numberReviews": 493}, {"name": "Carleton-sur-Mer Campground", "type": "hotel", "image": "https://dynamic-media-cdn.tripadvisor.com/media/photo-o/18/5f/d9/a8/photo0jpg.jpg?w=1000&s=1", "address": "319, avenue du Phare, Carleton-sur-Mer, Quebec G0C 1J0 Canada", "lat": 48.087975, "lng": -66.11713, "ref_id": 12413806, "rating": 4.5, "num_reviews": 0, "website": "http://www.carletonsurmer.com/?id=126&titre=Carleton_sur_Mer_campground&em=9", "contact_phone": "+1 418-364-3992", "contact_email": "camping@carletonsurmer.com", "status": 1, "source_type": 1, "numberReviews": 30}, {"name": "Chalets Mari-Jo", "type": "hotel", "image": "https://dynamic-media-cdn.tripadvisor.com/media/photo-o/10/0a/e7/d0/chambre-1-chalet-7.jpg?w=1000&s=1", "address": "491, chemin du Bassin, Bassin, Quebec G4T 0B9 Canada", "lat": 47.225155, "lng": -61.925537, "ref_id": 3383163, "rating": 4.5, "num_reviews": 0, "website": "https://location-chalets-mari-jo.business.site/", "contact_phone": "+1 418-937-5678", "contact_email": "chaletsmari-jo@hotmail.com", "status": 1, "source_type": 1, "numberReviews": 23}, {"name": "Au Temps Retrouve", "type": "hotel", "image": "https://dynamic-media-cdn.tripadvisor.com/media/photo-o/01/89/07/07/notre-maison.jpg?w=1000&s=1", "address": "291 Rang 5 Lac Drolet, Lac-Drolet, Quebec G0Y 1C0 Canada", "lat": 45.7389, "lng": -70.84724, "ref_id": 1790106, "rating": 5, "num_reviews": 0, "website": "http://www.autempsretrouve.ca", "contact_phone": "+1 819-549-2655", "contact_email": "autempsretrouve@hotmail.com", "status": 1, "source_type": 1, "numberReviews": 33}, {"name": "Boulanger Bassin", "type": "hotel", "image": "https://dynamic-media-cdn.tripadvisor.com/media/photo-o/04/49/05/91/boulanger-bassin.jpg?w=1000&s=1", "address": "4293 Rue de Brebeuf, Montreal, Quebec H2J 3K6 Canada", "lat": 45.527832, "lng": -73.57482, "ref_id": 186188, "rating": 4.5, "num_reviews": 0, "website": "http://www.bbassin.com", "contact_phone": "+1 514-525-0854", "contact_email": null, "status": 1, "source_type": 1, "numberReviews": 105}, {"name": "Auberge Bishop", "type": "hotel", "image": "https://dynamic-media-cdn.tripadvisor.com/media/photo-o/13/15/df/46/hostel.jpg?w=1000&s=1", "address": "1447 Rue Bishop, Montreal, Quebec H3G 2E4 Canada", "lat": 45.497284, "lng": -73.57755, "ref_id": 3226151, "rating": 4.5, "num_reviews": 0, "website": "http://www.aubergebishop.ca", "contact_phone": "+1 514-508-8870", "contact_email": "aubergebishop@gmail.com", "status": 1, "source_type": 1, "numberReviews": 43}, {"name": "Kipawa Lodge", "type": "hotel", "image": "https://dynamic-media-cdn.tripadvisor.com/media/photo-s/03/2a/3b/25/kipawa-lodge.jpg?w=1000&s=1", "address": "272 Lake Kipawa, Kipawa, Quebec J0Z 3R0 Canada", "lat": 46.767246, "lng": -79.01843, "ref_id": 2639096, "rating": 5, "num_reviews": 0, "website": "http://www.kipawalodge.com", "contact_phone": "+1 705-528-0084", "contact_email": "info@kipawalodge.com", "status": 1, "source_type": 1, "numberReviews": 37}, {"name": "A La Cornemuse", "type": "hotel", "image": "https://dynamic-media-cdn.tripadvisor.com/media/photo-s/01/ef/ed/f4/a-la-cornemuse.jpg?w=1000&s=1", "address": "1044 Massawippi, North Hatley, Quebec J0B 2C0 Canada", "lat": 45.268635, "lng": -71.97416, "ref_id": 1447401, "rating": 4.5, "num_reviews": 0, "website": null, "contact_phone": "+1 819-842-1573", "contact_email": "info@cornemuse.qc.ca", "status": 1, "source_type": 1, "numberReviews": 59}, {"name": "LikeAHotel", "type": "hotel", "image": "https://dynamic-media-cdn.tripadvisor.com/media/photo-o/15/49/94/65/likeahotel.jpg?w=1000&s=1", "address": "54 Rue Prince Arthur E, Montreal, Quebec H2X 1B3 Canada", "lat": 45.514507, "lng": -73.57199, "ref_id": 7398016, "rating": 4, "num_reviews": 0, "website": "http://www.likeahotel.com", "contact_phone": "+1 800-890-7155", "contact_email": "info@likeahotel.com", "status": 1, "source_type": 1, "numberReviews": 111}, {"name": "Domaine du Vieux Couvent", "type": "hotel", "image": "https://dynamic-media-cdn.tripadvisor.com/media/photo-o/17/37/db/27/domaine-du-vieux-couvent.jpg?w=1000&s=1", "address": "292, Route 199, Quebec G4T 5A4 Canada", "lat": 47.398327, "lng": -61.817993, "ref_id": 629505, "rating": 4.5, "num_reviews": 0, "website": "http://domaineduvieuxcouvent.com/", "contact_phone": "+1 418-969-2233", "contact_email": "info@domaineduvieuxcouvent.com", "status": 1, "source_type": 1, "numberReviews": 91}, {"name": "Charmes de Provence", "type": "hotel", "image": "https://dynamic-media-cdn.tripadvisor.com/media/photo-o/07/ce/ab/b9/charmes-de-provence.jpg?w=1000&s=1", "address": "350 rue Qu\u00e9bec, Sherbrooke, Quebec J1H 3L8 Canada", "lat": 45.403698, "lng": -71.90461, "ref_id": 3319248, "rating": 5, "num_reviews": 0, "website": "http://www.charmesdeprovence.com/", "contact_phone": "+1 819-348-1147", "contact_email": "charmesdeprovence@videotron.ca", "status": 1, "source_type": 1, "numberReviews": 42},