[{"name": "Kappo Gincho", "type": "restaurant", "image": null, "address": "2721-3 Wakimachi, Mima 779-3601 Qu\u00e2\u0323n Tokushima", "lat": 34.065468, "lng": 134.176, "ref_id": 6166120, "rating": -1, "num_reviews": 0, "website": null, "contact_phone": "+81 883-53-1008", "contact_email": null, "status": 1, "source_type": 1, "numberReviews": 0}, {"name": "Mitsuru Restaurant", "type": "restaurant", "image": null, "address": "63-1 Otera Hirata, Itano-cho, Itano-gun Qu\u00e2\u0323n Tokushima", "lat": 34.14255, "lng": 134.46577, "ref_id": 7482164, "rating": -1, "num_reviews": 0, "website": null, "contact_phone": "+81 88-672-0173", "contact_email": null, "status": 1, "source_type": 1, "numberReviews": 0}, {"name": "Inoya", "type": "restaurant", "image": null, "address": "30 Higashinakatomi Nagaehoji, Aizumi-cho, Itano-gun Qu\u00e2\u0323n Tokushima", "lat": 34.128544, "lng": 134.4787, "ref_id": 7482115, "rating": -1, "num_reviews": 0, "website": null, "contact_phone": "+81 88-692-7337", "contact_email": null, "status": 1, "source_type": 1, "numberReviews": 0}, {"name": "Numata", "type": "restaurant", "image": null, "address": "315-2 Naka, Kokufucho, Tokushima 779-3124 Qu\u00e2\u0323n Tokushima", "lat": 34.068012, "lng": 134.47595, "ref_id": 9638807, "rating": -1, "num_reviews": 0, "website": null, "contact_phone": "+81 88-642-5567", "contact_email": null, "status": 1, "source_type": 1, "numberReviews": 0}, {"name": "Izakaya Goro", "type": "restaurant", "image": null, "address": "179-5 Awacho Katsumyo Kita, Awa 771-1701 Qu\u00e2\u0323n Tokushima", "lat": 34.085648, "lng": 134.26678, "ref_id": 17360092, "rating": -1, "num_reviews": 0, "website": null, "contact_phone": "+81 883-35-7904", "contact_email": null, "status": 1, "source_type": 1, "numberReviews": 0}, {"name": "Seasonal Cuisine Sugimura Annex", "type": "restaurant", "image": null, "address": "13-1 Yamakawa-Cho Okidai, Yoshinogawa 779-3401 Qu\u00e2\u0323n Tokushima", "lat": 34.05068, "lng": 134.23013, "ref_id": 13248165, "rating": -1, "num_reviews": 0, "website": null, "contact_phone": "+81 883-42-2223", "contact_email": null, "status": 1, "source_type": 1, "numberReviews": 0}, {"name": "Kotsu Chaya", "type": "restaurant", "image": null, "address": "341-2 Yamakawacho Enokidani, Yoshinogawa 779-3406 Qu\u00e2\u0323n Tokushima", "lat": 34.017918, "lng": 134.21881, "ref_id": 15354000, "rating": -1, "num_reviews": 0, "website": null, "contact_phone": "+81 883-42-2645", "contact_email": null, "status": 1, "source_type": 1, "numberReviews": 0}, {"name": "Banraiken", "type": "restaurant", "image": null, "address": "501 Kamojima Kamojimacho, Yoshinogawa Qu\u00e2\u0323n Tokushima", "lat": 34.072628, "lng": 134.3557, "ref_id": 7503951, "rating": -1, "num_reviews": 0, "website": null, "contact_phone": "+81 883-24-2450", "contact_email": null, "status": 1, "source_type": 1, "numberReviews": 0}, {"name": "Cafe Peco", "type": "restaurant", "image": null, "address": "108-1 Wakimachi Inoshiri Tatejinja Shimominami, Mima Qu\u00e2\u0323n Tokushima", "lat": 34.066677, "lng": 134.16116, "ref_id": 7630843, "rating": -1, "num_reviews": 0, "website": null, "contact_phone": "+81 883-53-0409", "contact_email": null, "status": 1, "source_type": 1, "numberReviews": 0}, {"name": "Amego Zushi", "type": "restaurant", "image": null, "address": "95 Minamigyojano Ano, Kamiyama-cho, Myozai-gun Qu\u00e2\u0323n Tokushima", "lat": 34.039917, "lng": 134.42592, "ref_id": 7481958, "rating": -1, "num_reviews": 0, "website": null, "contact_phone": "+81 88-678-0024", "contact_email": null, "status": 1, "source_type": 1, "numberReviews": 0}, {"name": "Tsurumatsu Inshokuten", "type": "restaurant", "image": null, "address": "52-1 Doken Inoshiri Oaza Waki-Machi, Mima Qu\u00e2\u0323n Tokushima", "lat": 34.062675, "lng": 134.16269, "ref_id": 7504059, "rating": -1, "num_reviews": 0, "website": null, "contact_phone": "+81 883-52-4888", "contact_email": null, "status": 1, "source_type": 1, "numberReviews": 0}, {"name": "Torito", "type": "restaurant", "image": null, "address": "150-1 Omichikita Awacho, Awa Qu\u00e2\u0323n Tokushima", "lat": 34.07434, "lng": 134.22847, "ref_id": 7504107, "rating": -1, "num_reviews": 0, "website": null, "contact_phone": "+81 883-35-5301", "contact_email": null, "status": 1, "source_type": 1, "numberReviews": 0}, {"name": "Hanamaru Udon Tokushima Kokufucho", "type": "restaurant", "image": null, "address": "629-1 Kofu-Cho Kannon Temple Character Omizo, Tokushima 779-3123 Qu\u00e2\u0323n Tokushima", "lat": 34.07026, "lng": 134.47018, "ref_id": 19264401, "rating": -1, "num_reviews": 0, "website": null, "contact_phone": "+81 88-678-8703", "contact_email": null, "status": 1, "source_type": 1, "numberReviews": 0}, {"name": "Kozosushi Itano", "type": "restaurant", "image": null, "address": "140-1 Otera Character Prince, Itano-cho, Itano-gun 779-0105 Qu\u00e2\u0323n Tokushima", "lat": 34.141594, "lng": 134.46475, "ref_id": 13267546, "rating": -1, "num_reviews": 0, "website": null, "contact_phone": "+81 120-960-226", "contact_email": null, "status": 1, "source_type": 1, "numberReviews": 0}, {"name": "Kushiya", "type": "restaurant", "image": null, "address": "602-1 Fuchu Kokufucho, Tokushima Qu\u00e2\u0323n Tokushima", "lat": 34.071568, "lng": 134.48102, "ref_id": 7450912, "rating": -1, "num_reviews": 0, "website": null, "contact_phone": "+81 88-642-6948", "contact_email": null, "status": 1, "source_type": 1, "numberReviews": 0}, {"name": "Torimitsu", "type": "restaurant", "image": null, "address": "106-6 Oezuka Kamojimacho, Yoshinogawa Qu\u00e2\u0323n Tokushima", "lat": 34.071304, "lng": 134.38118, "ref_id": 7674514, "rating": -1, "num_reviews": 0, "website": null, "contact_phone": "+81 883-24-8877", "contact_email": null, "status": 1, "source_type": 1, "numberReviews": 0}, {"name": "Izakaya Shingo", "type": "restaurant", "image": null, "address": "69-1 Yasumasa Awacho, Awa Qu\u00e2\u0323n Tokushima", "lat": 34.084713, "lng": 134.24391, "ref_id": 7504085, "rating": -1, "num_reviews": 0, "website": null, "contact_phone": "+81 883-35-7009", "contact_email": null, "status": 1, "source_type": 1, "numberReviews": 0}, {"name": "Shiranai Doshi", "type": "restaurant", "image": null, "address": "6-5 Wakamiya Minami Oaza Inoshiri Wakimachi, Mima Qu\u00e2\u0323n Tokushima", "lat": 34.067898, "lng": 134.15862, "ref_id": 7504053, "rating": -1, "num_reviews": 0, "website": null, "contact_phone": "+81 883-53-7686", "contact_email": null, "status": 1, "source_type": 1, "numberReviews": 0}, {"name": "Kappo Ueno", "type": "restaurant", "image": null, "address": "110-5 Shitabun Imai, Kamiyama-cho, Myozai-gun 771-3421 Qu\u00e2\u0323n Tokushima", "lat": 33.96021, "lng": 134.31137, "ref_id": 14737020, "rating": -1, "num_reviews": 0, "website": null, "contact_phone": "+81 88-677-0139", "contact_email": null, "status": 1, "source_type": 1, "numberReviews": 0}, {"name": "Sekitoba", "type": "restaurant", "image": null, "address": "2176?1 Kamojimacho Ushishima, Yoshinogawa 776-0001 Qu\u00e2\u0323n Tokushima", "lat": 34.084095, "lng": 134.39284, "ref_id": 4905380, "rating": -1, "num_reviews": 0, "website": null, "contact_phone": "+81 883-22-8650", "contact_email": null, "status": 1, "source_type": 1, "numberReviews": 0}, {"name": "Yuki", "type": "restaurant", "image": null, "address": "200-1 Maekawa Yamakawacho, Yoshinogawa Qu\u00e2\u0323n Tokushima", "lat": 34.057404, "lng": 134.2383, "ref_id": 7503940, "rating": -1, "num_reviews": 0, "website": null, "contact_phone": "+81 883-42-6456", "contact_email": null, "status": 1, "source_type": 1, "numberReviews": 0}, {"name": "Mampukutaro", "type": "restaurant", "image": null, "address": "2817 Wakimachi Haibara, Mima Qu\u00e2\u0323n Tokushima", "lat": 34.0656, "lng": 134.17805, "ref_id": 7504056, "rating": -1, "num_reviews": 0, "website": null, "contact_phone": "+81 883-53-7074", "contact_email": null, "status": 1, "source_type": 1, "numberReviews": 0}, {"name": "Hatchan", "type": "restaurant", "image": null, "address": "656-1 Ishii Aza Ishii, Ishii-cho, Myozai-gun Qu\u00e2\u0323n Tokushima", "lat": 34.07076, "lng": 134.4509, "ref_id": 7642520, "rating": -1, "num_reviews": 0, "website": null, "contact_phone": "+81 88-674-3150", "contact_email": null, "status": 1, "source_type": 1, "numberReviews": 0}, {"name": "Tosa", "type": "restaurant", "image": "https://dynamic-media-cdn.tripadvisor.com/media/photo-o/1c/9d/b5/20/caption.jpg?w=1000&s=1", "address": "598-6 Kokufucho Kou, Tokushima Qu\u00e2\u0323n Tokushima", "lat": 34.071957, "lng": 134.48177, "ref_id": 7636627, "rating": -1, "num_reviews": 0, "website": null, "contact_phone": "+81 88-642-1035", "contact_email": null, "status": 1, "source_type": 1, "numberReviews": 0}, {"name": "Aizumisabo", "type": "restaurant", "image": null, "address": "58-1 Ryojihoji Higashinakatomi, Aizumi-cho, Itano-gun Qu\u00e2\u0323n Tokushima", "lat": 34.12509, "lng": 134.47742, "ref_id": 7482192, "rating": -1, "num_reviews": 0, "website": null, "contact_phone": "+81 88-692-2250", "contact_email": null, "status": 1, "source_type": 1, "numberReviews": 0}, {"name": "Kareishi", "type": "restaurant", "image": null, "address": "55 Saijo Aza Harata Yoshinocho, Awa Qu\u00e2\u0323n Tokushima", "lat": 34.105015, "lng": 134.38776, "ref_id": 7504063, "rating": -1, "num_reviews": 0, "website": null, "contact_phone": "+81 88-696-3127", "contact_email": null, "status": 1, "source_type": 1, "numberReviews": 0}, {"name": "Rest House Run", "type": "restaurant", "image": null, "address": "13 Higashinakatomi Nagaehoji, Aizumi-cho, Itano-gun Qu\u00e2\u0323n Tokushima", "lat": 34.128613, "lng": 134.48059, "ref_id": 7482117, "rating": -1, "num_reviews": 0, "website": null, "contact_phone": "+81 88-692-8115", "contact_email": null, "status": 1, "source_type": 1, "numberReviews": 0}, {"name": "Robatayaki Ippei", "type": "restaurant", "image": null, "address": "770-1 Aza-Haibara Wakimachi, Mima Qu\u00e2\u0323n Tokushima", "lat": 34.068844, "lng": 134.17143, "ref_id": 7504049, "rating": -1, "num_reviews": 0, "website": null, "contact_phone": "+81 883-53-0735", "contact_email": null, "status": 1, "source_type": 1, "numberReviews": 0}, {"name": "Kaguy Grill Cafe", "type": "restaurant", "image": null, "address": "4-2 Yatakeji Minamikawa Recess, Itano-cho, Itano-gun 779-0115 Qu\u00e2\u0323n Tokushima", "lat": 34.120388, "lng": 134.44077, "ref_id": 13241102, "rating": -1, "num_reviews": 0, "website": null, "contact_phone": "+81 88-672-2344", "contact_email": null, "status": 1, "source_type": 1, "numberReviews": 0}, {"name": "Korin Chuka Cuisine", "type": "restaurant", "image": "https://dynamic-media-cdn.tripadvisor.com/media/photo-o/04/a0/15/7f/korin-chuka-cuisine.jpg?w=1000&s=1", "address": "707-1 Takagawara Ishii-Cho, Ishii-cho, Myozai-gun 779-3222 Qu\u00e2\u0323n Tokushima", "lat": 34.082775, "lng": 134.44044, "ref_id": 4905991, "rating": -1, "num_reviews": 0, "website": null, "contact_phone": "+81 88-674-7213", "contact_email": null, "status": 1, "source_type": 1, "numberReviews": 0}, {"name": "Matsukaze", "type": "restaurant", "image": null, "address": "2576-5 Tsuda Tsudamachi, Sanuki 769-2401 Kagawa Prefecture", "lat": 34.297817, "lng": 134.246, "ref_id": 19273521, "rating": -1, "num_reviews": 0, "website": null, "contact_phone": "+81 879-42-2929", "contact_email": null, "status": 1, "source_type": 1, "numberReviews": 0}, {"name": "Kappo Miyatake", "type": "restaurant", "image": null, "address": "2-1-4 Kawaramachi, Takamatsu 760-0052 Kagawa Prefecture", "lat": 34.34083, "lng": 134.04994, "ref_id": 17358264, "rating": -1, "num_reviews": 0, "website": null, "contact_phone": "+81 87-837-1616", "contact_email": null, "status": 1, "source_type": 1, "numberReviews": 0}, {"name": "Tantan Noodles Gyoza Raiden", "type": "restaurant", "image": null, "address": "1-4 Tokiwacho Iroha Market, Takamatsu 760-0054 Kagawa Prefecture", "lat": 34.3389, "lng": 134.05092, "ref_id": 4905674, "rating": -1, "num_reviews": 0, "website": null, "contact_phone": "+81 87-832-0168", "contact_email": null, "status": 1, "source_type": 1, "numberReviews": 0}, {"name": "Nakakita Seimen", "type": "restaurant", "image": null, "address": "1012 Chokusicho, Takamatsu 761-8058 Kagawa Prefecture", "lat": 34.306816, "lng": 134.02164, "ref_id": 10652650, "rating": -1, "num_reviews": 0, "website": null, "contact_phone": "+81 87-866-8085", "contact_email": null, "status": 1, "source_type": 1, "numberReviews": 0}, {"name": "Ajidayori Bandai", "type": "restaurant", "image": null, "address": "2-2-10 Kawaramachi, Takamatsu 760-0052 Kagawa Prefecture", "lat": 34.340515, "lng": 134.05177, "ref_id": 9689708, "rating": -1, "num_reviews": 0, "website": null, "contact_phone": "+81 87-837-2120", "contact_email": null, "status": 1, "source_type": 1, "numberReviews": 0}, {"name": "Ryotei Iawsakiso", "type": "restaurant", "image": null, "address": "594-11 Kagawacho Kawahigashikami, Takamatsu 761-1706 Kagawa Prefecture", "lat": 34.226715, "lng": 134.03574, "ref_id": 5125183, "rating": -1, "num_reviews": 0, "website": null, "contact_phone": "+81 87-879-2025", "contact_email": null, "status": 1, "source_type": 1, "numberReviews": 0}, {"name": "Rurevu Tamachi", "type": "restaurant", "image": null, "address": "8-19 Tamachi, Takamatsu 760-0053 Kagawa Prefecture", "lat": 34.336395, "lng": 134.04884, "ref_id": 13038756, "rating": -1, "num_reviews": 0, "website": null, "contact_phone": "+81 87-831-8388", "contact_email": null, "status": 1, "source_type": 1, "numberReviews": 0}, {"name": "Kakurenbo", "type": "restaurant", "image": null, "address": "1913-1 Ono, Kagawacho, Takamatsu 761-1701 Kagawa Prefecture", "lat": 34.266533, "lng": 134.01982, "ref_id": 9650430, "rating": -1, "num_reviews": 0, "website": null, "contact_phone": "+81 87-885-2688", "contact_email": null, "status": 1, "source_type": 1, "numberReviews": 0}, {"name": "Zen", "type": "restaurant", "image": null, "address": "4-12 Oharano Hiagshi Sakaidanicho Nishikyo-Ku, Takamatsu Kagawa Prefecture", "lat": 34.343224, "lng": 134.05339, "ref_id": 7450328, "rating": -1, "num_reviews": 0, "website": null, "contact_phone": "+81 87-802-3155", "contact_email": null, "status": 1, "source_type": 1, "numberReviews": 0}, {"name": "La Hepice", "type": "restaurant", "image": null, "address": "807-1 Kamitenjincho, Takamatsu Kagawa Prefecture", "lat": 34.309067, "lng": 134.03888, "ref_id": 7450182, "rating": -1, "num_reviews": 0, "website": null, "contact_phone": "+81 87-815-1622", "contact_email": null, "status": 1, "source_type": 1, "numberReviews": 0}, {"name": "Sumibi Kushiyaki Bistro Konatsu", "type": "restaurant", "image": null, "address": "523-4 Kawashima Higashimachi Kawashima Shopping Plaza, Takamatsu 761-0443 Kagawa Prefecture", "lat": 34.27572, "lng": 134.1005, "ref_id": 4905695, "rating": -1, "num_reviews": 0, "website": null, "contact_phone": "+81 87-848-5870", "contact_email": null, "status": 1, "source_type": 1, "numberReviews": 0}, {"name": "Ramen Shokudo Hiro", "type": "restaurant", "image": null, "address": "8-16 Minamishimmachi Tanaka Bldg. 1F, Takamatsu 760-0051 Kagawa Prefecture", "lat": 34.33966, "lng": 134.04956, "ref_id": 4901846, "rating": -1, "num_reviews": 0, "website": null, "contact_phone": "+81 87-800-0090", "contact_email": null, "status": 1, "source_type": 1, "numberReviews": 0}, {"name": "Konbiraya Mitani", "type": "restaurant", "image": null, "address": "1244-1 Mitanicho, Takamatsu 761-0450 Kagawa Prefecture", "lat": 34.278416, "lng": 134.06662, "ref_id": 9650493, "rating": -1, "num_reviews": 0, "website": null, "contact_phone": "+81 87-813-5400", "contact_email": null, "status": 1, "source_type": 1, "numberReviews": 0}, {"name": "Eldorado Cafe2", "type": "restaurant", "image": null, "address": "7-8 Daikumachi, Takamatsu 760-0042 Kagawa Prefecture", "lat": 34.34449, "lng": 134.05202, "ref_id": 13038398, "rating": -1, "num_reviews": 0, "website": null, "contact_phone": "+81 87-873-2342", "contact_email": null, "status": 1, "source_type": 1, "numberReviews": 0}, {"name": "Panaderia Tivoli Kuribayashi", "type": "restaurant", "image": null, "address": "3-157-26 Fujizukacho, Takamatsu 760-0071 Kagawa Prefecture", "lat": 34.332413, "lng": 134.05247, "ref_id": 13038714, "rating": -1, "num_reviews": 0, "website": null, "contact_phone": "+81 87-863-3500", "contact_email": null, "status": 1, "source_type": 1, "numberReviews": 0}, {"name": "Niku Bar Macqueen", "type": "restaurant", "image": null, "address": "1-4-5 Tokiwacho, Takamatsu 760-0054 Kagawa Prefecture", "lat": 34.338806, "lng": 134.05046, "ref_id": 15101257, "rating": -1, "num_reviews": 0, "website": null, "contact_phone": "+81 87-813-0344", "contact_email": null, "status": 1, "source_type": 1, "numberReviews": 0}, {"name": "En Joy", "type": "restaurant", "image": null, "address": "9-26 Marugamemachi Sugiyama Bldg. 2F, Takamatsu 760-0029 Kagawa Prefecture", "lat": 34.342598, "lng": 134.0501, "ref_id": 13275979, "rating": -1, "num_reviews": 0, "website": null, "contact_phone": "+81 87-826-2201", "contact_email": null, "status": 1, "source_type": 1, "numberReviews": 0}, {"name": "Shabuyo Takamatsu Rainbow Road", "type": "restaurant", "image": null, "address": "2139-9 Fuseishicho, Takamatsu 761-8071 Kagawa Prefecture", "lat": 34.309647, "lng": 134.06088, "ref_id": 14856686, "rating": -1, "num_reviews": 0, "website": null, "contact_phone": "+81 87-864-5060", "contact_email": null, "status": 1, "source_type": 1, "numberReviews": 0}, {"name": "Shabu-shabu Onyasai Takamatsu Kita", "type": "restaurant", "image": null, "address": "2698-4 Kitacho, Takamatsu 760-0080 Kagawa Prefecture", "lat": 34.339706, "lng": 134.08206, "ref_id": 4899402, "rating": -1, "num_reviews": 0, "website": null, "contact_phone": "+81 87-831-0831", "contact_email": null, "status": 1, "source_type": 1, "numberReviews": 0}, {"name": "The Beatles", "type": "restaurant", "image": null, "address": "8-7 Furubabacho, Takamatsu 760-0045 Kagawa Prefecture", "lat": 34.34276, "lng": 134.05067, "ref_id": 13038847, "rating": -1, "num_reviews": 0, "website": null, "contact_phone": "+81 87-822-9443", "contact_email": null, "status": 1, "source_type": 1, "numberReviews": 0}, {"name": "Sports * Free Bar Glee", "type": "restaurant", "image": null, "address": "2-10-6 Kawaramachi Kawabe Building 1F, Takamatsu 760-0052 Kagawa Prefecture", "lat": 34.34005, "lng": 134.05019, "ref_id": 17840984, "rating": -1, "num_reviews": 0, "website": null, "contact_phone": "+81 80-5662-4919", "contact_email": null, "status": 1, "source_type": 1, "numberReviews": 0}, {"name": "OKI Olive Garden Cafe", "type": "restaurant", "image": null, "address": "4560-1Nishiuetacho, Takamatsu 761-0445 Kagawa Prefecture", "lat": 34.243748, "lng": 134.0596, "ref_id": 17432144, "rating": -1, "num_reviews": 0, "website": null, "contact_phone": "+81 80-1623-7772", "contact_email": null, "status": 1, "source_type": 1, "numberReviews": 0}, {"name": "Jamaican Corner Browns", "type": "restaurant", "image": null, "address": "6-9 Fukudacho, Takamatsu Kagawa Prefecture", "lat": 34.341984, "lng": 134.05412, "ref_id": 7450128, "rating": -1, "num_reviews": 0, "website": null, "contact_phone": "+81 87-816-0707", "contact_email": null, "status": 1, "source_type": 1, "numberReviews": 0}, {"name": "La Fontaine", "type": "restaurant", "image": null, "address": "8-9 Kameicho, Takamatsu Kagawa Prefecture", "lat": 34.339867, "lng": 134.04799, "ref_id": 7450178, "rating": -1, "num_reviews": 0, "website": null, "contact_phone": "+81 87-837-0971", "contact_email": null, "status": 1, "source_type": 1, "numberReviews": 0}, {"name": "Shogatsuya", "type": "restaurant", "image": null, "address": "1-15 Furubabacho, Takamatsu 760-0045 Kagawa Prefecture", "lat": 34.34317, "lng": 134.0514, "ref_id": 18339181, "rating": -1, "num_reviews": 0, "website": null, "contact_phone": "+81 87-851-3827", "contact_email": null, "status": 1, "source_type": 1, "numberReviews": 0}, {"name": "Burger&Dining Liberco", "type": "restaurant", "image": null, "address": "2-10-10 Kawaramachi Oka Building 1F, Takamatsu 760-0052 Kagawa Prefecture", "lat": 34.339912, "lng": 134.05034, "ref_id": 17354823, "rating": -1, "num_reviews": 0, "website": null, "contact_phone": "+81 87-808-8224", "contact_email": null, "status": 1, "source_type": 1, "numberReviews": 0}, {"name": "Nakano Cafe", "type": "restaurant", "image": null, "address": "3-7 Higashida-Cho, Takamatsu 760-0058 Kagawa Prefecture", "lat": 34.335884, "lng": 134.05028, "ref_id": 14736726, "rating": -1, "num_reviews": 0, "website": null, "contact_phone": "+81 87-834-0284", "contact_email": null, "status": 1, "source_type": 1, "numberReviews": 0}, {"name": "Coffee Senka Sawa", "type": "restaurant", "image": null, "address": "51-3 Kami Hayashicho, Takamatsu 761-0302 Kagawa Prefecture", "lat": 34.290226, "lng": 134.07516, "ref_id": 9615145, "rating": -1, "num_reviews": 0, "website": null, "contact_phone": "+81 87-888-3582", "contact_email": null, "status": 1, "source_type": 1, "numberReviews": 0}, {"name": "Heartland", "type": "restaurant", "image": null, "address": "3720-314 Murechomure, Takamatsu 761-0121 Kagawa Prefecture", "lat": 34.354897, "lng": 134.12128, "ref_id": 13038449, "rating": -1, "num_reviews": 0, "website": null, "contact_phone": "+81 87-845-0355", "contact_email": null, "status": 1, "source_type": 1, "numberReviews": 0}, {"name": "Yakiya", "type": "restaurant", "image": null, "address": "9-10 Furubabacho, Takamatsu Kagawa Prefecture", "lat": 34.342384, "lng": 134.05147, "ref_id": 7450174, "rating": -1, "num_reviews": 0, "website": null, "contact_phone": "+81 87-851-8727", "contact_email": null, "status": 1, "source_type": 1, "numberReviews": 0}, {"name": "Kappo Higashioka", "type": "restaurant", "image": null, "address": "1-34 Akitamachi, Tokushima 770-0934 Qu\u00e2\u0323n Tokushima", "lat": 34.065327, "lng": 134.54926, "ref_id": 9628311, "rating": -1, "num_reviews": 0, "website": null, "contact_phone": "+81 88-622-0166", "contact_email": null, "status": 1, "source_type": 1, "numberReviews": 0}, {"name": "Cafe Lotti", "type": "restaurant", "image": null, "address": "180 Nishihama Hoji Yamashirocho, Tokushima Qu\u00e2\u0323n Tokushima", "lat": 34.052715, "lng": 134.5573, "ref_id": 7450834, "rating": -1, "num_reviews": 0, "website": null, "contact_phone": "+81 88-652-0133", "contact_email": null, "status": 1, "source_type": 1, "numberReviews": 0}, {"name": "Yukari", "type": "restaurant", "image": null, "address": "343-3 Kamojimacho Kamojima, Yoshinogawa Qu\u00e2\u0323n Tokushima", "lat": 34.07078, "lng": 134.35411, "ref_id": 7503939, "rating": -1, "num_reviews": 0, "website": null, "contact_phone": "+81 883-24-7712", "contact_email": null, "status": 1, "source_type": 1, "numberReviews": 0}, {"name": "Hoshinaka", "type": "restaurant", "image": null, "address": "1-16 Takajomachi, Tokushima 770-0922 Qu\u00e2\u0323n Tokushima", "lat": 34.066116, "lng": 134.54832, "ref_id": 9638837, "rating": -1, "num_reviews": 0, "website": null, "contact_phone": "+81 88-656-3630", "contact_email": null, "status": 1, "source_type": 1, "numberReviews": 0}, {"name": "Meoto", "type": "restaurant", "image": null, "address": "429-6 Kamojimacho Kamojima, Yoshinogawa Qu\u00e2\u0323n Tokushima", "lat": 34.072903, "lng": 134.35841, "ref_id": 7503970, "rating": -1, "num_reviews": 0, "website": null, "contact_phone": "+81 883-22-2488", "contact_email": null, "status": 1, "source_type": 1, "numberReviews": 0}, {"name": "Snack Emiri", "type": "restaurant", "image": null, "address": "435-9 Kamojimachokamojima, Yoshinogawa 776-0010 Qu\u00e2\u0323n Tokushima", "lat": 34.072914, "lng": 134.35797, "ref_id": 18339027, "rating": -1, "num_reviews": 0, "website": null, "contact_phone": "+81 883-22-2870", "contact_email": null, "status": 1, "source_type": 1, "numberReviews": 0}, {"name": "Aoitori", "type": "restaurant", "image": null, "address": "108-1 Shimonosho Kosugi, Itano-cho, Itano-gun Qu\u00e2\u0323n Tokushima", "lat": 34.12266, "lng": 134.4545, "ref_id": 7482177, "rating": -1, "num_reviews": 0, "website": null, "contact_phone": "+81 88-672-2278", "contact_email": null, "status": 1, "source_type": 1, "numberReviews": 0}, {"name": "Riverside View", "type": "restaurant", "image": null, "address": "4-13-7 Sumiyoshi, Tokushima 770-0861 Qu\u00e2\u0323n Tokushima", "lat": 34.082005, "lng": 134.57123, "ref_id": 5788997, "rating": -1, "num_reviews": 0, "website": null, "contact_phone": "+81 88-622-0065", "contact_email": null, "status": 1, "source_type": 1, "numberReviews": 0}, {"name": "Global Curry House", "type": "restaurant", "image": "https://dynamic-media-cdn.tripadvisor.com/media/photo-o/29/5e/f9/0c/caption.jpg?w=1000&s=1", "address": "654-8 Ishii Aza Ishii, Ishii-cho, Myozai-gun 799-3233 Qu\u00e2\u0323n Tokushima", "lat": 34.070564, "lng": 134.45097, "ref_id": 18178519, "rating": -1, "num_reviews": 0, "website": "http://www.globalcurry.jp", "contact_phone": "+81 88-661-0922", "contact_email": "office@globalcurry.jp", "status": 1, "source_type": 1, "numberReviews": 0}, {"name": "Araiso", "type": "restaurant", "image": null, "address": "5-1 Sako Rokubancho, Tokushima 770-0026 Qu\u00e2\u0323n Tokushima", "lat": 34.07858, "lng": 134.52762, "ref_id": 9673736, "rating": -1, "num_reviews": 0, "website": null, "contact_phone": "+81 88-652-6828", "contact_email": null, "status": 1, "source_type": 1, "numberReviews": 0}, {"name": "Kitchen Aratae Showa", "type": "restaurant", "image": null, "address": "8-78 Showacho, Tokushima 770-0942 Qu\u00e2\u0323n Tokushima", "lat": 34.05491, "lng": 134.57208, "ref_id": 13239798, "rating": -1, "num_reviews": 0, "website": null, "contact_phone": "+81 88-626-3482", "contact_email": null, "status": 1, "source_type": 1, "numberReviews": 0}, {"name": "Tokushima Ramen Genkotsuya", "type": "restaurant", "image": null, "address": "36-3 Konyamachi, Tokushima 770-0918 Qu\u00e2\u0323n Tokushima", "lat": 34.06729, "lng": 134.54909, "ref_id": 9615303, "rating": -1, "num_reviews": 0, "website": null, "contact_phone": "+81 88-678-5224", "contact_email": null, "status": 1, "source_type": 1, "numberReviews": 0}, {"name": "Honkekamadoya Kamojima", "type": "restaurant", "image": null, "address": "459-1 Kamojimachouchibara, Yoshinogawa 776-0003 Qu\u00e2\u0323n Tokushima", "lat": 34.06957, "lng": 134.36528, "ref_id": 13269926, "rating": -1, "num_reviews": 0, "website": null, "contact_phone": "+81 883-26-0114", "contact_email": null, "status": 1, "source_type": 1, "numberReviews": 0}, {"name": "Kato", "type": "restaurant", "image": null, "address": "1-4-66-1 Nishi Shinhamacho, Tokushima 770-8008 Qu\u00e2\u0323n Tokushima", "lat": 34.043915, "lng": 134.56145, "ref_id": 9689937, "rating": -1, "num_reviews": 0, "website": null, "contact_phone": "+81 88-663-2425", "contact_email": null, "status": 1, "source_type": 1, "numberReviews": 0}, {"name": "Irikoma", "type": "restaurant", "image": null, "address": "102-1 Kamojima, Kamojimacho, Yoshinogawa 776-0010 Qu\u00e2\u0323n Tokushima", "lat": 34.071846, "lng": 134.35612, "ref_id": 9623244, "rating": -1, "num_reviews": 0, "website": null, "contact_phone": "+81 883-24-6790", "contact_email": null, "status": 1, "source_type": 1, "numberReviews": 0}, {"name": "Okonomiyakimarukin", "type": "restaurant", "image": null, "address": "40-2 Kajiyabara Character Iyashiki East, Kamiita-cho, Itano-gun 771-1301 Qu\u00e2\u0323n Tokushima", "lat": 34.119244, "lng": 134.39792, "ref_id": 13241025, "rating": -1, "num_reviews": 0, "website": null, "contact_phone": "+81 88-694-2092", "contact_email": null, "status": 1, "source_type": 1, "numberReviews": 0}, {"name": "Awa One Chinese Buckwheat", "type": "restaurant", "image": null, "address": "2-4-66 Fukushima, Tokushima 770-0868 Qu\u00e2\u0323n Tokushima", "lat": 34.070206, "lng": 134.56772, "ref_id": 13265024, "rating": -1, "num_reviews": 0, "website": null, "contact_phone": "+81 88-652-3766", "contact_email": null, "status": 1, "source_type": 1, "numberReviews": 0}, {"name": "Karaoke Tsuki", "type": "restaurant", "image": null, "address": "1-4 Nakata-Cho Exit, Komatsushima 773-0015 Qu\u00e2\u0323n Tokushima", "lat": 34.01518, "lng": 134.56946, "ref_id": 14737050, "rating": -1, "num_reviews": 0, "website": null, "contact_phone": "+81 885-38-6078", "contact_email": null, "status": 1, "source_type": 1, "numberReviews": 0}, {"name": "Xinwu", "type": "restaurant", "image": null, "address": "10-13 Sako5Bancho, Tokushima 770-0025 Qu\u00e2\u0323n Tokushima", "lat": 34.0791, "lng": 134.53146, "ref_id": 13256910, "rating": -1, "num_reviews": 0, "website": null, "contact_phone": "+81 88-653-4647", "contact_email": null, "status": 1, "source_type": 1, "numberReviews": 0}, {"name": "Shun", "type": "restaurant", "image": null, "address": "1-5 Akitamachi Kitamura Bldg. 1F, Tokushima 770-0934 Qu\u00e2\u0323n Tokushima", "lat": 34.066807, "lng": 134.54988, "ref_id": 10651448, "rating": -1, "num_reviews": 0, "website": null, "contact_phone": "+81 88-624-7254", "contact_email": null, "status": 1, "source_type": 1, "numberReviews": 0}, {"name": "Caribbean Night 3", "type": "restaurant", "image": null, "address": "1-20 Akitamachi 2F, Tokushima 770-0934 Qu\u00e2\u0323n Tokushima", "lat": 34.065464, "lng": 134.54968, "ref_id": 17609422, "rating": -1, "num_reviews": 0, "website": "", "contact_phone": "+81 88-624-8353", "contact_email": null, "status": 1, "source_type": 1, "numberReviews": 0}, {"name": "Kingu Yakiniku Tokushima Oshin", "type": "restaurant", "image": null, "address": "38-2 Ojinchohigashisadakata, Tokushima 771-1154 Qu\u00e2\u0323n Tokushima", "lat": 34.116245, "lng": 134.5187, "ref_id": 5124994, "rating": -1, "num_reviews": 0, "website": null, "contact_phone": "+81 88-683-3866", "contact_email": null, "status": 1, "source_type": 1, "numberReviews": 0}, {"name": "Repeat", "type": "restaurant", "image": null, "address": "2-7 Akitamachi Plaza Annex 5F, Tokushima 770-0934 Qu\u00e2\u0323n Tokushima", "lat": 34.064705, "lng": 134.54965, "ref_id": 9633504, "rating": -1, "num_reviews": 0, "website": null, "contact_phone": "+81 88-656-5001", "contact_email": null, "status": 1, "source_type": 1, "numberReviews": 0}, {"name": "Hinata Okonomiyaki", "type": "restaurant", "image": null, "address": "18-6 Wada Aza Omote, Kokufucho, Tokushima 779-3121 Qu\u00e2\u0323n Tokushima", "lat": 34.072475, "lng": 134.48946, "ref_id": 13790661, "rating": -1, "num_reviews": 0, "website": null, "contact_phone": "+81 88-642-0276", "contact_email": null, "status": 1, "source_type": 1, "numberReviews": 0}, {"name": "Media Cafe Heart Land Tokushima Ekimae", "type": "restaurant", "image": null, "address": "3-12-8 Terashima Honcho Higashi, Tokushima 770-0832 Qu\u00e2\u0323n Tokushima", "lat": 34.073544, "lng": 134.55244, "ref_id": 9628253, "rating": -1, "num_reviews": 0, "website": null, "contact_phone": "+81 88-602-0770", "contact_email": null, "status": 1, "source_type": 1, "numberReviews": 0}, {"name": "Ko", "type": "restaurant", "image": null, "address": "128-5 Kamojimacho Jogejima, Yoshinogawa Qu\u00e2\u0323n Tokushima", "lat": 34.068447, "lng": 134.35349, "ref_id": 7503990, "rating": -1, "num_reviews": 0, "website": null, "contact_phone": "+81 883-22-3113", "contact_email": null, "status": 1, "source_type": 1, "numberReviews": 0}, {"name": "Izakaya Syu", "type": "restaurant", "image": null, "address": "2-12 Kuramotocho, Tokushima 770-0042 Qu\u00e2\u0323n Tokushima", "lat": 34.07898, "lng": 134.51907, "ref_id": 9689869, "rating": -1, "num_reviews": 0, "website": null, "contact_phone": "+81 88-632-6439", "contact_email": null, "status": 1, "source_type": 1, "numberReviews": 0}, {"name": "Paitan Ramen Kubota", "type": "restaurant", "image": null, "address": "6-5 Yoshinohoncho, Tokushima 770-0802 Qu\u00e2\u0323n Tokushima", "lat": 34.08758, "lng": 134.5518, "ref_id": 14736905, "rating": -1, "num_reviews": 0, "website": null, "contact_phone": "+81 88-678-6050", "contact_email": null, "status": 1, "source_type": 1, "numberReviews": 0}, {"name": "La bottega dell'olio", "type": "restaurant", "image": "https://dynamic-media-cdn.tripadvisor.com/media/photo-o/19/56/93/64/pietanze.jpg?w=1000&s=1", "address": "2-8 Tomidamachi Fukumi Bldg 2F, Tokushima 770-0915 Qu\u00e2\u0323n Tokushima", "lat": 34.06789, "lng": 134.5492, "ref_id": 7451041, "rating": -1, "num_reviews": 0, "website": "http://trattoriaolio.wix.com/olio", "contact_phone": "+81 88-624-5877", "contact_email": "trattoriaolio@yahoo.co.jp", "status": 1, "source_type": 1, "numberReviews": 0}, {"name": "Kakurenbo", "type": "restaurant", "image": null, "address": "1-27 Tomitacho, Tokushima 770-0915 Qu\u00e2\u0323n Tokushima", "lat": 34.068066, "lng": 134.54846, "ref_id": 9650817, "rating": -1, "num_reviews": 0, "website": null, "contact_phone": "+81 88-652-2442", "contact_email": null, "status": 1, "source_type": 1, "numberReviews": 0}, {"name": "Tachinoyama Cafe Sakurano Sato", "type": "restaurant", "image": null, "address": "3796 Tachino-Yama, Minocho, Miyoshi 771-2306 Qu\u00e2\u0323n Tokushima", "lat": 34.071445, "lng": 133.93912, "ref_id": 9689959, "rating": -1, "num_reviews": 0, "website": null, "contact_phone": "+81 883-76-2078", "contact_email": null, "status": 1, "source_type": 1, "numberReviews": 0}, {"name": "Restaurant Kashi No Mori", "type": "restaurant", "image": null, "address": "1 Kuchiyama Aza Maruyama Anabukicho, Mima Qu\u00e2\u0323n Tokushima", "lat": 34.023193, "lng": 134.15016, "ref_id": 7504024, "rating": -1, "num_reviews": 0, "website": null, "contact_phone": "+81 883-55-3777", "contact_email": null, "status": 1, "source_type": 1, "numberReviews": 0}, {"name": "Ajikan", "type": "restaurant", "image": null, "address": "248-1 Seiriki, Minocho, Miyoshi 771-2303 Qu\u00e2\u0323n Tokushima", "lat": 34.054794, "lng": 133.97813, "ref_id": 9668914, "rating": -1, "num_reviews": 0, "website": null, "contact_phone": "+81 883-77-3565", "contact_email": null, "status": 1, "source_type": 1, "numberReviews": 0}, {"name": "Karaoke Cafe Donguri", "type": "restaurant", "image": null, "address": "18-7 Sadamitsu Miyauchi, Tsurugi-cho, Mima-gun 779-4103 Qu\u00e2\u0323n Tokushima", "lat": 34.033463, "lng": 134.06581, "ref_id": 14737092, "rating": -1, "num_reviews": 0, "website": null, "contact_phone": "+81 883-62-3107", "contact_email": null, "status": 1, "source_type": 1, "numberReviews": 0}, {"name": "Ishikawa", "type": "restaurant", "image": null, "address": "4559-1 Kamo Higashimiyoshi-Cho, Higashimiyoshi-cho, Miyoshi-gun 779-4701 Qu\u00e2\u0323n Tokushima", "lat": 34.03412, "lng": 133.91689, "ref_id": 13268148, "rating": -1, "num_reviews": 0, "website": null, "contact_phone": "+81 883-82-2151", "contact_email": null, "status": 1, "source_type": 1, "numberReviews": 0}, {"name": "Shubotomato", "type": "restaurant", "image": null, "address": "180-1 Tatejinjashimominami Oaza Inoshiri Wakimachi, Mima Qu\u00e2\u0323n Tokushima", "lat": 34.063618, "lng": 134.16135, "ref_id": 7504054, "rating": -1, "num_reviews": 0, "website": null, "contact_phone": "+81 883-52-5367", "contact_email": null, "status": 1, "source_type": 1, "numberReviews": 0}, {"name": "Rocky Yakitori", "type": "restaurant", "image": null, "address": "38 Mimacho Aza Kitahigashibara, Mima Qu\u00e2\u0323n Tokushima", "lat": 34.055264, "lng": 134.04886, "ref_id": 7504028, "rating": -1, "num_reviews": 0, "website": null, "contact_phone": "+81 883-63-4669", "contact_email": null, "status": 1, "source_type": 1, "numberReviews": 0}, {"name": "Sakamichi", "type": "restaurant", "image": null, "address": "4-3 Nishisho Character Kashiwagi, Higashimiyoshi-cho, Miyoshi-gun 779-4702 Qu\u00e2\u0323n Tokushima", "lat": 34.04036, "lng": 133.94391, "ref_id": 13268683, "rating": -1, "num_reviews": 0, "website": null, "contact_phone": "+81 883-82-2620", "contact_email": null, "status": 1, "source_type": 1, "numberReviews": 0}, {"name": "New Himawari", "type": "restaurant", "image": null, "address": "1867-1 Kamo, Higashimiyoshi-cho, Miyoshi-gun Qu\u00e2\u0323n Tokushima", "lat": 34.037407, "lng": 133.92516, "ref_id": 7482211, "rating": -1, "num_reviews": 0, "website": null, "contact_phone": "+81 883-82-5631", "contact_email": null, "status": 1, "source_type": 1, "numberReviews": 0}, {"name": "Sobagoya", "type": "restaurant", "image": null, "address": "541-4 Ichiu Aza Ichiu, Tsurugi-cho, Mima-gun Qu\u00e2\u0323n Tokushima", "lat": 33.964565, "lng": 134.07541, "ref_id": 7664360, "rating": -1, "num_reviews": 0, "website": null, "contact_phone": "+81 883-67-2277", "contact_email": null, "status": 1, "source_type": 1, "numberReviews": 0}, {"name": "Gyuhana", "type": "restaurant", "image": null, "address": "46-5 Mimacho Aza Kiraiichi, Mima Qu\u00e2\u0323n Tokushima", "lat": 34.05149, "lng": 134.05582, "ref_id": 7504050, "rating": -1, "num_reviews": 0, "website": null, "contact_phone": "+81 883-63-5029", "contact_email": null, "status": 1, "source_type": 1, "numberReviews": 0}, {"name": "Menkoiya", "type": "restaurant", "image": null, "address": "149-1 Handa Nakayabu, Tsurugi-cho, Mima-gun Qu\u00e2\u0323n Tokushima", "lat": 34.04083, "lng": 134.0413, "ref_id": 7667177, "rating": -1, "num_reviews": 0, "website": null, "contact_phone": "+81 883-64-3281", "contact_email": null, "status": 1, "source_type": 1, "numberReviews": 0}, {"name": "Kenz Kitchen", "type": "restaurant", "image": null, "address": "2672-2 Kamo Higashimiyoshi-Cho, Higashimiyoshi-cho, Miyoshi-gun 779-4701 Qu\u00e2\u0323n Tokushima", "lat": 34.02615, "lng": 133.91653, "ref_id": 13241893, "rating": -1, "num_reviews": 0, "website": null, "contact_phone": "+81 883-82-1999", "contact_email": null, "status": 1, "source_type": 1, "numberReviews": 0}, {"name": "Hibinoki Shokudo", "type": "restaurant", "image": null, "address": "1391-2 Oaza Wakimachi Wakimachi, Mima Qu\u00e2\u0323n Tokushima", "lat": 34.074863, "lng": 134.1503, "ref_id": 7504015, "rating": -1, "num_reviews": 0, "website": null, "contact_phone": "+81 883-53-5478", "contact_email": null, "status": 1, "source_type": 1, "numberReviews": 0}, {"name": "Okonomiyaki Horie", "type": "restaurant", "image": null, "address": "50 Anabuki Gotanchi, Anabukicho, Mima 777-0005 Qu\u00e2\u0323n Tokushima", "lat": 34.054405, "lng": 134.1691, "ref_id": 17356204, "rating": -1, "num_reviews": 0, "website": null, "contact_phone": "+81 883-53-9939", "contact_email": null, "status": 1, "source_type": 1, "numberReviews": 0}, {"name": "Izakaya Kenchan", "type": "restaurant", "image": null, "address": "2555 Haibara, Wakimachi 1f1, Mima 779-3601 Qu\u00e2\u0323n Tokushima", "lat": 34.065155, "lng": 134.17393, "ref_id": 9690003, "rating": -1, "num_reviews": 0, "website": null, "contact_phone": "+81 883-53-0757", "contact_email": null, "status": 1, "source_type": 1, "numberReviews": 0}, {"name": "Akakara Tokushima Wakimachi", "type": "restaurant", "image": null, "address": "1766-1 Haibara, Wakimachi, Mima 779-3601 Qu\u00e2\u0323n Tokushima", "lat": 34.063023, "lng": 134.16814, "ref_id": 9680221, "rating": -1, "num_reviews": 0, "website": null, "contact_phone": "+81 883-53-0014", "contact_email": null, "status": 1, "source_type": 1, "numberReviews": 0}, {"name": "Kisetsu Cuisine Fujimoto", "type": "restaurant", "image": null, "address": "47 Anabuki Oka, Anabukicho, Mima 777-0005 Qu\u00e2\u0323n Tokushima", "lat": 34.052822, "lng": 134.16817, "ref_id": 9689980, "rating": -1, "num_reviews": 0, "website": null, "contact_phone": "+81 883-52-1336", "contact_email": null, "status": 1, "source_type": 1, "numberReviews": 0}, {"name": "Yakitori Udatsu", "type": "restaurant", "image": null, "address": "333-3 Wakimachi Oaza Wakimachi, Mima Qu\u00e2\u0323n Tokushima", "lat": 34.069122, "lng": 134.14925, "ref_id": 7504052, "rating": -1, "num_reviews": 0, "website": null, "contact_phone": "+81 883-53-7180", "contact_email": null, "status": 1, "source_type": 1, "numberReviews": 0}, {"name": "Sushi Ichi", "type": "restaurant", "image": null, "address": "2-5 Anabuki Oka, Anabukicho, Mima 777-0005 Qu\u00e2\u0323n Tokushima", "lat": 34.05232, "lng": 134.16814, "ref_id": 9689982, "rating": -1, "num_reviews": 0, "website": null, "contact_phone": "+81 883-53-8984", "contact_email": null, "status": 1, "source_type": 1, "numberReviews": 0}, {"name": "Tottoya Seian", "type": "restaurant", "image": null, "address": "49-1 Anabuki Aza Oka, Anabukicho, Mima 777-0005 Qu\u00e2\u0323n Tokushima", "lat": 34.05302, "lng": 134.16801, "ref_id": 9645435, "rating": -1, "num_reviews": 0, "website": null, "contact_phone": "+81 883-53-3090", "contact_email": null, "status": 1, "source_type": 1, "numberReviews": 0}, {"name": "Jidori Dokoro Kakuremasu", "type": "restaurant", "image": null, "address": "1303-2 Oaza Wakimachi, Wakimachi, Mima 779-3610 Qu\u00e2\u0323n Tokushima", "lat": 34.070435, "lng": 134.1491, "ref_id": 9690004, "rating": -1, "num_reviews": 0, "website": null, "contact_phone": "+81 883-52-0420", "contact_email": null, "status": 1, "source_type": 1, "numberReviews": 0}, {"name": "Hitomi", "type": "restaurant", "image": null, "address": "37-1 Aza Kawaharada Nishisho, Higashimiyoshi-cho, Miyoshi-gun 779-4702 Qu\u00e2\u0323n Tokushima", "lat": 34.0373, "lng": 133.93797, "ref_id": 10009668, "rating": -1, "num_reviews": 0, "website": null, "contact_phone": "+81 883-82-1102", "contact_email": null, "status": 1, "source_type": 1, "numberReviews": 0}, {"name": "Jyotoku", "type": "restaurant", "image": null, "address": "13-1 Sadamitsu Character Higashiura, Tsurugi-cho, Mima-gun 779-4101 Qu\u00e2\u0323n Tokushima", "lat": 34.036938, "lng": 134.0635, "ref_id": 13267775, "rating": -1, "num_reviews": 0, "website": null, "contact_phone": "+81 883-62-2507", "contact_email": null, "status": 1, "source_type": 1, "numberReviews": 0}, {"name": "Aji No Ie", "type": "restaurant", "image": null, "address": "410-15 Shimizu Minocho, Miyoshi Qu\u00e2\u0323n Tokushima", "lat": 34.0482, "lng": 133.99864, "ref_id": 7642660, "rating": -1, "num_reviews": 0, "website": null, "contact_phone": "+81 883-77-2888", "contact_email": null, "status": 1, "source_type": 1, "numberReviews": 0}, {"name": "Komachian", "type": "restaurant", "image": null, "address": "82-1 Mima-Cho East Muneshige, Mima 771-2104 Qu\u00e2\u0323n Tokushima", "lat": 34.06098, "lng": 134.07045, "ref_id": 14737017, "rating": -1, "num_reviews": 0, "website": null, "contact_phone": "+81 883-55-2211", "contact_email": null, "status": 1, "source_type": 1, "numberReviews": 0}, {"name": "Kaneka", "type": "restaurant", "image": null, "address": "161 Sadamitsu Character Otahigashi, Tsurugi-cho, Mima-gun 779-4104 Qu\u00e2\u0323n Tokushima", "lat": 34.049892, "lng": 134.08844, "ref_id": 13241204, "rating": -1, "num_reviews": 0, "website": null, "contact_phone": "+81 883-62-4844", "contact_email": null, "status": 1, "source_type": 1, "numberReviews": 0}, {"name": "Nandeyanen", "type": "restaurant", "image": null, "address": "294-4 Handa Ono, Tsurugi-cho, Mima-gun Qu\u00e2\u0323n Tokushima", "lat": 34.041805, "lng": 134.03134, "ref_id": 7482196, "rating": -1, "num_reviews": 0, "website": null, "contact_phone": "+81 883-64-3938", "contact_email": null, "status": 1, "source_type": 1, "numberReviews": 0}, {"name": "Chikusuinichi", "type": "restaurant", "image": null, "address": "44-3 Michinoue, Mimacho, Mima 771-2102 Qu\u00e2\u0323n Tokushima", "lat": 34.08591, "lng": 134.0455, "ref_id": 9680230, "rating": -1, "num_reviews": 0, "website": null, "contact_phone": "+81 883-63-5330", "contact_email": null, "status": 1, "source_type": 1, "numberReviews": 0}, {"name": "Tokutoku", "type": "restaurant", "image": null, "address": "1711 Kamo, Higashimiyoshi-cho, Miyoshi-gun Qu\u00e2\u0323n Tokushima", "lat": 34.02615, "lng": 133.91653, "ref_id": 7482217, "rating": -1, "num_reviews": 0, "website": null, "contact_phone": "+81 883-82-1083", "contact_email": null, "status": 1, "source_type": 1, "numberReviews": 0}, {"name": "Pastaya Luce", "type": "restaurant", "image": null, "address": "3-65-4 Okinohama Higashi, Tokushima 770-8053 Qu\u00e2\u0323n Tokushima", "lat": 34.049538, "lng": 134.55322, "ref_id": 9638813, "rating": 4, "num_reviews": 0, "website": null, "contact_phone": "+81 88-624-7595", "contact_email": null, "status": 1, "source_type": 1, "numberReviews": 1}, {"name": "Live Fish Restaurant Sakae", "type": "restaurant", "image": "https://dynamic-media-cdn.tripadvisor.com/media/photo-o/0c/83/b1/2f/photo0jpg.jpg?w=1000&s=1", "address": "6-7-57 Sumiyoshi, Tokushima 770-0861 Qu\u00e2\u0323n Tokushima", "lat": 34.079357, "lng": 134.57703, "ref_id": 9615354, "rating": 3.5, "num_reviews": 0, "website": "http://katsugyo-sakae.jimdofree.com/", "contact_phone": "+81 88-625-6567", "contact_email": null, "status": 1, "source_type": 1, "numberReviews": 2}, {"name": "Tamariba", "type": "restaurant", "image": "https://dynamic-media-cdn.tripadvisor.com/media/photo-o/18/e2/2c/5f/caption.jpg?w=1000&s=1", "address": "54 Kokuwajima Aza Maehama, Muyacho, Naruto 772-0012 Qu\u00e2\u0323n Tokushima", "lat": 34.178825, "lng": 134.6061, "ref_id": 9641439, "rating": 3.5, "num_reviews": 0, "website": null, "contact_phone": "+81 88-685-3313", "contact_email": null, "status": 1, "source_type": 1, "numberReviews": 2}, {"name": "Sakura Seimenjo", "type": "restaurant", "image": "https://dynamic-media-cdn.tripadvisor.com/media/photo-o/0b/c3/65/4f/caption.jpg?w=1000&s=1", "address": "4-2-16 Kitaokinosu, Tokushima Qu\u00e2\u0323n Tokushima", "lat": 34.06439, "lng": 134.59207, "ref_id": 7450928, "rating": 3.5, "num_reviews": 0, "website": null, "contact_phone": "+81 88-635-9426", "contact_email": null, "status": 1, "source_type": 1, "numberReviews": 2}, {"name": "Yojeong-Tei", "type": "restaurant", "image": null, "address": "4-2-3 Sumiyoshi 1f, Tokushima 770-0861 Qu\u00e2\u0323n Tokushima", "lat": 34.079063, "lng": 134.56721, "ref_id": 9631753, "rating": 4, "num_reviews": 0, "website": null, "contact_phone": "+81 88-655-0753", "contact_email": null, "status": 1, "source_type": 1, "numberReviews": 1}, {"name": "Yamato", "type": "restaurant", "image": "https://dynamic-media-cdn.tripadvisor.com/media/photo-o/0a/d3/46/c7/caption.jpg?w=1000&s=1", "address": "273-4 Muyacho Kokuwajima Maehama, Naruto 772-0012 Qu\u00e2\u0323n Tokushima", "lat": 34.1787, "lng": 134.60913, "ref_id": 9626410, "rating": 3.5, "num_reviews": 0, "website": null, "contact_phone": "+81 88-686-2675", "contact_email": null, "status": 1, "source_type": 1, "numberReviews": 4}, {"name": "Asutamulandtokushima Kutsurogikan", "type": "restaurant", "image": null, "address": "45-22 Kibigadani Nato, Itano-cho, Itano-gun Qu\u00e2\u0323n Tokushima", "lat": 34.151077, "lng": 134.43863, "ref_id": 7482156, "rating": 3.5, "num_reviews": 0, "website": null, "contact_phone": "+81 88-672-7575", "contact_email": null, "status": 1, "source_type": 1, "numberReviews": 3}, {"name": "Okonomiyaki Konaya", "type": "restaurant", "image": null, "address": "3-2-3 Yamashironishi, Tokushima 770-8054 Qu\u00e2\u0323n Tokushima", "lat": 34.050716, "lng": 134.5557, "ref_id": 4898235, "rating": 3.5, "num_reviews": 0, "website": null, "contact_phone": "+81 88-622-0304", "contact_email": null, "status": 1, "source_type": 1, "numberReviews": 3}, {"name": "Fukusuke Udon", "type": "restaurant", "image": "https://dynamic-media-cdn.tripadvisor.com/media/photo-o/29/8f/4e/18/20.jpg?w=1000&s=1", "address": "444-1 Ishii, Ishii-cho, Myozai-gun 779-3233 Qu\u00e2\u0323n Tokushima", "lat": 34.0671, "lng": 134.44305, "ref_id": 10013553, "rating": 4, "num_reviews": 0, "website": null, "contact_phone": "+81 88-674-0075", "contact_email": null, "status": 1, "source_type": 1, "numberReviews": 1}, {"name": "Shisen Chuka Nagawo", "type": "restaurant", "image": null, "address": "5-20 Sho-Machi, Tokushima Qu\u00e2\u0323n Tokushima", "lat": 34.072655, "lng": 134.50703, "ref_id": 7451124, "rating": 4, "num_reviews": 0, "website": null, "contact_phone": "+81 88-633-5667", "contact_email": null, "status": 1, "source_type": 1, "numberReviews": 1}, {"name": "Marufuku Ramen Kokufu", "type": "restaurant", "image": null, "address": "49-4 Koike Kubo Ido Kokufucho, Tokushima Qu\u00e2\u0323n Tokushima", "lat": 34.086502, "lng": 134.48657, "ref_id": 7451014, "rating": 4, "num_reviews": 0, "website": null, "contact_phone": "+81 88-678-8547", "contact_email": null, "status": 1, "source_type": 1, "numberReviews": 1}, {"name": "Green Palette", "type": "restaurant", "image": "https://dynamic-media-cdn.tripadvisor.com/media/photo-o/04/9f/f7/8f/green-palette.jpg?w=1000&s=1", "address": "2-1 Tokushimachojonai Tokugin Tomoni Plaza 1F, Tokushima 770-0851 Qu\u00e2\u0323n Tokushima", "lat": 34.07021, "lng": 134.55621, "ref_id": 4898939, "rating": 4, "num_reviews": 0, "website": null, "contact_phone": "+81 88-678-8009", "contact_email": null, "status": 1, "source_type": 1, "numberReviews": 1}, {"name": "Restaurant Fuki", "type": "restaurant", "image": "https://dynamic-media-cdn.tripadvisor.com/media/photo-o/0b/94/43/f4/caption.jpg?w=1000&s=1", "address": "80-5 Saikacho, Tokushima 770-8021 Qu\u00e2\u0323n Tokushima", "lat": 34.038876, "lng": 134.55458, "ref_id": 5124246, "rating": 4, "num_reviews": 0, "website": "http://www.pref.tokushima.jp/jump/shokuiku.html", "contact_phone": "+81 88-669-2986", "contact_email": null, "status": 1, "source_type": 1, "numberReviews": 1}, {"name": "Tokushima Tamiya Shokudo", "type": "restaurant", "image": null, "address": "1-234-4 Kita Tamiya, Tokushima 770-0003 Qu\u00e2\u0323n Tokushima", "lat": 34.086735, "lng": 134.54839, "ref_id": 9615306, "rating": 3.5, "num_reviews": 0, "website": null, "contact_phone": "+81 88-632-2288", "contact_email": null, "status": 1, "source_type": 1, "numberReviews": 3}, {"name": "Sumibi Kushiyaki Gatten", "type": "restaurant", "image": null, "address": "3-14-22 Nakajosanjimacho, Tokushima 770-0813 Qu\u00e2\u0323n Tokushima", "lat": 34.07935, "lng": 134.5657, "ref_id": 4905687, "rating": 4, "num_reviews": 0, "website": null, "contact_phone": "+81 88-678-9929", "contact_email": null, "status": 1, "source_type": 1, "numberReviews": 1}, {"name": "Marimo", "type": "restaurant", "image": null, "address": "3-6-28 Jonammachi, Tokushima 770-8064 Qu\u00e2\u0323n Tokushima", "lat": 34.053303, "lng": 134.53584, "ref_id": 9638848, "rating": 4, "num_reviews": 0, "website": null, "contact_phone": "+81 88-652-7727", "contact_email": null, "status": 1, "source_type": 1, "numberReviews": 1}, {"name": "Yama-Chan", "type": "restaurant", "image": null, "address": "78-10 Chidori, Hachimancho, Tokushima 770-8075 Qu\u00e2\u0323n Tokushima", "lat": 34.052067, "lng": 134.53587, "ref_id": 9689949, "rating": 4, "num_reviews": 0, "website": null, "contact_phone": "+81 88-668-5171", "contact_email": null, "status": 1, "source_type": 1, "numberReviews": 1}, {"name": "Ajinoshiro", "type": "restaurant", "image": null, "address": "2-26-2 Ryogoku Honcho, Tokushima Qu\u00e2\u0323n Tokushima", "lat": 34.069897, "lng": 134.55136, "ref_id": 7451155, "rating": 3.5, "num_reviews": 0, "website": null, "contact_phone": "+81 88-625-5202", "contact_email": null, "status": 1, "source_type": 1, "numberReviews": 2}, {"name": "Rokuemon Koyamachiten Wabijo", "type": "restaurant", "image": null, "address": "6 Koyamachi 1f, Tokushima 770-0918 Qu\u00e2\u0323n Tokushima", "lat": 34.066784, "lng": 134.54933, "ref_id": 9631758, "rating": 4, "num_reviews": 0, "website": null, "contact_phone": "+81 88-626-3209", "contact_email": null, "status": 1, "source_type": 1, "numberReviews": 1}, {"name": "Shabu Shabu Go Kokufu", "type": "restaurant", "image": "https://dynamic-media-cdn.tripadvisor.com/media/photo-o/0e/53/b4/ab/caption.jpg?w=1000&s=1", "address": "930-1 Higai Kokufucho, Tokushima Qu\u00e2\u0323n Tokushima", "lat": 34.083176, "lng": 134.47612, "ref_id": 7450929, "rating": 3.5, "num_reviews": 0, "website": null, "contact_phone": "+81 88-678-8400", "contact_email": null, "status": 1, "source_type": 1, "numberReviews": 3}, {"name": "Izakaya Rosan", "type": "restaurant", "image": "https://dynamic-media-cdn.tripadvisor.com/media/photo-o/0b/32/77/8c/photo1jpg.jpg?w=1000&s=1", "address": "2-25-2 Okihama, Tokushima Qu\u00e2\u0323n Tokushima", "lat": 34.053474, "lng": 134.55223, "ref_id": 7451147, "rating": 4, "num_reviews": 0, "website": null, "contact_phone": "+81 88-655-9748", "contact_email": null, "status": 1, "source_type": 1, "numberReviews": 1}, {"name": "Seoul-Teitokushima", "type": "restaurant", "image": "https://dynamic-media-cdn.tripadvisor.com/media/photo-o/09/88/ed/72/caption.jpg?w=1000&s=1", "address": "2-21 Akita-Machi, Tokushima Qu\u00e2\u0323n Tokushima", "lat": 34.063892, "lng": 134.54915, "ref_id": 7450946, "rating": 3.5, "num_reviews": 0, "website": null, "contact_phone": "+81 88-652-1129", "contact_email": null, "status": 1, "source_type": 1, "numberReviews": 2}, {"name": "Izakaya Miyabi", "type": "restaurant", "image": "https://dynamic-media-cdn.tripadvisor.com/media/photo-o/0a/f3/fb/21/my-chicken-lunch-set.jpg?w=1000&s=1", "address": "2-19 Yaoyamachi, Tokushima 770-0841 Qu\u00e2\u0323n Tokushima", "lat": 34.072083, "lng": 134.55206, "ref_id": 4903200, "rating": 4, "num_reviews": 0, "website": null, "contact_phone": "+81 88-622-3022", "contact_email": null, "status": 1, "source_type": 1, "numberReviews": 1}, {"name": "Tokuya", "type": "restaurant", "image": null, "address": "1-47 Akita-Machi, Tokushima Qu\u00e2\u0323n Tokushima", "lat": 34.066345, "lng": 134.54944, "ref_id": 7451160, "rating": 4, "num_reviews": 0, "website": null, "contact_phone": "+81 88-654-2232", "contact_email": null, "status": 1, "source_type": 1, "numberReviews": 1}, {"name": "Ramen Sakata", "type": "restaurant", "image": "https://dynamic-media-cdn.tripadvisor.com/media/photo-o/0a/e2/c6/35/caption.jpg?w=1000&s=1", "address": "1-10 Minaminakano Cho, Tokushima Qu\u00e2\u0323n Tokushima", "lat": 34.06585, "lng": 134.55, "ref_id": 7451051, "rating": 3.5, "num_reviews": 0, "website": null, "contact_phone": "+81 88-622-2405", "contact_email": null, "status": 1, "source_type": 1, "numberReviews": 2}, {"name": "Yakidori", "type": "restaurant", "image": "https://dynamic-media-cdn.tripadvisor.com/media/photo-o/0a/b2/f9/03/photo1jpg.jpg?w=1000&s=1", "address": "765-31 Hikita, Higashikagawa Kagawa Prefecture", "lat": 34.22506, "lng": 134.40202, "ref_id": 7534617, "rating": 4, "num_reviews": 0, "website": null, "contact_phone": "+81 879-33-3145", "contact_email": null, "status": 1, "source_type": 1, "numberReviews": 1}, {"name": "Naruchuru", "type": "restaurant", "image": "https://dynamic-media-cdn.tripadvisor.com/media/photo-o/0a/d4/e7/5d/caption.jpg?w=1000&s=1", "address": "132 Kokuwajima Maegumi Muyacho, Naruto Qu\u00e2\u0323n Tokushima", "lat": 34.181667, "lng": 134.61003, "ref_id": 7433325, "rating": 3.5, "num_reviews": 0, "website": null, "contact_phone": "+81 88-685-7715", "contact_email": null, "status": 1, "source_type": 1, "numberReviews": 3}, {"name": "Natural Food Store Pumpukin", "type": "restaurant", "image": "https://dynamic-media-cdn.tripadvisor.com/media/photo-o/0a/a7/7b/77/caption.jpg?w=1000&s=1", "address": "11-3 Sako 5bancho, Tokushima 770-0025 Qu\u00e2\u0323n Tokushima", "lat": 34.079323, "lng": 134.53175, "ref_id": 10077395, "rating": 3.5, "num_reviews": 0, "website": null, "contact_phone": "+81 88-653-3330", "contact_email": null, "status": 1, "source_type": 1, "numberReviews": 2}, {"name": "Aji-Zushi", "type": "restaurant", "image": null, "address": "120-16 Kawaminami, Hachimancho, Tokushima 770-8082 Qu\u00e2\u0323n Tokushima", "lat": 34.04677, "lng": 134.54242, "ref_id": 9689951, "rating": 4, "num_reviews": 0, "website": null, "contact_phone": "+81 88-668-0548", "contact_email": null, "status": 1, "source_type": 1, "numberReviews": 1}, {"name": "Udon No Aoyama Kokubu", "type": "restaurant", "image": null, "address": "37-9 Gayabuchi, Kokufucho, Tokushima 779-3125 Qu\u00e2\u0323n Tokushima", "lat": 34.072117, "lng": 134.48756, "ref_id": 9650792, "rating": 4, "num_reviews": 0, "website": null, "contact_phone": "+81 88-642-4872", "contact_email": null, "status": 1, "source_type": 1, "numberReviews": 1}, {"name": "Tetsu", "type": "restaurant", "image": null, "address": "140-2 Aza Ishii, Ishii-cho, Myozai-gun 779-3233 Qu\u00e2\u0323n Tokushima", "lat": 34.067944, "lng": 134.44144, "ref_id": 10009304, "rating": -1, "num_reviews": 0, "website": null, "contact_phone": "+81 88-675-0876", "contact_email": null, "status": 1, "source_type": 1, "numberReviews": 0}, {"name": "Golazo\uff01", "type": "restaurant", "image": "https://dynamic-media-cdn.tripadvisor.com/media/photo-o/1a/ab/ee/95/caption.jpg?w=1000&s=1", "address": "21-2 Ryogokubashi Strong Bldg B1F, Tokushima 770-0917 Qu\u00e2\u0323n Tokushima", "lat": 34.06706, "lng": 134.54999, "ref_id": 19850156, "rating": -1, "num_reviews": 0, "website": "https://www.facebook.com/pages/category/Bar/BAR-Golazo-106269390743200/", "contact_phone": "+81 88-679-6320", "contact_email": null, "status": 1, "source_type": 1, "numberReviews": 0}, {"name": "Y's Kitchen Rosso", "type": "restaurant", "image": null, "address": "1-33 Akitacho Fukuda Bldg. 1F, Tokushima 770-0934 Qu\u00e2\u0323n Tokushima", "lat": 34.06526, "lng": 134.54929, "ref_id": 9662902, "rating": -1, "num_reviews": 0, "website": null, "contact_phone": "+81 88-622-3650", "contact_email": null, "status": 1, "source_type": 1, "numberReviews": 0}, {"name": "Yasashi Izakaya Yumenoki", "type": "restaurant", "image": null, "address": "2-7 Kagoyamachi, Tokushima 770-0914 Qu\u00e2\u0323n Tokushima", "lat": 34.068127, "lng": 134.54837, "ref_id": 9628264, "rating": -1, "num_reviews": 0, "website": null, "contact_phone": "+81 88-652-8341", "contact_email": null, "status": 1, "source_type": 1, "numberReviews": 0}, {"name": "Izakaya Kiwami", "type": "restaurant", "image": null, "address": "2-41 Tomitacho, Tokushima Qu\u00e2\u0323n Tokushima", "lat": 34.06787, "lng": 134.54901, "ref_id": 7450866, "rating": -1, "num_reviews": 0, "website": null, "contact_phone": "+81 88-657-0222", "contact_email": null, "status": 1, "source_type": 1, "numberReviews": 0}, {"name": "Goofy", "type": "restaurant", "image": null, "address": "1-28 Sakae-Machi, Tokushima Qu\u00e2\u0323n Tokushima", "lat": 34.065403, "lng": 134.5489, "ref_id": 7631144, "rating": -1, "num_reviews": 0, "website": null, "contact_phone": "+81 88-624-1198", "contact_email": null, "status": 1, "source_type": 1, "numberReviews": 0}, {"name": "Oshokujidokoro Minasamaya", "type": "restaurant", "image": null, "address": "1-12-2 Terashimahonchohigashi Fukuya Bldg. 1F, Tokushima 770-0832 Qu\u00e2\u0323n Tokushima", "lat": 34.07237, "lng": 134.55313, "ref_id": 6124915, "rating": -1, "num_reviews": 0, "website": null, "contact_phone": "+81 88-655-6619", "contact_email": null, "status": 1, "source_type": 1, "numberReviews": 0}, {"name": "Amayan", "type": "restaurant", "image": null, "address": "2-4 Nakajo, Sanjimacho 1f, Tokushima 770-0813 Qu\u00e2\u0323n Tokushima", "lat": 34.07916, "lng": 134.56213, "ref_id": 9662890, "rating": -1, "num_reviews": 0, "website": null, "contact_phone": "+81 88-652-0520", "contact_email": null, "status": 1, "source_type": 1, "numberReviews": 0}, {"name": "Okonomiyakijuju", "type": "restaurant", "image": null, "address": "181-5 Hachimancho, Tokushima 770-8074 Qu\u00e2\u0323n Tokushima", "lat": 34.053078, "lng": 134.53542, "ref_id": 13241031, "rating": -1, "num_reviews": 0, "website": null, "contact_phone": "+81 88-678-7544", "contact_email": null, "status": 1, "source_type": 1, "numberReviews": 0}, {"name": "Suien", "type": "restaurant", "image": null, "address": "5-39-2 Yoshino Honcho, Tokushima Qu\u00e2\u0323n Tokushima", "lat": 34.08474, "lng": 134.5524, "ref_id": 7450934, "rating": -1, "num_reviews": 0, "website": null, "contact_phone": "+81 88-624-0322", "contact_email": null, "status": 1, "source_type": 1, "numberReviews": 0}, {"name": "Wa Dining Shirokujichu Marunaka Tokushima", "type": "restaurant", "image": null, "address": "1-6-1 Nishishinhamacho Marunaka Tokushima 1F, Tokushima 770-8008 Qu\u00e2\u0323n Tokushima", "lat": 34.04443, "lng": 134.5589, "ref_id": 23111739, "rating": -1, "num_reviews": 0, "website": "https://www.aeoneaheart.co.jp/?utm_source=mybusiness", "contact_phone": "+81 88-663-4811", "contact_email": null, "status": 1, "source_type": 1, "numberReviews": 0}, {"name": "No Smoking Snack Swan", "type": "restaurant", "image": null, "address": "1-40 Akita-Machi, Tokushima Qu\u00e2\u0323n Tokushima", "lat": 34.06587, "lng": 134.54932, "ref_id": 7451231, "rating": -1, "num_reviews": 0, "website": null, "contact_phone": "+81 88-623-8737", "contact_email": null, "status": 1, "source_type": 1, "numberReviews": 0}, {"name": "Karaoke Cafe Smile", "type": "restaurant", "image": null, "address": "5-5 Showacho, Tokushima 770-0942 Qu\u00e2\u0323n Tokushima", "lat": 34.061016, "lng": 134.56386, "ref_id": 14736981, "rating": -1, "num_reviews": 0, "website": null, "contact_phone": "+81 88-622-3728", "contact_email": null, "status": 1, "source_type": 1, "numberReviews": 0}, {"name": "Food Bar Dream", "type": "restaurant", "image": null, "address": "1 Sakae-Machi, Tokushima Qu\u00e2\u0323n Tokushima", "lat": 34.086437, "lng": 134.54768, "ref_id": 7450842, "rating": -1, "num_reviews": 0, "website": null, "contact_phone": "+81 88-655-8567", "contact_email": null, "status": 1, "source_type": 1, "numberReviews": 0}, {"name": "Karaoke Cafe Flat", "type": "restaurant", "image": null, "address": "1-38 Takajomachi, Tokushima 770-0922 Qu\u00e2\u0323n Tokushima", "lat": 34.072388, "lng": 134.54767, "ref_id": 14736964, "rating": -1, "num_reviews": 0, "website": null, "contact_phone": "+81 88-624-5887", "contact_email": null, "status": 1, "source_type": 1, "numberReviews": 0}, {"name": "Bar Grow", "type": "restaurant", "image": null, "address": "1-29 Akitacho Papagaro 4F, Tokushima 770-0934 Qu\u00e2\u0323n Tokushima", "lat": 34.064995, "lng": 134.54921, "ref_id": 9662919, "rating": -1, "num_reviews": 0, "website": null, "contact_phone": "+81 88-654-5015", "contact_email": null, "status": 1, "source_type": 1, "numberReviews": 0}, {"name": "Yukikaeri", "type": "restaurant", "image": null, "address": "6-2-7 Sumiyoshi 1, Tokushima 770-0861 Qu\u00e2\u0323n Tokushima", "lat": 34.076145, "lng": 134.57826, "ref_id": 14736937, "rating": -1, "num_reviews": 0, "website": null, "contact_phone": "+81 88-622-6790", "contact_email": null, "status": 1, "source_type": 1, "numberReviews": 0}, {"name": "Tanjirou", "type": "restaurant", "image": null, "address": "4-1 Mimamisuehitocho, Tokushima 770-0865 Qu\u00e2\u0323n Tokushima", "lat": 34.062798, "lng": 134.57404, "ref_id": 13790745, "rating": -1, "num_reviews": 0, "website": null, "contact_phone": "+81 88-676-2115", "contact_email": null, "status": 1, "source_type": 1, "numberReviews": 0}, {"name": "Miyamoto Dininig Room", "type": "restaurant", "image": null, "address": "5-2-20 Minami Okinosu, Tokushima 770-0874 Qu\u00e2\u0323n Tokushima", "lat": 34.06072, "lng": 134.58214, "ref_id": 13246699, "rating": -1, "num_reviews": 0, "website": null, "contact_phone": "+81 88-664-0009", "contact_email": null, "status": 1, "source_type": 1, "numberReviews": 0}, {"name": "Gourmet Piazza M Tokushima", "type": "restaurant", "image": null, "address": "1-45-1 Nishi Shinhamacho Marunaka Tokushima-Ten 1F, Tokushima 770-8008 Qu\u00e2\u0323n Tokushima", "lat": 34.044407, "lng": 134.5588, "ref_id": 9650886, "rating": -1, "num_reviews": 0, "website": null, "contact_phone": "+81 88-663-4812", "contact_email": null, "status": 1, "source_type": 1, "numberReviews": 0}, {"name": "Re:Glad", "type": "restaurant", "image": null, "address": "21-2 Ryogokubashi Strong building B1F, Tokushima 770-0917 Qu\u00e2\u0323n Tokushima", "lat": 34.06706, "lng": 134.54999, "ref_id": 15240135, "rating": -1, "num_reviews": 0, "website": null, "contact_phone": "+81 88-678-6825", "contact_email": null, "status": 1, "source_type": 1, "numberReviews": 0}, {"name": "Heartland", "type": "restaurant", "image": null, "address": "5-11 Sako Yonbancho, Tokushima 770-0024 Qu\u00e2\u0323n Tokushima", "lat": 34.077873, "lng": 134.53351, "ref_id": 9638809, "rating": -1, "num_reviews": 0, "website": null, "contact_phone": "+81 88-626-0308", "contact_email": null, "status": 1, "source_type": 1, "numberReviews": 0}, {"name": "Time 25", "type": "restaurant", "image": null, "address": "305-1 Takagawara Shaped City Music, Ishii-cho, Myozai-gun 779-3226 Qu\u00e2\u0323n Tokushima", "lat": 34.077602, "lng": 134.45755, "ref_id": 13243092, "rating": -1, "num_reviews": 0, "website": null, "contact_phone": "+81 88-675-1025", "contact_email": null, "status": 1, "source_type": 1, "numberReviews": 0}, {"name": "Guu", "type": "restaurant", "image": null, "address": "2-2-52 Ataka, Tokushima 770-0863 Qu\u00e2\u0323n Tokushima", "lat": 34.06994, "lng": 134.57413, "ref_id": 10656961, "rating": -1, "num_reviews": 0, "website": null, "contact_phone": "+81 88-652-2934", "contact_email": null, "status": 1, "source_type": 1, "numberReviews": 0}, {"name": "Fuji Hokahoka Bento Yoshino Honcho", "type": "restaurant", "image": null, "address": "1-10-3 Yoshinohoncho, Tokushima 770-0802 Qu\u00e2\u0323n Tokushima", "lat": 34.079636, "lng": 134.55066, "ref_id": 13269641, "rating": -1, "num_reviews": 0, "website": null, "contact_phone": "+81 88-623-3469", "contact_email": null, "status": 1, "source_type": 1, "numberReviews": 0}, {"name": "Ippei Ramen", "type": "restaurant", "image": null, "address": "2-8 Kachidokibashi, Tokushima 770-0939 Qu\u00e2\u0323n Tokushima", "lat": 34.063297, "lng": 134.55649, "ref_id": 9628286, "rating": -1, "num_reviews": 0, "website": null, "contact_phone": "+81 88-652-8306", "contact_email": null, "status": 1, "source_type": 1, "numberReviews": 0}, {"name": "Kazu", "type": "restaurant", "image": null, "address": "4-22-2 Yamashironishi Viva Yamashiro Heights 1F, Tokushima 770-8054 Qu\u00e2\u0323n Tokushima", "lat": 34.048023, "lng": 134.5576, "ref_id": 14961965, "rating": -1, "num_reviews": 0, "website": null, "contact_phone": "+81 88-679-7260", "contact_email": null, "status": 1, "source_type": 1, "numberReviews": 0}, {"name": "Seasonal Restaurant Hirose", "type": "restaurant", "image": null, "address": "41-9 Shinko, Komatsushimacho, Komatsushima 773-0001 Qu\u00e2\u0323n Tokushima", "lat": 34.01257, "lng": 134.58817, "ref_id": 9689966, "rating": -1, "num_reviews": 0, "website": null, "contact_phone": "+81 885-38-6551", "contact_email": null, "status": 1, "source_type": 1, "numberReviews": 0}, {"name": "Awamae Sushi Matsukaze", "type": "restaurant", "image": null, "address": "24-8 Yamashirocho Higashihama Hoji, Tokushima Qu\u00e2\u0323n Tokushima", "lat": 34.05055, "lng": 134.55876, "ref_id": 7451269, "rating": -1, "num_reviews": 0, "website": null, "contact_phone": "+81 88-652-3137", "contact_email": null, "status": 1, "source_type": 1, "numberReviews": 0}, {"name": "Segawa Shoten", "type": "restaurant", "image": null, "address": "1-23 Akitamachi Plaza Part \u2161 1F, Tokushima 770-0934 Qu\u00e2\u0323n Tokushima", "lat": 34.0654, "lng": 134.54973, "ref_id": 19458676, "rating": -1, "num_reviews": 0, "website": "https://www.segawashouten-tokushima.com/", "contact_phone": "+81 88-676-3741", "contact_email": null, "status": 1, "source_type": 1, "numberReviews": 0}, {"name": "Seasonal food Dochiraika", "type": "restaurant", "image": "https://dynamic-media-cdn.tripadvisor.com/media/photo-o/1c/1b/ff/82/caption.jpg?w=1000&s=1", "address": "1-8 Kajiyamachi Nakamura Bldg.1F, Takamatsu 760-0028 Kagawa Prefecture", "lat": 34.34366, "lng": 134.0491, "ref_id": 8866482, "rating": 4.5, "num_reviews": 0, "website": "http://dochiraika.com/", "contact_phone": "+81 87-851-9105", "contact_email": null, "status": 1, "source_type": 1, "numberReviews": 3}, {"name": "Shoko Shuka", "type": "restaurant", "image": "https://dynamic-media-cdn.tripadvisor.com/media/photo-o/19/c5/cd/be/caption.jpg?w=1000&s=1", "address": "10-6 Gobomachi, Takamatsu 760-0044 Kagawa Prefecture", "lat": 34.343388, "lng": 134.05092, "ref_id": 9673483, "rating": 4, "num_reviews": 0, "website": null, "contact_phone": "+81 87-802-1605", "contact_email": null, "status": 1, "source_type": 1, "numberReviews": 4}, {"name": "Italian Dining Mio Paese", "type": "restaurant", "image": "https://dynamic-media-cdn.tripadvisor.com/media/photo-o/10/a2/e9/d5/caption.jpg?w=1000&s=1", "address": "7-4 Imajimmachi Sugimoto Bldg. 1F, Takamatsu 760-0043 Kagawa Prefecture", "lat": 34.34378, "lng": 134.05177, "ref_id": 4896867, "rating": 4.5, "num_reviews": 0, "website": null, "contact_phone": "+81 87-823-3388", "contact_email": null, "status": 1, "source_type": 1, "numberReviews": 8}, {"name": "Noguchi Seimen", "type": "restaurant", "image": "https://dynamic-media-cdn.tripadvisor.com/media/photo-o/16/33/1d/a6/kimg4171-largejpg.jpg?w=1000&s=1", "address": "1286 Kamifukuokacho, Takamatsu Kagawa Prefecture", "lat": 34.3329, "lng": 134.06096, "ref_id": 7450343, "rating": 4, "num_reviews": 0, "website": null, "contact_phone": "+81 87-834-7293", "contact_email": null, "status": 1, "source_type": 1, "numberReviews": 3}, {"name": "Sushi Taisho", "type": "restaurant", "image": "https://dynamic-media-cdn.tripadvisor.com/media/photo-o/11/57/d4/34/caption.jpg?w=1000&s=1", "address": "13-12 Furubabacho, Takamatsu 760-0045 Kagawa Prefecture", "lat": 34.34224, "lng": 134.05171, "ref_id": 13038825, "rating": 4.5, "num_reviews": 0, "website": null, "contact_phone": "+81 87-811-7788", "contact_email": null, "status": 1, "source_type": 1, "numberReviews": 3}, {"name": "Ryobo", "type": "restaurant", "image": "https://dynamic-media-cdn.tripadvisor.com/media/photo-o/13/59/33/7c/photo5jpg.jpg?w=1000&s=1", "address": "6-2 Imajinmachi, Takamatsu 760-0043 Kagawa Prefecture", "lat": 34.34369, "lng": 134.05301, "ref_id": 10653052, "rating": 5, "num_reviews": 0, "website": "http://ryobo2015.wixsite.com/ryobo", "contact_phone": "+81 87-873-2991", "contact_email": null, "status": 1, "source_type": 1, "numberReviews": 2}, {"name": "Totoya", "type": "restaurant", "image": "https://dynamic-media-cdn.tripadvisor.com/media/photo-o/16/16/c4/68/caption.jpg?w=1000&s=1", "address": "8-16 Furubabacho, Takamatsu 760-0045 Kagawa Prefecture", "lat": 34.342766, "lng": 134.05127, "ref_id": 6071113, "rating": 4, "num_reviews": 0, "website": null, "contact_phone": "+81 87-851-2520", "contact_email": null, "status": 1, "source_type": 1, "numberReviews": 5}, {"name": "Riyugetsudo", "type": "restaurant", "image": "https://dynamic-media-cdn.tripadvisor.com/media/photo-o/26/b7/f0/6d/caption.jpg?w=1000&s=1", "address": "3-1-15 Wada, Tamano 706-0021 Okayama Prefecture", "lat": 34.469406, "lng": 133.92287, "ref_id": 13030763, "rating": 4, "num_reviews": 0, "website": null, "contact_phone": "+81 863-81-7044", "contact_email": null, "status": 1, "source_type": 1, "numberReviews": 2}, {"name": "Public Bar Gao", "type": "restaurant", "image": null, "address": "10-11 Furujinmachi, Takamatsu 760-0025 Kagawa Prefecture", "lat": 34.345352, "lng": 134.04909, "ref_id": 9662599, "rating": 5, "num_reviews": 0, "website": "http://www.facebook.com/cafeanddininggao/?__xts__", "contact_phone": "+81 87-822-5751", "contact_email": null, "status": 1, "source_type": 1, "numberReviews": 2}, {"name": "Shiraume", "type": "restaurant", "image": "https://dynamic-media-cdn.tripadvisor.com/media/photo-o/0c/19/bd/cc/photo0jpg.jpg?w=1000&s=1", "address": "6-9-16 Tama, Tamano Okayama Prefecture", "lat": 34.48391, "lng": 133.92963, "ref_id": 7517815, "rating": 4.5, "num_reviews": 0, "website": null, "contact_phone": "+81 863-31-0805", "contact_email": null, "status": 1, "source_type": 1, "numberReviews": 6}, {"name": "Steakhouse Chiman Takamatsu", "type": "restaurant", "image": "https://dynamic-media-cdn.tripadvisor.com/media/photo-o/0b/ff/fd/80/caption.jpg?w=1000&s=1", "address": "2-4-20 Kotobukicho Takamatsu Center Bldg. B1F, Takamatsu 760-0023 Kagawa Prefecture", "lat": 34.346836, "lng": 134.04855, "ref_id": 9650577, "rating": 4, "num_reviews": 0, "website": "http://chiman.jp/chiman.html", "contact_phone": "+81 87-822-4129", "contact_email": null, "status": 1, "source_type": 1, "numberReviews": 5}, {"name": "Sumibi Yakitori Toricho", "type": "restaurant", "image": "https://dynamic-media-cdn.tripadvisor.com/media/photo-o/16/83/02/97/img-20190218-wa0004-largejpg.jpg?w=1000&s=1", "address": "4-14 Kajiyamachi, Takamatsu 760-0028 Kagawa Prefecture", "lat": 34.342796, "lng": 134.04863, "ref_id": 4905733, "rating": 4, "num_reviews": 0, "website": null, "contact_phone": "+81 87-823-2232", "contact_email": null, "status": 1, "source_type": 1, "numberReviews": 5}, {"name": "Monosso", "type": "restaurant", "image": "https://dynamic-media-cdn.tripadvisor.com/media/photo-o/14/c0/4f/23/880.jpg?w=1000&s=1", "address": "9-6 Fukudamachi K-Bill Fukudamachi 1F, Takamatsu 760-0048 Kagawa Prefecture", "lat": 34.34178, "lng": 134.05374, "ref_id": 14736723, "rating": 4.5, "num_reviews": 0, "website": "http://www.monosso.com/", "contact_phone": "+81 87-821-2829", "contact_email": null, "status": 1, "source_type": 1, "numberReviews": 2}, {"name": "Motsunabe & Honetsukitori no Mise Gottsuomura", "type": "restaurant", "image": "https://dynamic-media-cdn.tripadvisor.com/media/photo-o/06/27/89/c0/caption.jpg?w=1000&s=1", "address": "2-1-17 Kawaramachi, Takamatsu 760-0052 Kagawa Prefecture", "lat": 34.34043, "lng": 134.05049, "ref_id": 6159125, "rating": 4, "num_reviews": 0, "website": null, "contact_phone": "+81 87-833-1933", "contact_email": null, "status": 1, "source_type": 1, "numberReviews": 5}, {"name": "Kakeashi", "type": "restaurant", "image": "https://dynamic-media-cdn.tripadvisor.com/media/photo-o/0a/8b/d5/51/caption.jpg?w=1000&s=1", "address": "2-8-3 Kawaramachi, Takamatsu 760-0052 Kagawa Prefecture", "lat": 34.340183, "lng": 134.05083, "ref_id": 7969718, "rating": 4.5, "num_reviews": 0, "website": null, "contact_phone": "+81 87-831-6055", "contact_email": null, "status": 1, "source_type": 1, "numberReviews": 3}, {"name": "Mitsuyazushi", "type": "restaurant", "image": null, "address": "4-9-3 Tama, Tamano Okayama Prefecture", "lat": 34.47956, "lng": 133.93137, "ref_id": 7517835, "rating": 4.5, "num_reviews": 0, "website": null, "contact_phone": "+81 863-21-3586", "contact_email": null, "status": 1, "source_type": 1, "numberReviews": 3}, {"name": "Hopeken Fukuoka", "type": "restaurant", "image": "https://dynamic-media-cdn.tripadvisor.com/media/photo-o/12/a3/ee/2c/photo0jpg.jpg?w=1000&s=1", "address": "3-2-6 Fukuokacho, Takamatsu 760-0066 Kagawa Prefecture", "lat": 34.34668, "lng": 134.07036, "ref_id": 13990703, "rating": 4, "num_reviews": 0, "website": null, "contact_phone": "+81 90-7627-6863", "contact_email": null, "status": 1, "source_type": 1, "numberReviews": 3}, {"name": "Cafe Koendori", "type": "restaurant", "image": "https://dynamic-media-cdn.tripadvisor.com/media/photo-o/13/f0/e1/66/caption.jpg?w=1000&s=1", "address": "1-7-31 Ritsurincho, Takamatsu 760-0073 Kagawa Prefecture", "lat": 34.329834, "lng": 134.04436, "ref_id": 14957510, "rating": 4.5, "num_reviews": 0, "website": null, "contact_phone": "+81 90-1572-7475", "contact_email": null, "status": 1, "source_type": 1, "numberReviews": 2}, {"name": "Kotetsu", "type": "restaurant", "image": "https://dynamic-media-cdn.tripadvisor.com/media/photo-o/05/d6/e7/71/kotetsu.jpg?w=1000&s=1", "address": "4-1 Kajiyamachi Festa 2 Bldg. 4F, Takamatsu 760-0028 Kagawa Prefecture", "lat": 34.34302, "lng": 134.0493, "ref_id": 6064931, "rating": 4.5, "num_reviews": 0, "website": null, "contact_phone": "+81 87-823-7701", "contact_email": null, "status": 1, "source_type": 1, "numberReviews": 2}, {"name": "Takoyaki Naniwa", "type": "restaurant", "image": "https://dynamic-media-cdn.tripadvisor.com/media/photo-o/0e/2b/0b/51/photo0jpg.jpg?w=1000&s=1", "address": "1-4 Tokiwacho Iroha Market, Takamatsu 760-0054 Kagawa Prefecture", "lat": 34.3389, "lng": 134.05092, "ref_id": 4899740, "rating": 5, "num_reviews": 0, "website": null, "contact_phone": "+81 87-832-0168", "contact_email": null, "status": 1, "source_type": 1, "numberReviews": 2}, {"name": "Subway Takamatsu Marugamecho", "type": "restaurant", "image": "https://dynamic-media-cdn.tripadvisor.com/media/photo-o/0d/03/ef/ed/photo0jpg.jpg?w=1000&s=1", "address": "9-4 Marugamemachi Kutsuwado Bldg. 1F, Takamatsu 760-0029 Kagawa Prefecture", "lat": 34.342686, "lng": 134.04997, "ref_id": 9650560, "rating": 3.5, "num_reviews": 0, "website": null, "contact_phone": "+81 87-873-2323", "contact_email": null, "status": 1, "source_type": 1, "numberReviews": 6}, {"name": "Chinese Saba Nami", "type": "restaurant", "image": "https://dynamic-media-cdn.tripadvisor.com/media/photo-o/04/9f/f3/db/chinese-saba-nami.jpg?w=1000&s=1", "address": "19-8 Setochicho, Takamatsu 760-0012 Kagawa Prefecture", "lat": 34.347183, "lng": 134.03123, "ref_id": 4905954, "rating": 4, "num_reviews": 0, "website": null, "contact_phone": "+81 87-833-1033", "contact_email": null, "status": 1, "source_type": 1, "numberReviews": 7}, {"name": "Matsukazean Kanesue Marugamemachi", "type": "restaurant", "image": "https://dynamic-media-cdn.tripadvisor.com/media/photo-o/22/fc/00/0d/caption.jpg?w=1000&s=1", "address": "1-1 Marugamemachi, Takamatsu 760-0029 Kagawa Prefecture", "lat": 34.345783, "lng": 134.05022, "ref_id": 13038553, "rating": 5, "num_reviews": 0, "website": "https://www.kanesue.net/", "contact_phone": "+81 87-887-8000", "contact_email": null, "status": 1, "source_type": 1, "numberReviews": 1}, {"name": "Sakana Basan No Shokudo Okudosan Rainbow", "type": "restaurant", "image": null, "address": "2022-3 Kamifukuokacho, Takamatsu 760-0077 Kagawa Prefecture", "lat": 34.327473, "lng": 134.06401, "ref_id": 9673567, "rating": 4.5, "num_reviews": 0, "website": null, "contact_phone": "+81 87-831-3135", "contact_email": null, "status": 1, "source_type": 1, "numberReviews": 3}, {"name": "Shichifuku Kawaramachi", "type": "restaurant", "image": "https://dynamic-media-cdn.tripadvisor.com/media/photo-o/14/72/7c/78/img-20180831-204926-691.jpg?w=1000&s=1", "address": "2-6-2 Tokiwacho, Takamatsu 760-0054 Kagawa Prefecture", "lat": 34.337887, "lng": 134.05241, "ref_id": 13038795, "rating": 4.5, "num_reviews": 0, "website": null, "contact_phone": "+81 87-835-6668", "contact_email": null, "status": 1, "source_type": 1, "numberReviews": 2}, {"name": "Kushikatsu Ayano", "type": "restaurant", "image": null, "address": "1-3 Kajiyamachi K's Gallery 1F, Takamatsu 760-0028 Kagawa Prefecture", "lat": 34.343517, "lng": 134.04955, "ref_id": 9662664, "rating": 4.5, "num_reviews": 0, "website": null, "contact_phone": "+81 87-887-0959", "contact_email": null, "status": 1, "source_type": 1, "numberReviews": 2}, {"name": "Naniwa No Takoyaki", "type": "restaurant", "image": "https://dynamic-media-cdn.tripadvisor.com/media/photo-o/0e/6c/5e/df/caption.jpg?w=1000&s=1", "address": "16-4 Hatagocho, Takamatsu 760-0057 Kagawa Prefecture", "lat": 34.33546, "lng": 134.04787, "ref_id": 9638476, "rating": 4.5, "num_reviews": 0, "website": null, "contact_phone": "+81 87-862-0650", "contact_email": null, "status": 1, "source_type": 1, "numberReviews": 2}, {"name": "Curry Masalatei", "type": "restaurant", "image": "https://dynamic-media-cdn.tripadvisor.com/media/photo-o/04/9f/d3/79/curry-masalatei.jpg?w=1000&s=1", "address": "9-6 Kameicho, Takamatsu 760-0050 Kagawa Prefecture", "lat": 34.339096, "lng": 134.04788, "ref_id": 4904250, "rating": 4, "num_reviews": 0, "website": null, "contact_phone": "+81 87-862-8132", "contact_email": null, "status": 1, "source_type": 1, "numberReviews": 4}, {"name": "Grilled Chicken Izakaya Sansho Nish", "type": "restaurant", "image": "https://dynamic-media-cdn.tripadvisor.com/media/photo-o/04/9f/ea/57/grilled-chicken-izakaya.jpg?w=1000&s=1", "address": "2-8 Gotocho, Takamatsu 761-8031 Kagawa Prefecture", "lat": 34.344246, "lng": 134.01549, "ref_id": 4904806, "rating": 4.5, "num_reviews": 0, "website": null, "contact_phone": "+81 87-882-7965", "contact_email": null, "status": 1, "source_type": 1, "numberReviews": 5}, {"name": "Trattoria Pippo", "type": "restaurant", "image": null, "address": "2-1-41 Kojima Tanokuchi, Kurashiki Okayama Prefecture", "lat": 34.47657, "lng": 133.83755, "ref_id": 7412210, "rating": 4.5, "num_reviews": 0, "website": null, "contact_phone": "+81 86-477-3455", "contact_email": null, "status": 1, "source_type": 1, "numberReviews": 2}, {"name": "Fufu Ramen Sakaide", "type": "restaurant", "image": null, "address": "5572-8 Fuchucho, Sakaide 762-0024 Kagawa Prefecture", "lat": 34.30254, "lng": 133.91037, "ref_id": 6166652, "rating": 3, "num_reviews": 0, "website": null, "contact_phone": "+81 877-48-2322", "contact_email": null, "status": 1, "source_type": 1, "numberReviews": 2}, {"name": "Tontaro Fuchu", "type": "restaurant", "image": null, "address": "5283-1 Fuchucho, Sakaide Kagawa Prefecture", "lat": 34.297558, "lng": 133.91573, "ref_id": 7534286, "rating": 3, "num_reviews": 0, "website": null, "contact_phone": "+81 877-48-2181", "contact_email": null, "status": 1, "source_type": 1, "numberReviews": 3}, {"name": "Joyfull", "type": "restaurant", "image": null, "address": "3-3-43 Kitagamo, Tadotsu-cho, Nakatado-gun Kagawa Prefecture", "lat": 34.277943, "lng": 133.7643, "ref_id": 7664022, "rating": 3, "num_reviews": 0, "website": null, "contact_phone": "+81 877-58-5818", "contact_email": null, "status": 1, "source_type": 1, "numberReviews": 1}, {"name": "Kawasemi", "type": "restaurant", "image": null, "address": "608-2 Koyabukami, Kotohira-cho, Nakatado-gun Kagawa Prefecture", "lat": 34.188786, "lng": 133.81927, "ref_id": 7482441, "rating": 3, "num_reviews": 0, "website": null, "contact_phone": "+81 877-75-3675", "contact_email": null, "status": 1, "source_type": 1, "numberReviews": 1}, {"name": "Sakanaya Shirai", "type": "restaurant", "image": null, "address": "837-3 Yoshiokacho, Kanonji 768-0021 Kagawa Prefecture", "lat": 34.135174, "lng": 133.68924, "ref_id": 4904382, "rating": 3, "num_reviews": 0, "website": null, "contact_phone": "+81 875-25-7823", "contact_email": null, "status": 1, "source_type": 1, "numberReviews": 1}, {"name": "Rairaitei Marugame", "type": "restaurant", "image": "https://dynamic-media-cdn.tripadvisor.com/media/photo-o/11/fd/df/93/caption.jpg?w=1000&s=1", "address": "566-2 Iinochonishibun, Marugame 763-0086 Kagawa Prefecture", "lat": 34.284782, "lng": 133.82152, "ref_id": 13038743, "rating": 3, "num_reviews": 0, "website": null, "contact_phone": "+81 877-25-0078", "contact_email": null, "status": 1, "source_type": 1, "numberReviews": 1}, {"name": "Zeitakudo Shimoyoshida", "type": "restaurant", "image": null, "address": "17-1 Shimoyoshidacho, Zentsuji 765-0021 Kagawa Prefecture", "lat": 34.233315, "lng": 133.77678, "ref_id": 13038931, "rating": 3, "num_reviews": 0, "website": null, "contact_phone": "+81 877-62-0645", "contact_email": null, "status": 1, "source_type": 1, "numberReviews": 1}, {"name": "Yakinikutaka", "type": "restaurant", "image": null, "address": "768-1 Iiyamamachinishisakamoto, Marugame Kagawa Prefecture", "lat": 34.261265, "lng": 133.84097, "ref_id": 7534112, "rating": 3, "num_reviews": 0, "website": null, "contact_phone": "+81 877-98-2911", "contact_email": null, "status": 1, "source_type": 1, "numberReviews": 1}, {"name": "Start", "type": "restaurant", "image": null, "address": "297-141 Takinomiya, Ayagawa-cho, Ayauta-gun Kagawa Prefecture", "lat": 34.251663, "lng": 133.92303, "ref_id": 7664191, "rating": 3, "num_reviews": 0, "website": null, "contact_phone": "+81 87-876-3038", "contact_email": null, "status": 1, "source_type": 1, "numberReviews": 1}, {"name": "Joyfull", "type": "restaurant", "image": null, "address": "392-1 Osacho, Zentsuji Kagawa Prefecture", "lat": 34.19878, "lng": 133.81247, "ref_id": 7631935, "rating": 3, "num_reviews": 0, "website": null, "contact_phone": "+81 877-58-8826", "contact_email": null, "status": 1, "source_type": 1, "numberReviews": 2}, {"name": "Peasant's Soba Zaisho", "type": "restaurant", "image": null, "address": "1557 Saitacho Saitakami, Mitoyo 769-0401 Kagawa Prefecture", "lat": 34.115414, "lng": 133.78207, "ref_id": 4906630, "rating": 3, "num_reviews": 0, "website": null, "contact_phone": "+81 875-67-2530", "contact_email": null, "status": 1, "source_type": 1, "numberReviews": 1}, {"name": "Kodawarimenya Sakaide Hayashida", "type": "restaurant", "image": "https://dynamic-media-cdn.tripadvisor.com/media/photo-o/27/42/a6/15/caption.jpg?w=1000&s=1", "address": "1583-1 Hayashidacho, Sakaide 762-0012 Kagawa Prefecture", "lat": 34.328033, "lng": 133.87909, "ref_id": 25189508, "rating": 3, "num_reviews": 0, "website": "https://kodawarimenya.com/shop_detail20.html", "contact_phone": "+81 877-85-5982", "contact_email": null, "status": 1, "source_type": 1, "numberReviews": 1}, {"name": "Urara", "type": "restaurant", "image": null, "address": "41-1 Furukawacho, Kanonji 768-0023 Kagawa Prefecture", "lat": 34.127934, "lng": 133.70047, "ref_id": 9656318, "rating": 3, "num_reviews": 0, "website": null, "contact_phone": "+81 875-24-1198", "contact_email": null, "status": 1, "source_type": 1, "numberReviews": 1}, {"name": "Umakabo, Sakaide", "type": "restaurant", "image": null, "address": "3-413-68 Gobushocho, Sakaide 762-0051 Kagawa Prefecture", "lat": 34.323315, "lng": 133.8343, "ref_id": 6123049, "rating": 3, "num_reviews": 0, "website": null, "contact_phone": "+81 877-45-5959", "contact_email": null, "status": 1, "source_type": 1, "numberReviews": 1}, {"name": "Osome", "type": "restaurant", "image": null, "address": "248, Kotohira-cho, Nakatado-gun 766-0002 Kagawa Prefecture", "lat": 34.18874, "lng": 133.82019, "ref_id": 10008109, "rating": 3, "num_reviews": 0, "website": null, "contact_phone": "+81 877-75-4724", "contact_email": null, "status": 1, "source_type": 1, "numberReviews": 1}, {"name": "Nanas Green Tea Aeon Mall Ayagawa", "type": "restaurant", "image": null, "address": "822-1 Kayahara Aeon Mall Ayagawa 2F, Ayagawa-cho, Ayauta-gun 761-2304 Kagawa Prefecture", "lat": 34.251644, "lng": 133.931, "ref_id": 10383226, "rating": 3, "num_reviews": 0, "website": null, "contact_phone": "+81 87-876-8271", "contact_email": null, "status": 1, "source_type": 1, "numberReviews": 2}, {"name": "Shiosai", "type": "restaurant", "image": null, "address": "3-12-1-105 Otemachi, Marugame Kagawa Prefecture", "lat": 34.288834, "lng": 133.79558, "ref_id": 7534095, "rating": 3, "num_reviews": 0, "website": null, "contact_phone": "+81 877-22-7457", "contact_email": null, "status": 1, "source_type": 1, "numberReviews": 1}, {"name": "Hamaichi Shokudo", "type": "restaurant", "image": "https://dynamic-media-cdn.tripadvisor.com/media/photo-o/0d/7d/9c/d5/caption.jpg?w=1000&s=1", "address": "115-7 Hamamachi, Marugame Kagawa Prefecture", "lat": 34.29231, "lng": 133.79431, "ref_id": 7534100, "rating": 3, "num_reviews": 0, "website": null, "contact_phone": "+81 877-22-5010", "contact_email": null, "status": 1, "source_type": 1, "numberReviews": 2}, {"name": "Tontaro Muromachi", "type": "restaurant", "image": "https://dynamic-media-cdn.tripadvisor.com/media/photo-o/0c/15/b4/56/caption.jpg?w=1000&s=1", "address": "2-5-20 Muromachi, Sakaide 762-0007 Kagawa Prefecture", "lat": 34.315315, "lng": 133.86223, "ref_id": 9679087, "rating": 3, "num_reviews": 0, "website": null, "contact_phone": "+81 877-45-0226", "contact_email": null, "status": 1, "source_type": 1, "numberReviews": 2}, {"name": "Kiraku", "type": "restaurant", "image": "https://dynamic-media-cdn.tripadvisor.com/media/photo-o/0a/8e/ac/40/caption.jpg?w=1000&s=1", "address": "57-2 Tomiyamachi, Marugame Kagawa Prefecture", "lat": 34.290405, "lng": 133.79527, "ref_id": 7533929, "rating": 3, "num_reviews": 0, "website": null, "contact_phone": "+81 877-22-2802", "contact_email": null, "status": 1, "source_type": 1, "numberReviews": 3}, {"name": "Kamada Udon", "type": "restaurant", "image": "https://dynamic-media-cdn.tripadvisor.com/media/photo-o/0b/ae/e3/38/caption.jpg?w=1000&s=1", "address": "757-5, Utazu-cho, Ayauta-gun 769-0210 Kagawa Prefecture", "lat": 34.30283, "lng": 133.8349, "ref_id": 10014169, "rating": 3, "num_reviews": 0, "website": null, "contact_phone": "+81 877-49-2025", "contact_email": null, "status": 1, "source_type": 1, "numberReviews": 2}, {"name": "Edosoba Nichigetsuan", "type": "restaurant", "image": "https://dynamic-media-cdn.tripadvisor.com/media/photo-o/09/e4/13/0e/photo2jpg.jpg?w=1000&s=1", "address": "1513 Iiyamacho Kamihongunji, Marugame Kagawa Prefecture", "lat": 34.244644, "lng": 133.85857, "ref_id": 7534092, "rating": 3, "num_reviews": 0, "website": null, "contact_phone": "+81 877-98-2250", "contact_email": null, "status": 1, "source_type": 1, "numberReviews": 3}, {"name": "Uotami Marugame", "type": "restaurant", "image": null, "address": "73-3 Tomiyamachi Nishikawaya Bldg. 1F, Marugame 763-0021 Kagawa Prefecture", "lat": 34.28976, "lng": 133.79579, "ref_id": 6166283, "rating": 3, "num_reviews": 0, "website": null, "contact_phone": "+81 877-58-1688", "contact_email": null, "status": 1, "source_type": 1, "numberReviews": 4}, {"name": "Sunrise Hills Country Club Restaurant", "type": "restaurant", "image": null, "address": "129-1 Nakadori, Manno-cho, Nakatado-gun Kagawa Prefecture", "lat": 34.157528, "lng": 133.95045, "ref_id": 7482501, "rating": 3, "num_reviews": 0, "website": null, "contact_phone": "+81 877-85-2888", "contact_email": null, "status": 1, "source_type": 1, "numberReviews": 2}, {"name": "Nishikiya Honten", "type": "restaurant", "image": "https://dynamic-media-cdn.tripadvisor.com/media/photo-o/0a/ae/62/69/caption.jpg?w=1000&s=1", "address": "696 Kotohiracho, Kotohira-cho, Nakatado-gun 766-0001 Kagawa Prefecture", "lat": 34.189342, "lng": 133.81798, "ref_id": 8706225, "rating": 3, "num_reviews": 0, "website": "http://www.konpira-syouyumame.com/shop.html", "contact_phone": "+81 877-75-3264", "contact_email": null, "status": 1, "source_type": 1, "numberReviews": 15}, {"name": "Restaurant Mikado", "type": "restaurant", "image": null, "address": "2355-1 Kawahigashi Road Station Kotonami Epia Mikado, Manno-cho, Nakatado-gun 766-0203 Kagawa Prefecture", "lat": 34.094826, "lng": 134.00754, "ref_id": 5929792, "rating": 3, "num_reviews": 0, "website": "http://e-mikado.jp/index.php?id=7", "contact_phone": "+81 877-56-0015", "contact_email": null, "status": 1, "source_type": 1, "numberReviews": 3}, {"name": "Shabu Shabu Yakiniku Masaoka Kokudo", "type": "restaurant", "image": null, "address": "1117-1 Higashibun, Iinocho, Marugame 763-0085 Kagawa Prefecture", "lat": 34.28587, "lng": 133.82726, "ref_id": 9656271, "rating": 3.5, "num_reviews": 0, "website": null, "contact_phone": "+81 877-22-2323", "contact_email": null, "status": 1, "source_type": 1, "numberReviews": 3}, {"name": "Mame Cafe", "type": "restaurant", "image": "https://dynamic-media-cdn.tripadvisor.com/media/photo-o/07/e4/e7/53/caption.jpg?w=1000&s=1", "address": "1001, Kotohira-cho, Nakatado-gun Kagawa Prefecture", "lat": 34.184906, "lng": 133.81758, "ref_id": 7482456, "rating": 3, "num_reviews": 0, "website": null, "contact_phone": "+81 877-73-4717", "contact_email": null, "status": 1, "source_type": 1, "numberReviews": 4}, {"name": "Gusto Zentsuji", "type": "restaurant", "image": null, "address": "1061-1 Ikanocho, Zentsuji 765-0053 Kagawa Prefecture", "lat": 34.229588, "lng": 133.79143, "ref_id": 4898509, "rating": 2.5, "num_reviews": 0, "website": null, "contact_phone": "+81 877-56-5134", "contact_email": null, "status": 1, "source_type": 1, "numberReviews": 3}, {"name": "Nagoyan Ramen", "type": "restaurant", "image": "https://dynamic-media-cdn.tripadvisor.com/media/photo-o/15/be/92/bd/dsc-0729-largejpg.jpg?w=1000&s=1", "address": "52 Torimachi, Marugame 763-0043 Kagawa Prefecture", "lat": 34.289967, "lng": 133.79633, "ref_id": 11755740, "rating": 2.5, "num_reviews": 0, "website": null, "contact_phone": null, "contact_email": null, "status": 1, "source_type": 1, "numberReviews": 5}, {"name": "Hotto Motto Takasuhigashi", "type": "restaurant", "image": null, "address": "741-1 Takasuhigashimachi, Kochi 781-8105 Kochi Prefecture", "lat": 33.558765, "lng": 133.59616, "ref_id": 13245576, "rating": -1, "num_reviews": 0, "website": null, "contact_phone": "+81 88-880-5488", "contact_email": null, "status": 1, "source_type": 1, "numberReviews": 0}, {"name": "Tabi", "type": "restaurant", "image": null, "address": "1-8-5 Otesuji Printemps Part I 2F, Kochi 780-0842 Kochi Prefecture", "lat": 33.56138, "lng": 133.53967, "ref_id": 9615295, "rating": -1, "num_reviews": 0, "website": null, "contact_phone": "+81 88-824-5454", "contact_email": null, "status": 1, "source_type": 1, "numberReviews": 0}, {"name": "Kuishimbo Kisaragi Tosayamada", "type": "restaurant", "image": null, "address": "2-3-141 Hyakusekicho Tosayamadacho, Kami 782-0035 Kochi Prefecture", "lat": 33.60894, "lng": 133.69904, "ref_id": 13241648, "rating": -1, "num_reviews": 0, "website": null, "contact_phone": "+81 887-53-1811", "contact_email": null, "status": 1, "source_type": 1, "numberReviews": 0}, {"name": "Yakiniku Kochi Shop From Here", "type": "restaurant", "image": null, "address": "1-3-30 Otesuji, Kochi 780-0842 Kochi Prefecture", "lat": 33.562366, "lng": 133.54245, "ref_id": 14737122, "rating": -1, "num_reviews": 0, "website": null, "contact_phone": "+81 88-879-2944", "contact_email": null, "status": 1, "source_type": 1, "numberReviews": 0}, {"name": "Yakitori Daikichi Kochi Otsu", "type": "restaurant", "image": null, "address": "1208-1 Otsuotsu, Kochi 781-5103 Kochi Prefecture", "lat": 33.575035, "lng": 133.60312, "ref_id": 9628343, "rating": -1, "num_reviews": 0, "website": null, "contact_phone": "+81 88-866-9949", "contact_email": null, "status": 1, "source_type": 1, "numberReviews": 0}, {"name": "Omusubi Yonetaro", "type": "restaurant", "image": null, "address": "1-2-2 Tosayamadacho Asahimachi, Kami 782-0033 Kochi Prefecture", "lat": 33.60381, "lng": 133.68681, "ref_id": 13039010, "rating": -1, "num_reviews": 0, "website": null, "contact_phone": "+81 887-53-4554", "contact_email": null, "status": 1, "source_type": 1, "numberReviews": 0}, {"name": "Kood Paul", "type": "restaurant", "image": null, "address": "1-2-30 Hommachi, Kochi 780-0870 Kochi Prefecture", "lat": 33.5598, "lng": 133.53935, "ref_id": 13788464, "rating": -1, "num_reviews": 0, "website": null, "contact_phone": "+81 88-875-7111", "contact_email": null, "status": 1, "source_type": 1, "numberReviews": 0}, {"name": "Shoseiko Egushi", "type": "restaurant", "image": null, "address": "1-9-26 Obiyacho, Kochi Kochi Prefecture", "lat": 33.561092, "lng": 133.54013, "ref_id": 7450648, "rating": -1, "num_reviews": 0, "website": null, "contact_phone": "+81 88-871-5820", "contact_email": null, "status": 1, "source_type": 1, "numberReviews": 0}, {"name": "Maruya", "type": "restaurant", "image": null, "address": "2-20 Ugurusu 1F, Kochi 780-8083 Kochi Prefecture", "lat": 33.542274, "lng": 133.48547, "ref_id": 14920374, "rating": -1, "num_reviews": 0, "website": null, "contact_phone": "+81 88-843-0117", "contact_email": null, "status": 1, "source_type": 1, "numberReviews": 0}, {"name": "Ikkyu", "type": "restaurant", "image": null, "address": "8-28 Umenotsuji, Kochi 780-8011 Kochi Prefecture", "lat": 33.553734, "lng": 133.54314, "ref_id": 9628385, "rating": -1, "num_reviews": 0, "website": null, "contact_phone": "+81 88-832-9472", "contact_email": null, "status": 1, "source_type": 1, "numberReviews": 0}, {"name": "Iroirokairo", "type": "restaurant", "image": null, "address": "79-1 Otani, Kochi 780-0947 Kochi Prefecture", "lat": 33.56042, "lng": 133.49464, "ref_id": 9650589, "rating": -1, "num_reviews": 0, "website": null, "contact_phone": "+81 88-840-2650", "contact_email": null, "status": 1, "source_type": 1, "numberReviews": 0}, {"name": "Restaurant Tanaka", "type": "restaurant", "image": null, "address": "1956 Osone Ko, Nankoku 783-0004 Kochi Prefecture", "lat": 33.569607, "lng": 133.64325, "ref_id": 13247460, "rating": -1, "num_reviews": 0, "website": null, "contact_phone": "+81 88-864-3672", "contact_email": null, "status": 1, "source_type": 1, "numberReviews": 0}, {"name": "Furusato", "type": "restaurant", "image": null, "address": "1000-1 Otsuotsu, Kochi Kochi Prefecture", "lat": 33.572483, "lng": 133.59814, "ref_id": 7450536, "rating": -1, "num_reviews": 0, "website": null, "contact_phone": "+81 88-866-2631", "contact_email": null, "status": 1, "source_type": 1, "numberReviews": 0}, {"name": "Kokoro", "type": "restaurant", "image": null, "address": "34-9 Azono Naka-Machi, Kochi Kochi Prefecture", "lat": 33.579, "lng": 133.56154, "ref_id": 7450664, "rating": -1, "num_reviews": 0, "website": null, "contact_phone": "+81 88-826-5432", "contact_email": null, "status": 1, "source_type": 1, "numberReviews": 0}, {"name": "Hamayaki Ichiba", "type": "restaurant", "image": null, "address": "1-6-23 Otesuji Nakayama Bldg. 2F, Kochi 780-0842 Kochi Prefecture", "lat": 33.562416, "lng": 133.54117, "ref_id": 9615290, "rating": -1, "num_reviews": 0, "website": null, "contact_phone": "+81 88-825-0800", "contact_email": null, "status": 1, "source_type": 1, "numberReviews": 0}, {"name": "Hoteisan", "type": "restaurant", "image": null, "address": "19-16 Takasu Higashimachi, Kochi 781-8105 Kochi Prefecture", "lat": 33.558792, "lng": 133.59698, "ref_id": 10659826, "rating": -1, "num_reviews": 0, "website": null, "contact_phone": "+81 88-883-7636", "contact_email": null, "status": 1, "source_type": 1, "numberReviews": 0}, {"name": "Tsubohachi Kochi Kencho Mae", "type": "restaurant", "image": null, "address": "4-1-15 Hommachi, Kochi Kochi Prefecture", "lat": 33.558746, "lng": 133.53261, "ref_id": 7450501, "rating": -1, "num_reviews": 0, "website": null, "contact_phone": "+81 88-820-5688", "contact_email": null, "status": 1, "source_type": 1, "numberReviews": 0}, {"name": "Chigusa Shokudo", "type": "restaurant", "image": null, "address": "1-3-7 Hadaminamimachi, Kochi 780-0026 Kochi Prefecture", "lat": 33.575264, "lng": 133.54065, "ref_id": 9690010, "rating": -1, "num_reviews": 0, "website": null, "contact_phone": "+81 88-873-6857", "contact_email": null, "status": 1, "source_type": 1, "numberReviews": 0}, {"name": "Rice Balls and Bento Otozure", "type": "restaurant", "image": null, "address": "537-27 Yasucho Chigire, Konan 781-5602 Kochi Prefecture", "lat": 33.53441, "lng": 133.75446, "ref_id": 13039020, "rating": -1, "num_reviews": 0, "website": null, "contact_phone": "+81 887-54-4856", "contact_email": null, "status": 1, "source_type": 1, "numberReviews": 0}, {"name": "Dining Kazeyobi", "type": "restaurant", "image": "https://dynamic-media-cdn.tripadvisor.com/media/photo-o/04/9f/d5/15/dining-kazeyobi.jpg?w=1000&s=1", "address": "1-3-3 Minamiharimayacho Azalea Minami Haramiya 1F, Kochi 780-0833 Kochi Prefecture", "lat": 33.557644, "lng": 133.5422, "ref_id": 4896770, "rating": -1, "num_reviews": 0, "website": null, "contact_phone": "+81 88-822-1055", "contact_email": null, "status": 1, "source_type": 1, "numberReviews": 0}, {"name": "Miyoshiya", "type": "restaurant", "image": null, "address": "5-9 Takaramachi, Kochi 780-0914 Kochi Prefecture", "lat": 33.56746, "lng": 133.52737, "ref_id": 10659814, "rating": -1, "num_reviews": 0, "website": null, "contact_phone": "+81 88-824-9898", "contact_email": null, "status": 1, "source_type": 1, "numberReviews": 0}, {"name": "Assembl\u00e9e & Canta", "type": "restaurant", "image": null, "address": "1-1-14 Kamimachi, Kochi 780-0901 Kochi Prefecture", "lat": 33.559002, "lng": 133.52692, "ref_id": 19881236, "rating": -1, "num_reviews": 0, "website": "https://www.facebook.com/assembleecanta/", "contact_phone": "+81 90-1570-3584", "contact_email": null, "status": 1, "source_type": 1, "numberReviews": 0},