[{"name": "Man Tours", "type": "restaurant", "image": null, "address": "482-5 Yashima Nishimachi, Takamatsu 761-0113 Kagawa Prefecture", "lat": 34.36381, "lng": 134.093, "ref_id": 13038629, "rating": -1, "num_reviews": 0, "website": null, "contact_phone": "+81 87-844-2929", "contact_email": null, "status": 1, "source_type": 1, "numberReviews": 0}, {"name": "Kitajima", "type": "restaurant", "image": null, "address": "1-10-15 Kawaramachi, Takamatsu Kagawa Prefecture", "lat": 34.341415, "lng": 134.05083, "ref_id": 7450044, "rating": -1, "num_reviews": 0, "website": null, "contact_phone": "+81 87-842-1505", "contact_email": null, "status": 1, "source_type": 1, "numberReviews": 0}, {"name": "Kashimura", "type": "restaurant", "image": null, "address": "3364-3 Showa, Sanuki Kagawa Prefecture", "lat": 34.26539, "lng": 134.16609, "ref_id": 7662485, "rating": -1, "num_reviews": 0, "website": null, "contact_phone": "+81 879-52-3661", "contact_email": null, "status": 1, "source_type": 1, "numberReviews": 0}, {"name": "Katsuoka", "type": "restaurant", "image": null, "address": "7-4 Kajiyamachi, Takamatsu Kagawa Prefecture", "lat": 34.342594, "lng": 134.04825, "ref_id": 7450210, "rating": -1, "num_reviews": 0, "website": null, "contact_phone": "+81 87-822-5111", "contact_email": null, "status": 1, "source_type": 1, "numberReviews": 0}, {"name": "Sarian", "type": "restaurant", "image": null, "address": "2813-1 Kitacho, Takamatsu 760-0080 Kagawa Prefecture", "lat": 34.334057, "lng": 134.08376, "ref_id": 9650505, "rating": -1, "num_reviews": 0, "website": null, "contact_phone": "+81 87-835-5370", "contact_email": null, "status": 1, "source_type": 1, "numberReviews": 0}, {"name": "Bar Viva la Vida", "type": "restaurant", "image": null, "address": "1-4-18 Kawara-Machi, Takamatsu Kagawa Prefecture", "lat": 34.34189, "lng": 134.05257, "ref_id": 7450131, "rating": -1, "num_reviews": 0, "website": null, "contact_phone": "+81 87-851-3127", "contact_email": null, "status": 1, "source_type": 1, "numberReviews": 0}, {"name": "Mirashon", "type": "restaurant", "image": null, "address": "1-11-17 Kawaramachi, Takamatsu 760-0052 Kagawa Prefecture", "lat": 34.34101, "lng": 134.05042, "ref_id": 13038653, "rating": -1, "num_reviews": 0, "website": null, "contact_phone": "+81 87-813-3011", "contact_email": null, "status": 1, "source_type": 1, "numberReviews": 0}, {"name": "Kamikatsu Kissa Ikumi", "type": "restaurant", "image": "https://dynamic-media-cdn.tripadvisor.com/media/photo-o/0d/aa/d0/73/getlstd-property-photo.jpg?w=1000&s=1", "address": "12 Ikumi Taniguchi, Kamikatsu-cho, Katsura-gun 771-4503 Qu\u00e2\u0323n Tokushima", "lat": 33.910564, "lng": 134.39233, "ref_id": 11846863, "rating": -1, "num_reviews": 0, "website": "https://kamikatsu.club/coffee/menu/", "contact_phone": null, "contact_email": "ikumi.kamikatsu@gmail.com", "status": 1, "source_type": 1, "numberReviews": 0}, {"name": "Shikida", "type": "restaurant", "image": null, "address": "6636-6 Kure, Nakatosa-cho, Takaoka-gun Kochi Prefecture", "lat": 33.3296, "lng": 133.22772, "ref_id": 7482804, "rating": 3.5, "num_reviews": 0, "website": null, "contact_phone": "+81 889-52-3777", "contact_email": null, "status": 1, "source_type": 1, "numberReviews": 2}, {"name": "Honoka X", "type": "restaurant", "image": null, "address": "327-2 Kuroishi, Shimanto-cho, Takaoka-gun Kochi Prefecture", "lat": 33.225613, "lng": 133.19382, "ref_id": 7482891, "rating": -1, "num_reviews": 0, "website": null, "contact_phone": "+81 880-29-2100", "contact_email": null, "status": 1, "source_type": 1, "numberReviews": 0}, {"name": "Candy Workshop Warabi", "type": "restaurant", "image": null, "address": "423-1 Hiragushi, Shimanto-cho, Takaoka-gun 786-0026 Kochi Prefecture", "lat": 33.234673, "lng": 133.15189, "ref_id": 13038961, "rating": -1, "num_reviews": 0, "website": null, "contact_phone": "+81 880-22-9033", "contact_email": null, "status": 1, "source_type": 1, "numberReviews": 0}, {"name": "Yorisu", "type": "restaurant", "image": null, "address": "1208-13 Fukuda Ko, Shodoshima-cho, Shozu-gun 761-4402 Kagawa Prefecture", "lat": 34.54439, "lng": 134.34341, "ref_id": 9622818, "rating": -1, "num_reviews": 0, "website": null, "contact_phone": "+81 879-84-2012", "contact_email": null, "status": 1, "source_type": 1, "numberReviews": 0}, {"name": "Ominosato", "type": "restaurant", "image": null, "address": "909-1 Koumi Ko, Tonosho-cho, Shozu-gun Kagawa Prefecture", "lat": 34.533916, "lng": 134.24216, "ref_id": 7662318, "rating": -1, "num_reviews": 0, "website": null, "contact_phone": "+81 879-65-2865", "contact_email": null, "status": 1, "source_type": 1, "numberReviews": 0}, {"name": "Kochan No Mise", "type": "restaurant", "image": null, "address": "704 Ko, Tonosho-cho, Shozu-gun 761-4101 Kagawa Prefecture", "lat": 34.50697, "lng": 134.1815, "ref_id": 13038578, "rating": -1, "num_reviews": 0, "website": null, "contact_phone": "+81 879-62-4678", "contact_email": null, "status": 1, "source_type": 1, "numberReviews": 0}, {"name": "Izakaya Style Bar Nakamura-Ya 007", "type": "restaurant", "image": null, "address": "1360-9 Noma Shodoshima-Cho, Shodoshima-cho, Shozu-gun 761-4421 Kagawa Prefecture", "lat": 34.469646, "lng": 134.32027, "ref_id": 6049243, "rating": -1, "num_reviews": 0, "website": null, "contact_phone": "+81 879-82-6011", "contact_email": null, "status": 1, "source_type": 1, "numberReviews": 0}, {"name": "Coco Ichibanya Takamatsu Tsunawa", "type": "restaurant", "image": "https://dynamic-media-cdn.tripadvisor.com/media/photo-o/04/a0/07/1d/coco-ichibanya-takamatsu.jpg?w=1000&s=1", "address": "1135-2 Kitacho, Takamatsu 760-0080 Kagawa Prefecture", "lat": 34.32195, "lng": 134.0674, "ref_id": 4896534, "rating": 4, "num_reviews": 0, "website": null, "contact_phone": "+81 87-868-0040", "contact_email": null, "status": 1, "source_type": 1, "numberReviews": 6}, {"name": "Pureful Matsuyama", "type": "restaurant", "image": null, "address": "132 Miyatamachi, Matsuyama 790-0066 Ehime Prefecture", "lat": 33.842804, "lng": 132.75278, "ref_id": 17358204, "rating": -1, "num_reviews": 0, "website": null, "contact_phone": "+81 89-945-6011", "contact_email": null, "status": 1, "source_type": 1, "numberReviews": 0}, {"name": "Fujin Raijin", "type": "restaurant", "image": null, "address": "1-10-7 Nibancho, Matsuyama 790-0002 Ehime Prefecture", "lat": 33.840122, "lng": 132.7725, "ref_id": 20164529, "rating": -1, "num_reviews": 0, "website": null, "contact_phone": "+81 89-993-5977", "contact_email": null, "status": 1, "source_type": 1, "numberReviews": 0}, {"name": "Sanbancho no Yuyake", "type": "restaurant", "image": null, "address": "1-9-23 Sambancho, Matsuyama 790-0003 Ehime Prefecture", "lat": 33.837933, "lng": 132.77283, "ref_id": 4670981, "rating": -1, "num_reviews": 0, "website": null, "contact_phone": "+81 89-946-2451", "contact_email": null, "status": 1, "source_type": 1, "numberReviews": 0}, {"name": "Chez Taka", "type": "restaurant", "image": null, "address": "6-9 Fukuonjimachi, Matsuyama 790-0921 Ehime Prefecture", "lat": 33.820168, "lng": 132.79628, "ref_id": 10656877, "rating": -1, "num_reviews": 0, "website": null, "contact_phone": "+81 89-907-3922", "contact_email": null, "status": 1, "source_type": 1, "numberReviews": 0}, {"name": "Dining & Cafe Bar Tiny Tiny", "type": "restaurant", "image": null, "address": "2-10-9 Sanbancho Third Clean Building 2F, Matsuyama 790-0003 Ehime Prefecture", "lat": 33.83879, "lng": 132.77126, "ref_id": 14737256, "rating": -1, "num_reviews": 0, "website": null, "contact_phone": "+81 89-906-0250", "contact_email": null, "status": 1, "source_type": 1, "numberReviews": 0}, {"name": "Yakitori Umire Matsuyama Edamatsu", "type": "restaurant", "image": null, "address": "5-8-28 Edamatsu, Matsuyama 790-0962 Ehime Prefecture", "lat": 33.829453, "lng": 132.7858, "ref_id": 14737323, "rating": -1, "num_reviews": 0, "website": null, "contact_phone": "+81 89-909-9557", "contact_email": null, "status": 1, "source_type": 1, "numberReviews": 0}, {"name": "Oriental Bar Air", "type": "restaurant", "image": null, "address": "1-16-13 Sanbancho Aoki Building 3F, Matsuyama 790-0003 Ehime Prefecture", "lat": 33.83879, "lng": 132.77226, "ref_id": 14737252, "rating": -1, "num_reviews": 0, "website": null, "contact_phone": "+81 89-935-6166", "contact_email": null, "status": 1, "source_type": 1, "numberReviews": 0}, {"name": "Aozashi", "type": "restaurant", "image": null, "address": "1-10-1 Okachimachi, Matsuyama 790-0801 Ehime Prefecture", "lat": 33.84246, "lng": 132.77411, "ref_id": 9673458, "rating": -1, "num_reviews": 0, "website": null, "contact_phone": "+81 89-943-0500", "contact_email": null, "status": 1, "source_type": 1, "numberReviews": 0}, {"name": "Lounge Ichi", "type": "restaurant", "image": null, "address": "1-9-4 Nibancho 3F, Matsuyama 790-0002 Ehime Prefecture", "lat": 33.83966, "lng": 132.77287, "ref_id": 10653069, "rating": -1, "num_reviews": 0, "website": null, "contact_phone": "+81 89-913-8511", "contact_email": null, "status": 1, "source_type": 1, "numberReviews": 0}, {"name": "Cafe Shokudo Mikael", "type": "restaurant", "image": "https://dynamic-media-cdn.tripadvisor.com/media/photo-o/19/d8/22/cd/caption.jpg?w=1000&s=1", "address": "1-4-1 Kayamachi First Green Building 1F, Matsuyama 790-0813 Ehime Prefecture", "lat": 33.84105, "lng": 132.75711, "ref_id": 17358422, "rating": -1, "num_reviews": 0, "website": null, "contact_phone": "+81 89-916-3745", "contact_email": null, "status": 1, "source_type": 1, "numberReviews": 0}, {"name": "New Botchan", "type": "restaurant", "image": null, "address": "1352 Shimoagawa, Iyo 799-3111 Ehime Prefecture", "lat": 33.76688, "lng": 132.7041, "ref_id": 13028062, "rating": -1, "num_reviews": 0, "website": null, "contact_phone": "+81 89-983-0177", "contact_email": null, "status": 1, "source_type": 1, "numberReviews": 0}, {"name": "Suzutako", "type": "restaurant", "image": null, "address": "11-3 Minato-Machi, Iyo Ehime Prefecture", "lat": 33.761963, "lng": 132.70374, "ref_id": 7546896, "rating": -1, "num_reviews": 0, "website": null, "contact_phone": "+81 89-982-6477", "contact_email": null, "status": 1, "source_type": 1, "numberReviews": 0}, {"name": "Izakaya Goichi", "type": "restaurant", "image": null, "address": "733 Kitasayacho, Matsuyama 791-8031 Ehime Prefecture", "lat": 33.841522, "lng": 132.72684, "ref_id": 13027827, "rating": -1, "num_reviews": 0, "website": null, "contact_phone": "+81 89-951-3955", "contact_email": null, "status": 1, "source_type": 1, "numberReviews": 0}, {"name": "Fukuyoshi Shokudo", "type": "restaurant", "image": null, "address": "1-7-31 Katsuyamacho, Matsuyama 790-0878 Ehime Prefecture", "lat": 33.838787, "lng": 132.7758, "ref_id": 9638316, "rating": -1, "num_reviews": 0, "website": null, "contact_phone": "+81 89-946-2416", "contact_email": null, "status": 1, "source_type": 1, "numberReviews": 0}, {"name": "Karaoke Cafe Mahoroba", "type": "restaurant", "image": null, "address": "147-4 Morimatsumachi, Matsuyama 791-1113 Ehime Prefecture", "lat": 33.79139, "lng": 132.79651, "ref_id": 14737348, "rating": -1, "num_reviews": 0, "website": null, "contact_phone": "+81 89-976-8862", "contact_email": null, "status": 1, "source_type": 1, "numberReviews": 0}, {"name": "Ramen Shinichi", "type": "restaurant", "image": null, "address": "1-6-1 Okaido, Matsuyama Ehime Prefecture", "lat": 33.837536, "lng": 132.77022, "ref_id": 7449779, "rating": -1, "num_reviews": 0, "website": null, "contact_phone": "+81 89-993-6020", "contact_email": null, "status": 1, "source_type": 1, "numberReviews": 0}, {"name": "Mercatus", "type": "restaurant", "image": null, "address": "81 Shigemitsu, Tobe-cho, Iyo-gun 791-2112 Ehime Prefecture", "lat": 33.786205, "lng": 132.78232, "ref_id": 4663608, "rating": -1, "num_reviews": 0, "website": null, "contact_phone": "+81 89-907-2820", "contact_email": null, "status": 1, "source_type": 1, "numberReviews": 1}, {"name": "All-You-Can-Eat Tanabota Matsuyama Okaido", "type": "restaurant", "image": null, "address": "2-6 Sambanncho No. 10 Mitsuwa Bldg. 3F, Matsuyama 790-0003 Ehime Prefecture", "lat": 33.83854, "lng": 132.77142, "ref_id": 21279948, "rating": -1, "num_reviews": 0, "website": "", "contact_phone": "+81 89-933-6877", "contact_email": null, "status": 1, "source_type": 1, "numberReviews": 0}, {"name": "Otani Seimenjo", "type": "restaurant", "image": "https://dynamic-media-cdn.tripadvisor.com/media/photo-o/09/e8/2e/35/caption.jpg?w=1000&s=1", "address": "551-1 Hara Murecho, Takamatsu Kagawa Prefecture", "lat": 34.33022, "lng": 134.15866, "ref_id": 7450232, "rating": 4, "num_reviews": 0, "website": null, "contact_phone": "+81 87-845-0967", "contact_email": null, "status": 1, "source_type": 1, "numberReviews": 6}, {"name": "Grill Eight", "type": "restaurant", "image": null, "address": "1291-5 Fukurako, Minamiawaji 656-0501 Qu\u00e2\u0323n Hyogo", "lat": 34.25839, "lng": 134.71973, "ref_id": 13046826, "rating": 4, "num_reviews": 0, "website": null, "contact_phone": "+81 799-52-3609", "contact_email": null, "status": 1, "source_type": 1, "numberReviews": 1}, {"name": "Joyport Restaurant Nanairo", "type": "restaurant", "image": "https://dynamic-media-cdn.tripadvisor.com/media/photo-o/23/4e/f2/c6/caption.jpg?w=1000&s=1", "address": "1528-4 Fukurako, Minamiawaji 656-0501 Qu\u00e2\u0323n Hyogo", "lat": 34.256443, "lng": 134.72017, "ref_id": 9656004, "rating": 3.5, "num_reviews": 0, "website": null, "contact_phone": "+81 799-50-2535", "contact_email": null, "status": 1, "source_type": 1, "numberReviews": 2}, {"name": "Mira", "type": "restaurant", "image": null, "address": "127-1 Komoda Nishi, Seiyo Ehime Prefecture", "lat": 33.347527, "lng": 132.51546, "ref_id": 7672990, "rating": -1, "num_reviews": 0, "website": null, "contact_phone": "+81 894-62-5454", "contact_email": null, "status": 1, "source_type": 1, "numberReviews": 0}, {"name": "Kikyo", "type": "restaurant", "image": null, "address": "588 Otsu Takada, Tsushimacho, Uwajima 798-3302 Ehime Prefecture", "lat": 33.128468, "lng": 132.53844, "ref_id": 9690403, "rating": -1, "num_reviews": 0, "website": null, "contact_phone": "+81 895-32-4567", "contact_email": null, "status": 1, "source_type": 1, "numberReviews": 0}, {"name": "Bar Tabi", "type": "restaurant", "image": "https://dynamic-media-cdn.tripadvisor.com/media/photo-o/13/a8/9f/d7/photo0jpg.jpg?w=1000&s=1", "address": "1-12-10 Kawaramachi FM Building 1F, Takamatsu 760-0052 Kagawa Prefecture", "lat": 34.340973, "lng": 134.05148, "ref_id": 9662654, "rating": 2.5, "num_reviews": 0, "website": null, "contact_phone": "+81 87-863-6601", "contact_email": null, "status": 1, "source_type": 1, "numberReviews": 2}, {"name": "Gin No Kura", "type": "restaurant", "image": "https://dynamic-media-cdn.tripadvisor.com/media/photo-o/10/02/5e/b6/dsc-5814-largejpg.jpg?w=1000&s=1", "address": "1904-10 Shido, Sanuki Kagawa Prefecture", "lat": 34.319874, "lng": 134.18338, "ref_id": 7534459, "rating": 2.5, "num_reviews": 0, "website": null, "contact_phone": "+81 87-894-2332", "contact_email": null, "status": 1, "source_type": 1, "numberReviews": 3}, {"name": "Time Flies", "type": "restaurant", "image": "https://dynamic-media-cdn.tripadvisor.com/media/photo-o/15/d3/c1/be/enough-variety-to-start.jpg?w=1000&s=1", "address": "2-1-16 Kawaramachi 1f, Takamatsu 760-0052 Kagawa Prefecture", "lat": 34.34052, "lng": 134.05054, "ref_id": 9662642, "rating": 2, "num_reviews": 0, "website": null, "contact_phone": "+81 87-862-8755", "contact_email": null, "status": 1, "source_type": 1, "numberReviews": 1}, {"name": "Mishimaya", "type": "restaurant", "image": "https://dynamic-media-cdn.tripadvisor.com/media/photo-o/16/38/00/ac/photo1jpg.jpg?w=1000&s=1", "address": "744-1 Shimo Takaoka, Miki-cho, Kita-gun Kagawa Prefecture", "lat": 34.266502, "lng": 134.15115, "ref_id": 7482296, "rating": 2, "num_reviews": 0, "website": null, "contact_phone": "+81 87-898-7990", "contact_email": null, "status": 1, "source_type": 1, "numberReviews": 1}, {"name": "Matsuya Takamatsu Kita", "type": "restaurant", "image": "https://dynamic-media-cdn.tripadvisor.com/media/photo-o/0d/d7/79/70/photo0jpg.jpg?w=1000&s=1", "address": "3838-1 Kitacho, Takamatsu 760-0080 Kagawa Prefecture", "lat": 34.321247, "lng": 134.08087, "ref_id": 6166432, "rating": 3, "num_reviews": 0, "website": null, "contact_phone": "+81 87-869-8520", "contact_email": null, "status": 1, "source_type": 1, "numberReviews": 4}, {"name": "Tori Hana", "type": "restaurant", "image": "https://dynamic-media-cdn.tripadvisor.com/media/photo-o/09/0d/80/e1/caption.jpg?w=1000&s=1", "address": "918-1 Shido, Sanuki Kagawa Prefecture", "lat": 34.31925, "lng": 134.17874, "ref_id": 7534430, "rating": 2, "num_reviews": 0, "website": null, "contact_phone": "+81 87-894-6023", "contact_email": null, "status": 1, "source_type": 1, "numberReviews": 2}, {"name": "Go-Ya", "type": "restaurant", "image": null, "address": "2-10-12 Kawaramachi, Takamatsu Kagawa Prefecture", "lat": 34.33979, "lng": 134.05034, "ref_id": 7450342, "rating": 2, "num_reviews": 0, "website": null, "contact_phone": "+81 87-831-3360", "contact_email": null, "status": 1, "source_type": 1, "numberReviews": 1}, {"name": "Sanuki Rock", "type": "restaurant", "image": "https://dynamic-media-cdn.tripadvisor.com/media/photo-o/0f/85/8c/11/photo1jpg.jpg?w=1000&s=1", "address": "2-1-1 Tokiwacho, Takamatsu 760-0054 Kagawa Prefecture", "lat": 34.33846, "lng": 134.04913, "ref_id": 4904081, "rating": 3, "num_reviews": 0, "website": null, "contact_phone": "+81 87-851-1850", "contact_email": null, "status": 1, "source_type": 1, "numberReviews": 11}, {"name": "Hachinoki", "type": "restaurant", "image": null, "address": "2-12 Furubabacho, Takamatsu 760-0045 Kagawa Prefecture", "lat": 34.342995, "lng": 134.0524, "ref_id": 4898308, "rating": 1, "num_reviews": 0, "website": "http://hachinoki.jimdofree.com/", "contact_phone": "+81 87-851-8955", "contact_email": null, "status": 1, "source_type": 1, "numberReviews": 1}, {"name": "Torikyodai Kawaramachi", "type": "restaurant", "image": "https://dynamic-media-cdn.tripadvisor.com/media/photo-o/11/51/68/aa/photo0jpg.jpg?w=1000&s=1", "address": "1-4-11 Kawaramachi, Takamatsu 760-0052 Kagawa Prefecture", "lat": 34.34156, "lng": 134.05252, "ref_id": 13038855, "rating": 2, "num_reviews": 0, "website": null, "contact_phone": "+81 87-802-3860", "contact_email": null, "status": 1, "source_type": 1, "numberReviews": 2}, {"name": "Nishipan", "type": "restaurant", "image": null, "address": "758-8 Kami Fukuokacho Kowa Jutaku North Bldg. 1F, Takamatsu 760-0077 Kagawa Prefecture", "lat": 34.332592, "lng": 134.06775, "ref_id": 10656933, "rating": 1, "num_reviews": 0, "website": null, "contact_phone": "+81 87-862-5066", "contact_email": null, "status": 1, "source_type": 1, "numberReviews": 1}, {"name": "Kaikatsu Club Marugame", "type": "restaurant", "image": null, "address": "8-11 Dokichohigashi, Marugame 763-0082 Kagawa Prefecture", "lat": null, "lng": null, "ref_id": 21203996, "rating": -1, "num_reviews": 0, "website": "https://www.kaikatsu.jp/shop/detail/20666.html", "contact_phone": "+81 877-21-2778", "contact_email": null, "status": 1, "source_type": 1, "numberReviews": 0}, {"name": "Miwa", "type": "restaurant", "image": null, "address": "46-1 Kushiki Hamada Kitanadacho, Naruto Qu\u00e2\u0323n Tokushima", "lat": 34.220745, "lng": 134.56424, "ref_id": 7433255, "rating": -1, "num_reviews": 0, "website": null, "contact_phone": "+81 88-688-1771", "contact_email": null, "status": 1, "source_type": 1, "numberReviews": 0}, {"name": "Singing Voice Room Fuji", "type": "restaurant", "image": null, "address": "895 Hojotsuji, Matsuyama 799-2431 Ehime Prefecture", "lat": 33.976574, "lng": 132.77394, "ref_id": 13028271, "rating": -1, "num_reviews": 0, "website": null, "contact_phone": "+81 89-993-1316", "contact_email": null, "status": 1, "source_type": 1, "numberReviews": 0}, {"name": "Karaoke Bar Cottage", "type": "restaurant", "image": null, "address": "2-12-26 Gudo Taguro, Shimanto 787-0051 Kochi Prefecture", "lat": 32.983677, "lng": 132.92142, "ref_id": 14737212, "rating": -1, "num_reviews": 0, "website": null, "contact_phone": "+81 880-37-1605", "contact_email": null, "status": 1, "source_type": 1, "numberReviews": 0}, {"name": "Joyfull", "type": "restaurant", "image": null, "address": "2634-1 Nakamura Kotsuka Aza Kanita, Shimanto Kochi Prefecture", "lat": 32.991314, "lng": 132.9634, "ref_id": 7632021, "rating": -1, "num_reviews": 0, "website": null, "contact_phone": "+81 880-31-0610", "contact_email": null, "status": 1, "source_type": 1, "numberReviews": 0}, {"name": "Fukuichi", "type": "restaurant", "image": null, "address": "3193-1 Gudo, Shimanto Kochi Prefecture", "lat": 32.97877, "lng": 132.91432, "ref_id": 7537058, "rating": -1, "num_reviews": 0, "website": null, "contact_phone": "+81 880-37-5144", "contact_email": null, "status": 1, "source_type": 1, "numberReviews": 0}, {"name": "Al Porte", "type": "restaurant", "image": null, "address": "1870-2 Horiecho, Matsuyama 799-2651 Ehime Prefecture", "lat": 33.90858, "lng": 132.75406, "ref_id": 9662398, "rating": 2, "num_reviews": 0, "website": null, "contact_phone": "+81 89-979-2641", "contact_email": null, "status": 1, "source_type": 1, "numberReviews": 1}, {"name": "Izakaya Junko", "type": "restaurant", "image": null, "address": "2685 Hiraimachi, Matsuyama 791-0243 Ehime Prefecture", "lat": 33.807938, "lng": 132.82887, "ref_id": 9690322, "rating": -1, "num_reviews": 0, "website": null, "contact_phone": "+81 89-975-5840", "contact_email": null, "status": 1, "source_type": 1, "numberReviews": 0}, {"name": "Konamonya Ikamatsu", "type": "restaurant", "image": null, "address": "1-4-1 Okaido, Matsuyama Ehime Prefecture", "lat": 33.836792, "lng": 132.76982, "ref_id": 7449928, "rating": -1, "num_reviews": 0, "website": null, "contact_phone": "+81 89-993-5903", "contact_email": null, "status": 1, "source_type": 1, "numberReviews": 0}, {"name": "Kuboke", "type": "restaurant", "image": null, "address": "3-8-1 Ochi, Matsuyama 790-0933 Ehime Prefecture", "lat": 33.809303, "lng": 132.78079, "ref_id": 14737319, "rating": -1, "num_reviews": 0, "website": null, "contact_phone": "+81 89-968-1167", "contact_email": null, "status": 1, "source_type": 1, "numberReviews": 0}, {"name": "Memba Tadokoro Shoten Shin Kuko Dori", "type": "restaurant", "image": null, "address": "637-19 Kitasayacho, Matsuyama 791-8031 Ehime Prefecture", "lat": 33.838467, "lng": 132.72826, "ref_id": 17410777, "rating": -1, "num_reviews": 0, "website": null, "contact_phone": "+81 89-989-6855", "contact_email": null, "status": 1, "source_type": 1, "numberReviews": 0}, {"name": "Okazumura Tobe", "type": "restaurant", "image": null, "address": "239 Shigemitsu, Tobe-cho, Iyo-gun 791-2112 Ehime Prefecture", "lat": 33.78509, "lng": 132.78574, "ref_id": 13152674, "rating": -1, "num_reviews": 0, "website": null, "contact_phone": "+81 89-905-2455", "contact_email": null, "status": 1, "source_type": 1, "numberReviews": 0}, {"name": "Karaoke Cafe Uerukamu", "type": "restaurant", "image": null, "address": "2-6-35 Yamagoe, Matsuyama 791-8013 Ehime Prefecture", "lat": 33.859932, "lng": 132.75662, "ref_id": 14737350, "rating": -1, "num_reviews": 0, "website": null, "contact_phone": "+81 89-925-0992", "contact_email": null, "status": 1, "source_type": 1, "numberReviews": 0}, {"name": "Shohachi", "type": "restaurant", "image": null, "address": "Kinuyama 1-2-12 1f, Matsuyama 791-8025 Ehime Prefecture", "lat": 33.851486, "lng": 132.74512, "ref_id": 9690336, "rating": -1, "num_reviews": 0, "website": null, "contact_phone": "+81 89-911-4815", "contact_email": null, "status": 1, "source_type": 1, "numberReviews": 0}, {"name": "Upward Space Eco", "type": "restaurant", "image": null, "address": "941 Ko Kamimitani, Iyo 799-3104 Ehime Prefecture", "lat": 33.77212, "lng": 132.73479, "ref_id": 9667524, "rating": -1, "num_reviews": 0, "website": null, "contact_phone": "+81 89-908-9943", "contact_email": null, "status": 1, "source_type": 1, "numberReviews": 0}, {"name": "Iwato Oshokujidokoro", "type": "restaurant", "image": null, "address": "222-36 Higashi Habumachi, Matsuyama 791-8043 Ehime Prefecture", "lat": 33.809418, "lng": 132.71019, "ref_id": 9650141, "rating": -1, "num_reviews": 0, "website": null, "contact_phone": "+81 89-973-8043", "contact_email": null, "status": 1, "source_type": 1, "numberReviews": 0}, {"name": "Okonomiyaki Miyoshi Furukawa", "type": "restaurant", "image": null, "address": "2-23-14 Furukawa Kita, Matsuyama 790-0942 Ehime Prefecture", "lat": 33.81193, "lng": 132.76086, "ref_id": 9650184, "rating": -1, "num_reviews": 0, "website": null, "contact_phone": "+81 89-958-3380", "contact_email": null, "status": 1, "source_type": 1, "numberReviews": 0}, {"name": "Daiju", "type": "restaurant", "image": null, "address": "496-10 Nishi Habumachi, Matsuyama 791-8044 Ehime Prefecture", "lat": 33.81085, "lng": 132.70589, "ref_id": 9690339, "rating": -1, "num_reviews": 0, "website": null, "contact_phone": "+81 89-973-6778", "contact_email": null, "status": 1, "source_type": 1, "numberReviews": 0}, {"name": "Sai", "type": "restaurant", "image": null, "address": "2-3-23 Dogomachi, Matsuyama 790-0843 Ehime Prefecture", "lat": 33.847996, "lng": 132.78113, "ref_id": 13256433, "rating": -1, "num_reviews": 0, "website": null, "contact_phone": "+81 89-911-5454", "contact_email": null, "status": 1, "source_type": 1, "numberReviews": 0}, {"name": "Setodori", "type": "restaurant", "image": null, "address": "2-7-3 Sambancho, Matsuyama 790-0003 Ehime Prefecture", "lat": 33.83851, "lng": 132.77083, "ref_id": 4668481, "rating": -1, "num_reviews": 0, "website": "http://setodori0899048864.owst.jp/", "contact_phone": "+81 89-904-8864", "contact_email": null, "status": 1, "source_type": 1, "numberReviews": 0}, {"name": "Shokuraku Shusui Yumeji", "type": "restaurant", "image": null, "address": "1-10-2 Kachimachi, Matsuyama 790-0801 Ehime Prefecture", "lat": 33.84241, "lng": 132.77403, "ref_id": 9673419, "rating": -1, "num_reviews": 0, "website": null, "contact_phone": "+81 89-943-1714", "contact_email": null, "status": 1, "source_type": 1, "numberReviews": 0}, {"name": "Cross Ehime Japan", "type": "restaurant", "image": null, "address": "1-16-10 Sambancho Stars 21 Part 2 B1F, Matsuyama 790-0003 Ehime Prefecture", "lat": 33.838802, "lng": 132.77252, "ref_id": 9662505, "rating": -1, "num_reviews": 0, "website": null, "contact_phone": "+81 89-932-4440", "contact_email": null, "status": 1, "source_type": 1, "numberReviews": 0}, {"name": "Kobako", "type": "restaurant", "image": null, "address": "2-10-8 3bancho 2f, Matsuyama 790-0003 Ehime Prefecture", "lat": 33.838898, "lng": 132.77126, "ref_id": 13938750, "rating": -1, "num_reviews": 0, "website": null, "contact_phone": "+81 89-986-3005", "contact_email": null, "status": 1, "source_type": 1, "numberReviews": 0}, {"name": "Sen", "type": "restaurant", "image": null, "address": "2-6-19 Sambancho, Matsuyama Ehime Prefecture", "lat": 33.838593, "lng": 132.77202, "ref_id": 7449666, "rating": -1, "num_reviews": 0, "website": null, "contact_phone": "+81 89-931-2152", "contact_email": null, "status": 1, "source_type": 1, "numberReviews": 0}, {"name": "Yamiichi Johnny, Asoda", "type": "restaurant", "image": null, "address": "6-2-2 Asodamachi, Matsuyama 790-0952 Ehime Prefecture", "lat": 33.820904, "lng": 132.76889, "ref_id": 4664439, "rating": -1, "num_reviews": 0, "website": null, "contact_phone": "+81 89-934-2195", "contact_email": null, "status": 1, "source_type": 1, "numberReviews": 0}, {"name": "Grand Cru", "type": "restaurant", "image": null, "address": "1-11-12 Sambancho, Matsuyama 790-0003 Ehime Prefecture", "lat": 33.838406, "lng": 132.77332, "ref_id": 9662342, "rating": -1, "num_reviews": 0, "website": null, "contact_phone": "+81 89-934-1123", "contact_email": null, "status": 1, "source_type": 1, "numberReviews": 0}, {"name": "Bird's Bar", "type": "restaurant", "image": null, "address": "1-10-3 Nibancho Seibu Bldg. 1F, Matsuyama 790-0002 Ehime Prefecture", "lat": 33.84009, "lng": 132.77298, "ref_id": 9662500, "rating": -1, "num_reviews": 0, "website": null, "contact_phone": "+81 89-933-6688", "contact_email": null, "status": 1, "source_type": 1, "numberReviews": 0}, {"name": "Ochaya Hanahimer\u014d", "type": "restaurant", "image": "https://dynamic-media-cdn.tripadvisor.com/media/photo-o/2a/92/5f/fa/caption.jpg?w=1000&s=1", "address": "13-4 Dogoyunomachi, Matsuyama 790-0842 Ehime Prefecture", "lat": 33.852077, "lng": 132.78557, "ref_id": 26704712, "rating": -1, "num_reviews": 0, "website": "https://www.hanahimerou.com/", "contact_phone": "+81 89-945-5151", "contact_email": null, "status": 1, "source_type": 1, "numberReviews": 0}, {"name": "Mugi No ho", "type": "restaurant", "image": null, "address": "10-12 Dogo Midoridai, Matsuyama 790-0847 Ehime Prefecture", "lat": 33.853714, "lng": 132.78085, "ref_id": 13028043, "rating": -1, "num_reviews": 0, "website": null, "contact_phone": "+81 89-924-5667", "contact_email": null, "status": 1, "source_type": 1, "numberReviews": 0}, {"name": "Takahiko", "type": "restaurant", "image": null, "address": "1-5-36 Kamogawa, Matsuyama 791-8004 Ehime Prefecture", "lat": 33.87255, "lng": 132.7541, "ref_id": 9638265, "rating": -1, "num_reviews": 0, "website": null, "contact_phone": "+81 89-922-2225", "contact_email": null, "status": 1, "source_type": 1, "numberReviews": 0}, {"name": "Yakitori Daian", "type": "restaurant", "image": null, "address": "851-1 Yamanishicho, Matsuyama 791-8026 Ehime Prefecture", "lat": 33.850628, "lng": 132.72198, "ref_id": 9628568, "rating": -1, "num_reviews": 0, "website": null, "contact_phone": "+81 89-953-1556", "contact_email": null, "status": 1, "source_type": 1, "numberReviews": 0}, {"name": "Sukiya Matsuyama Minami Edo", "type": "restaurant", "image": null, "address": "2-7-6 15-30 Minamiedo, Matsuyama 790-0062 Ehime Prefecture", "lat": 33.837128, "lng": 132.74818, "ref_id": 17840863, "rating": -1, "num_reviews": 0, "website": null, "contact_phone": "+81 120-498-007", "contact_email": null, "status": 1, "source_type": 1, "numberReviews": 0}, {"name": "Fujiwara", "type": "restaurant", "image": null, "address": "1783 Osaki Hachihamacho, Tamano Okayama Prefecture", "lat": 34.53325, "lng": 133.92941, "ref_id": 7517768, "rating": -1, "num_reviews": 0, "website": null, "contact_phone": "+81 863-51-2743", "contact_email": null, "status": 1, "source_type": 1, "numberReviews": 0}, {"name": "Provence Blue", "type": "restaurant", "image": null, "address": "32-9 Yashima Higashimachi, Takamatsu 761-0111 Kagawa Prefecture", "lat": 34.370102, "lng": 134.10756, "ref_id": 13038731, "rating": -1, "num_reviews": 0, "website": null, "contact_phone": "+81 87-843-8618", "contact_email": null, "status": 1, "source_type": 1, "numberReviews": 0}, {"name": "Ajiminato Bansho", "type": "restaurant", "image": null, "address": "6368-13 Ajicho, Takamatsu 761-0130 Kagawa Prefecture", "lat": 34.392532, "lng": 134.12361, "ref_id": 9662624, "rating": -1, "num_reviews": 0, "website": null, "contact_phone": "+81 87-871-2026", "contact_email": null, "status": 1, "source_type": 1, "numberReviews": 0}, {"name": "Nakamachi Shokudo", "type": "restaurant", "image": null, "address": "2584 Murotsu, Muroto 781-7102 Kochi Prefecture", "lat": 33.286964, "lng": 134.14944, "ref_id": 9623913, "rating": -1, "num_reviews": 0, "website": null, "contact_phone": "+81 887-22-1789", "contact_email": null, "status": 1, "source_type": 1, "numberReviews": 0}, {"name": "Charcoal-Grilled Meat Yamawaki", "type": "restaurant", "image": null, "address": "20 Ukitsu Sambancho, Muroto 781-7106 Kochi Prefecture", "lat": 33.293766, "lng": 134.14359, "ref_id": 13250068, "rating": -1, "num_reviews": 0, "website": null, "contact_phone": "+81 887-22-1313", "contact_email": null, "status": 1, "source_type": 1, "numberReviews": 0}, {"name": "Izakayayama No Sato", "type": "restaurant", "image": null, "address": "234-36 Ryoke, Muroto 781-7109 Kochi Prefecture", "lat": 33.289364, "lng": 134.15785, "ref_id": 13248352, "rating": -1, "num_reviews": 0, "website": null, "contact_phone": "+81 887-23-1881", "contact_email": null, "status": 1, "source_type": 1, "numberReviews": 0}, {"name": "Izumi Shokudo", "type": "restaurant", "image": null, "address": "2649-5 Murotsu, Muroto 781-7102 Kochi Prefecture", "lat": 33.287285, "lng": 134.14755, "ref_id": 9621103, "rating": -1, "num_reviews": 0, "website": null, "contact_phone": "+81 887-22-3272", "contact_email": null, "status": 1, "source_type": 1, "numberReviews": 0}, {"name": "Kozosushi Muroto", "type": "restaurant", "image": null, "address": "2436-1 Murotsu, Muroto 781-7102 Kochi Prefecture", "lat": 33.28797, "lng": 134.15099, "ref_id": 13249370, "rating": -1, "num_reviews": 0, "website": null, "contact_phone": "+81 120-200-699", "contact_email": null, "status": 1, "source_type": 1, "numberReviews": 0}, {"name": "Kashiwaya Kuidoraku", "type": "restaurant", "image": null, "address": "25 Ukitsu Ichibancho, Muroto 781-7104 Kochi Prefecture", "lat": 33.290634, "lng": 134.14651, "ref_id": 9656526, "rating": -1, "num_reviews": 0, "website": null, "contact_phone": "+81 887-22-0445", "contact_email": null, "status": 1, "source_type": 1, "numberReviews": 0}, {"name": "Reka", "type": "restaurant", "image": null, "address": "400 Ukitsu, Muroto Kochi Prefecture", "lat": 33.289993, "lng": 134.14851, "ref_id": 7536923, "rating": -1, "num_reviews": 0, "website": null, "contact_phone": "+81 887-22-0508", "contact_email": null, "status": 1, "source_type": 1, "numberReviews": 0}, {"name": "Mikado Shokudo", "type": "restaurant", "image": null, "address": "1597-25 Sakihamacho, Muroto 781-7220 Kochi Prefecture", "lat": 33.395584, "lng": 134.20813, "ref_id": 9644474, "rating": -1, "num_reviews": 0, "website": null, "contact_phone": "+81 887-27-2636", "contact_email": null, "status": 1, "source_type": 1, "numberReviews": 0}, {"name": "Izakaya Takohachi", "type": "restaurant", "image": null, "address": "2594-1 Murotsu, Muroto Kochi Prefecture", "lat": 33.28687, "lng": 134.14902, "ref_id": 7536915, "rating": -1, "num_reviews": 0, "website": null, "contact_phone": "+81 887-23-1668", "contact_email": null, "status": 1, "source_type": 1, "numberReviews": 0}, {"name": "Garaku", "type": "restaurant", "image": null, "address": "2523-1 Murotsu, Muroto 781-7102 Kochi Prefecture", "lat": 33.287518, "lng": 134.15004, "ref_id": 13247984, "rating": -1, "num_reviews": 0, "website": null, "contact_phone": "+81 887-22-1644", "contact_email": null, "status": 1, "source_type": 1, "numberReviews": 0}, {"name": "Shitamachi", "type": "restaurant", "image": null, "address": "523 Ukitsu, Muroto 781-7103 Kochi Prefecture", "lat": 33.28798, "lng": 134.1464, "ref_id": 9656525, "rating": -1, "num_reviews": 0, "website": null, "contact_phone": "+81 887-22-1812", "contact_email": null, "status": 1, "source_type": 1, "numberReviews": 0}, {"name": "Izakaya Mangetsu", "type": "restaurant", "image": null, "address": "807 Ukitsu, Muroto 781-7103 Kochi Prefecture", "lat": 33.290565, "lng": 134.14937, "ref_id": 9690155, "rating": -1, "num_reviews": 0, "website": null, "contact_phone": "+81 887-23-0288", "contact_email": null, "status": 1, "source_type": 1, "numberReviews": 0}, {"name": "Ikkyu", "type": "restaurant", "image": null, "address": "85-6 Ukitsu, Muroto 781-7103 Kochi Prefecture", "lat": 33.29016, "lng": 134.14954, "ref_id": 9623914, "rating": -1, "num_reviews": 0, "website": null, "contact_phone": "+81 887-22-0664", "contact_email": null, "status": 1, "source_type": 1, "numberReviews": 0}, {"name": "Yakitoritei", "type": "restaurant", "image": null, "address": "2192-1 Murotsu, Muroto 781-7102 Kochi Prefecture", "lat": 33.29228, "lng": 134.15546, "ref_id": 9623911, "rating": -1, "num_reviews": 0, "website": null, "contact_phone": "+81 887-23-1270", "contact_email": null, "status": 1, "source_type": 1, "numberReviews": 0}, {"name": "Dairyoya", "type": "restaurant", "image": null, "address": "2580-1 Murotsu, Muroto 781-7102 Kochi Prefecture", "lat": 33.28737, "lng": 134.14948, "ref_id": 9690153, "rating": -1, "num_reviews": 0, "website": null, "contact_phone": "+81 887-22-0210", "contact_email": null, "status": 1, "source_type": 1, "numberReviews": 0}, {"name": "Ikkuchi Dokoro Mogariai", "type": "restaurant", "image": null, "address": "559-1 Murotomisaki Cho, Muroto Kochi Prefecture", "lat": 33.32349, "lng": 134.19528, "ref_id": 7536919, "rating": -1, "num_reviews": 0, "website": null, "contact_phone": "+81 887-22-3538", "contact_email": null, "status": 1, "source_type": 1, "numberReviews": 0}, {"name": "Umizato", "type": "restaurant", "image": null, "address": "1194-3 Sakihamacho, Muroto 781-7220 Kochi Prefecture", "lat": 33.392128, "lng": 134.20988, "ref_id": 9621102, "rating": -1, "num_reviews": 0, "website": null, "contact_phone": "+81 887-27-2588", "contact_email": null, "status": 1, "source_type": 1, "numberReviews": 0}, {"name": "Kanro", "type": "restaurant", "image": null, "address": "582 Muroto Misakicho, Muroto 781-7101 Kochi Prefecture", "lat": 33.321083, "lng": 134.19383, "ref_id": 9621104, "rating": -1, "num_reviews": 0, "website": null, "contact_phone": "+81 887-23-3251", "contact_email": null, "status": 1, "source_type": 1, "numberReviews": 0}, {"name": "Cosmokun", "type": "restaurant", "image": null, "address": "1567-2 Muroto Misakicho, Muroto Kochi Prefecture", "lat": 33.305984, "lng": 134.19037, "ref_id": 7536972, "rating": -1, "num_reviews": 0, "website": null, "contact_phone": "+81 887-23-2185", "contact_email": null, "status": 1, "source_type": 1, "numberReviews": 0}, {"name": "Chikara", "type": "restaurant", "image": null, "address": "2614-8 Murotsu, Muroto 781-7102 Kochi Prefecture", "lat": 33.28749, "lng": 134.14886, "ref_id": 9690151, "rating": -1, "num_reviews": 0, "website": null, "contact_phone": "+81 887-23-1071", "contact_email": null, "status": 1, "source_type": 1, "numberReviews": 0}, {"name": "Oishinbo", "type": "restaurant", "image": null, "address": "435-1 Ukitsu, Muroto 781-7103 Kochi Prefecture", "lat": 33.289146, "lng": 134.14757, "ref_id": 9679317, "rating": -1, "num_reviews": 0, "website": null, "contact_phone": "+81 887-23-3002", "contact_email": null, "status": 1, "source_type": 1, "numberReviews": 0}, {"name": "Karaoke Box Harmony", "type": "restaurant", "image": null, "address": "6820-88 Murotomisakicho, Muroto 781-7101 Kochi Prefecture", "lat": 33.287582, "lng": 134.16643, "ref_id": 13253226, "rating": -1, "num_reviews": 0, "website": null, "contact_phone": "+81 887-22-0073", "contact_email": null, "status": 1, "source_type": 1, "numberReviews": 0}, {"name": "Sunachan", "type": "restaurant", "image": null, "address": "632-2 Nii, Tosa 781-1154 Kochi Prefecture", "lat": 33.45409, "lng": 133.4644, "ref_id": 15241961, "rating": -1, "num_reviews": 0, "website": null, "contact_phone": "+81 88-856-2022", "contact_email": null, "status": 1, "source_type": 1, "numberReviews": 0}, {"name": "Okonomiyaki Miyao", "type": "restaurant", "image": null, "address": "1685 USA Higashi Shimmachi, Usacho, Tosa 781-1161 Kochi Prefecture", "lat": 33.451733, "lng": 133.4414, "ref_id": 9656512, "rating": -1, "num_reviews": 0, "website": null, "contact_phone": "+81 88-856-0836", "contact_email": null, "status": 1, "source_type": 1, "numberReviews": 0}, {"name": "Jun", "type": "restaurant", "image": null, "address": "412-9 Kanda, Kochi 780-8040 Kochi Prefecture", "lat": 33.542618, "lng": 133.50925, "ref_id": 9650725, "rating": -1, "num_reviews": 0, "website": null, "contact_phone": "+81 88-831-6712", "contact_email": null, "status": 1, "source_type": 1, "numberReviews": 0}, {"name": "Shiosai", "type": "restaurant", "image": null, "address": "241 Nakasuka Kono, Matsuyama 799-2438 Ehime Prefecture", "lat": 33.94961, "lng": 132.7703, "ref_id": 9614898, "rating": -1, "num_reviews": 0, "website": null, "contact_phone": "+81 89-993-3636", "contact_email": null, "status": 1, "source_type": 1, "numberReviews": 0}, {"name": "Taiwanese Food Fukusei", "type": "restaurant", "image": null, "address": "5-5-10 Minami-Machi, Kanonji 768-0070 Kagawa Prefecture", "lat": 34.12221, "lng": 133.64552, "ref_id": 15237780, "rating": -1, "num_reviews": 0, "website": null, "contact_phone": "+81 875-25-6669", "contact_email": null, "status": 1, "source_type": 1, "numberReviews": 0}, {"name": "Yoshiya", "type": "restaurant", "image": null, "address": "3016 Kanonjicho, Kanonji Kagawa Prefecture", "lat": 34.127747, "lng": 133.65025, "ref_id": 7534768, "rating": -1, "num_reviews": 0, "website": null, "contact_phone": "+81 875-25-0048", "contact_email": null, "status": 1, "source_type": 1, "numberReviews": 0}, {"name": "Miyuki Shokudo", "type": "restaurant", "image": null, "address": "4061 Kanonjicho, Kanonji Kagawa Prefecture", "lat": 34.12699, "lng": 133.63841, "ref_id": 7534765, "rating": -1, "num_reviews": 0, "website": null, "contact_phone": "+81 875-25-3110", "contact_email": null, "status": 1, "source_type": 1, "numberReviews": 0}, {"name": "Resthouse Miki", "type": "restaurant", "image": null, "address": "1781-4 Minato, Higashikagawa 769-2701 Kagawa Prefecture", "lat": 34.244423, "lng": 134.35481, "ref_id": 4901961, "rating": -1, "num_reviews": 0, "website": null, "contact_phone": "+81 879-25-3773", "contact_email": null, "status": 1, "source_type": 1, "numberReviews": 0}, {"name": "Tsurumatsu Yakiniku Main Store", "type": "restaurant", "image": null, "address": "2-20-7 Tama, Tamano Okayama Prefecture", "lat": 34.48113, "lng": 133.93256, "ref_id": 7517828, "rating": -1, "num_reviews": 0, "website": null, "contact_phone": "+81 863-31-0878", "contact_email": null, "status": 1, "source_type": 1, "numberReviews": 0}, {"name": "Milk Parlor Pastry", "type": "restaurant", "image": null, "address": "1-12-23 Chikko, Tamano 706-0002 Okayama Prefecture", "lat": 34.494007, "lng": 133.95042, "ref_id": 13030564, "rating": -1, "num_reviews": 0, "website": null, "contact_phone": "+81 863-21-5560", "contact_email": null, "status": 1, "source_type": 1, "numberReviews": 0}, {"name": "Ehime Prefecture Unten Menkyo Center Shokudo", "type": "restaurant", "image": null, "address": "Ehime Prefecture Driver's License Center, 1163-7 Katsuoka Cho Ehime Prefecture Driver's License Center, Matsuyama 799-2661 Ehime Prefecture", "lat": 33.90286, "lng": 132.72249, "ref_id": 9614988, "rating": 4, "num_reviews": 0, "website": null, "contact_phone": "+81 89-978-4141", "contact_email": null, "status": 1, "source_type": 1, "numberReviews": 1}, {"name": "Tetchan", "type": "restaurant", "image": null, "address": "4-1503 Takahamamachi, Matsuyama 791-8081 Ehime Prefecture", "lat": 33.88693, "lng": 132.70226, "ref_id": 15243623, "rating": 4, "num_reviews": 0, "website": null, "contact_phone": "+81 89-952-6544", "contact_email": null, "status": 1, "source_type": 1, "numberReviews": 1}, {"name": "Ebisuya", "type": "restaurant", "image": null, "address": "Takahamacho 2-2255-4, Matsuyama 791-8081 Ehime Prefecture", "lat": 33.883537, "lng": 132.70158, "ref_id": 10655435, "rating": 4, "num_reviews": 0, "website": null, "contact_phone": "+81 89-951-7780", "contact_email": null, "status": 1, "source_type": 1, "numberReviews": 1}, {"name": "Misono", "type": "restaurant", "image": null, "address": "2-6-13 Sumiyoshi, Matsuyama 791-8062 Ehime Prefecture", "lat": 33.86368, "lng": 132.7151, "ref_id": 9690347, "rating": 4, "num_reviews": 0, "website": null, "contact_phone": "+81 89-952-5479", "contact_email": null, "status": 1, "source_type": 1, "numberReviews": 1}, {"name": "Shofutei", "type": "restaurant", "image": null, "address": "1-1387-3 Takahamamachi, Matsuyama 791-8081 Ehime Prefecture", "lat": 33.877407, "lng": 132.7041, "ref_id": 9614880, "rating": 4, "num_reviews": 0, "website": null, "contact_phone": "+81 89-951-1952", "contact_email": null, "status": 1, "source_type": 1, "numberReviews": 1}, {"name": "Itosan", "type": "restaurant", "image": null, "address": "2-8-33 Sumiyoshi, Matsuyama 791-8062 Ehime Prefecture", "lat": 33.864334, "lng": 132.71632, "ref_id": 9650195, "rating": 4, "num_reviews": 0, "website": null, "contact_phone": "+81 89-951-1743", "contact_email": null, "status": 1, "source_type": 1, "numberReviews": 1}, {"name": "Daruma Ramen", "type": "restaurant", "image": null, "address": "2-4-4 Sumiyoshi, Matsuyama 791-8062 Ehime Prefecture", "lat": 33.86395, "lng": 132.71535, "ref_id": 9638231, "rating": 4, "num_reviews": 0, "website": null, "contact_phone": "+81 89-951-5616", "contact_email": null, "status": 1, "source_type": 1, "numberReviews": 1}, {"name": "Jinambo Sushi", "type": "restaurant", "image": "https://dynamic-media-cdn.tripadvisor.com/media/photo-o/0f/2c/c7/6d/photo1jpg.jpg?w=1000&s=1", "address": "2-9-9 Sumiyoshi, Matsuyama Ehime Prefecture", "lat": 33.86416, "lng": 132.71428, "ref_id": 7449889, "rating": 3.5, "num_reviews": 0, "website": "http://jinanbouzushi.com/", "contact_phone": "+81 89-952-7240", "contact_email": null, "status": 1, "source_type": 1, "numberReviews": 2}, {"name": "Kyoya Dininig Room", "type": "restaurant", "image": null, "address": "92-17 Nishinoji Aza Higashiji, Minami-cho, Kaifu-gun 779-2103 Qu\u00e2\u0323n Tokushima", "lat": 33.774433, "lng": 134.59204, "ref_id": 13248552, "rating": -1, "num_reviews": 0, "website": null, "contact_phone": "+81 884-78-1700", "contact_email": null, "status": 1, "source_type": 1, "numberReviews": 0}, {"name": "Kojima Boat Jonai Shokudo Salvia", "type": "restaurant", "image": null, "address": "66 Kojima Motohamacho, Kurashiki Okayama Prefecture", "lat": 34.451237, "lng": 133.81006, "ref_id": 7412417, "rating": -1, "num_reviews": 0, "website": null, "contact_phone": "+81 86-474-3933", "contact_email": null, "status": 1, "source_type": 1, "numberReviews": 0}, {"name": "Niku no Yamaki Shoten Youmetown Takamatsu", "type": "restaurant", "image": null, "address": "608\u22121 Sanjomachi Youmetown Takamatsu East Bldg. 2F Food Court, Takamatsu 761-8072 Kagawa Prefecture", "lat": 34.31693, "lng": 134.04137, "ref_id": 18898871, "rating": 5, "num_reviews": 0, "website": null, "contact_phone": null, "contact_email": null, "status": 1, "source_type": 1, "numberReviews": 1}, {"name": "Joyful Sanjo", "type": "restaurant", "image": null, "address": "238-1 Sanjocho, Takamatsu 761-8072 Kagawa Prefecture", "lat": 34.313057, "lng": 134.04552, "ref_id": 9650520, "rating": 5, "num_reviews": 0, "website": null, "contact_phone": "+81 87-864-5355", "contact_email": null, "status": 1, "source_type": 1, "numberReviews": 1}, {"name": "Izakaya Utadokoro Izumi", "type": "restaurant", "image": null, "address": "1005-1 Minatoura, Ikata-cho, Nishiuwa-gun Ehime Prefecture", "lat": 33.489147, "lng": 132.35403, "ref_id": 7482659, "rating": -1, "num_reviews": 0, "website": null, "contact_phone": "+81 894-38-2899", "contact_email": null, "status": 1, "source_type": 1, "numberReviews": 0}, {"name": "Ichiroku Hompo Yawatahama Store", "type": "restaurant", "image": null, "address": "1388-3, Yawatahama 796-0088 Ehime Prefecture", "lat": 33.45699, "lng": 132.42625, "ref_id": 13027798, "rating": -1, "num_reviews": 0, "website": null, "contact_phone": "+81 894-29-1016", "contact_email": null, "status": 1, "source_type": 1, "numberReviews": 0}, {"name": "Shiraishi Shokudo", "type": "restaurant", "image": "https://dynamic-media-cdn.tripadvisor.com/media/photo-o/11/5c/75/c8/caption.jpg?w=1000&s=1", "address": "2-103-3 Kiki Honaicho, Yawatahama Ehime Prefecture", "lat": 33.4861, "lng": 132.41069, "ref_id": 7546812, "rating": -1, "num_reviews": 0, "website": null, "contact_phone": "+81 894-36-0664", "contact_email": null, "status": 1, "source_type": 1, "numberReviews": 0}, {"name": "Joyfull", "type": "restaurant", "image": null, "address": "1019-1 Aza Hinokidani, Yawatahama Ehime Prefecture", "lat": 33.45995, "lng": 132.43669, "ref_id": 7631872, "rating": -1, "num_reviews": 0, "website": null, "contact_phone": "+81 894-29-1800", "contact_email": null, "status": 1, "source_type": 1, "numberReviews": 0}, {"name": "Tsurube Sushi", "type": "restaurant", "image": null, "address": "42020, Yawatahama 796-0088 Ehime Prefecture", "lat": 33.45754, "lng": 132.42487, "ref_id": 9643623, "rating": -1, "num_reviews": 0, "website": null, "contact_phone": "+81 894-22-0807", "contact_email": null, "status": 1, "source_type": 1, "numberReviews": 0}, {"name": "Magic Eggs", "type": "restaurant", "image": null, "address": "246-1 Nakamura, Ozu 795-0054 Ehime Prefecture", "lat": 33.516144, "lng": 132.54497, "ref_id": 13269969, "rating": -1, "num_reviews": 0, "website": null, "contact_phone": "+81 893-24-1103", "contact_email": null, "status": 1, "source_type": 1, "numberReviews": 0}, {"name": "Kochan Shokudo", "type": "restaurant", "image": null, "address": "1-251-1 Miyauchi, Honaicho, Yawatahama 796-0202 Ehime Prefecture", "lat": 33.483906, "lng": 132.40012, "ref_id": 9655652, "rating": -1, "num_reviews": 0, "website": null, "contact_phone": "+81 894-36-2422", "contact_email": null, "status": 1, "source_type": 1, "numberReviews": 0}, {"name": "Pesca", "type": "restaurant", "image": null, "address": "238-1 Nakamura, Ozu Ehime Prefecture", "lat": 33.517155, "lng": 132.54558, "ref_id": 7546204, "rating": -1, "num_reviews": 0, "website": null, "contact_phone": "+81 893-24-1273", "contact_email": null, "status": 1, "source_type": 1, "numberReviews": 0}, {"name": "Henkotsuen", "type": "restaurant", "image": null, "address": "2310-61 Miyanoura, Naoshima-cho, Kagawa-gun 761-3110 Kagawa Prefecture", "lat": 34.45971, "lng": 133.97417, "ref_id": 10009874, "rating": 4, "num_reviews": 0, "website": null, "contact_phone": "+81 87-892-3025", "contact_email": null, "status": 1, "source_type": 1, "numberReviews": 1}, {"name": "Iwasho", "type": "restaurant", "image": null, "address": "2980-33 Kori Minami-Ku, Okayama Okayama Prefecture", "lat": 34.580566, "lng": 133.95795, "ref_id": 7413172, "rating": 4, "num_reviews": 0, "website": null, "contact_phone": "+81 86-267-2989", "contact_email": null, "status": 1, "source_type": 1, "numberReviews": 1}, {"name": "Sunset", "type": "restaurant", "image": null, "address": "2-12-1 Shibukawa, Tamano 706-0028 Okayama Prefecture", "lat": 34.455997, "lng": 133.90303, "ref_id": 4899281, "rating": 4, "num_reviews": 0, "website": "http://www.marine-hotel.co.jp/rest/list/", "contact_phone": "+81 863-81-2111", "contact_email": null, "status": 1, "source_type": 1, "numberReviews": 1}, {"name": "Sanoya Shokudo", "type": "restaurant", "image": "https://dynamic-media-cdn.tripadvisor.com/media/photo-o/0d/f4/8b/e1/caption.jpg?w=1000&s=1", "address": "231 Nagahama Ko, Ozu Ehime Prefecture", "lat": 33.61178, "lng": 132.48123, "ref_id": 7546179, "rating": -1, "num_reviews": 0, "website": null, "contact_phone": "+81 893-52-0037", "contact_email": null, "status": 1, "source_type": 1, "numberReviews": 0}, {"name": "Yonedakashiho", "type": "restaurant", "image": null, "address": "757-5 Nagahamako, Ozu Ehime Prefecture", "lat": 33.614086, "lng": 132.48447, "ref_id": 1697745, "rating": -1, "num_reviews": 0, "website": null, "contact_phone": "+81 893-52-2713", "contact_email": "", "status": 1, "source_type": 1, "numberReviews": 0}, {"name": "Yoidokoro Hideya", "type": "restaurant", "image": null, "address": "2097-3 Henai, Hiratacho, Sukumo 788-0783 Kochi Prefecture", "lat": 32.966278, "lng": 132.80823, "ref_id": 9679300, "rating": -1, "num_reviews": 0, "website": null, "contact_phone": "+81 880-66-1905", "contact_email": null, "status": 1, "source_type": 1, "numberReviews": 0}, {"name": "Aozoraya Doburoku", "type": "restaurant", "image": null, "address": "1201 Kaminagatani, Mihara-mura, Hata-gun Kochi Prefecture", "lat": 32.926365, "lng": 132.86705, "ref_id": 7482928, "rating": -1, "num_reviews": 0, "website": null, "contact_phone": "+81 880-46-2830", "contact_email": null, "status": 1, "source_type": 1, "numberReviews": 0}, {"name": "Residents Dininig Room", "type": "restaurant", "image": null, "address": "3-1 Yamanachoyoshina, Sukumo 788-0785 Kochi Prefecture", "lat": 32.96671, "lng": 132.80551, "ref_id": 13241913, "rating": -1, "num_reviews": 0, "website": null, "contact_phone": "+81 880-62-2022", "contact_email": null, "status": 1, "source_type": 1, "numberReviews": 0}, {"name": "Isobe Shokudo", "type": "restaurant", "image": null, "address": "1985 Johen Ko, Ainan-cho, Minamiuwa-gun 798-4131 Ehime Prefecture", "lat": 32.95971, "lng": 132.58096, "ref_id": 10007740, "rating": -1, "num_reviews": 0, "website": null, "contact_phone": "+81 895-72-0183", "contact_email": null, "status": 1, "source_type": 1, "numberReviews": 0}, {"name": "Okonomiyaki Goto", "type": "restaurant", "image": null, "address": "24 Renjoji, Ainan-cho, Minamiuwa-gun 798-4341 Ehime Prefecture", "lat": 32.95717, "lng": 132.58424, "ref_id": 14737500, "rating": -1, "num_reviews": 0, "website": null, "contact_phone": "+81 895-72-1574", "contact_email": null, "status": 1, "source_type": 1, "numberReviews": 0}, {"name": "Iseya", "type": "restaurant", "image": null, "address": "2683-2 Johenko Isemachi, Ainan-cho, Minamiuwa-gun 798-4131 Ehime Prefecture", "lat": 32.96078, "lng": 132.5844, "ref_id": 10011086, "rating": -1, "num_reviews": 0, "website": null, "contact_phone": "+81 895-72-5229", "contact_email": null, "status": 1, "source_type": 1, "numberReviews": 0}, {"name": "Aikawa", "type": "restaurant", "image": null, "address": "2009 Yanomachi Johenko, Ainan-cho, Minamiuwa-gun Ehime Prefecture", "lat": 32.959015, "lng": 132.58226, "ref_id": 7482697, "rating": -1, "num_reviews": 0, "website": null, "contact_phone": "+81 895-72-2133", "contact_email": null, "status": 1, "source_type": 1, "numberReviews": 0}, {"name": "Pan No Ki", "type": "restaurant", "image": null, "address": "3954-5 Mishohirajo, Ainan-cho, Minamiuwa-gun 798-4110 Ehime Prefecture", "lat": 32.960224, "lng": 132.55829, "ref_id": 13028127, "rating": -1, "num_reviews": 0, "website": null, "contact_phone": "+81 895-72-7256", "contact_email": null, "status": 1, "source_type": 1, "numberReviews": 0}, {"name": "Romanza", "type": "restaurant", "image": null, "address": "1-10-5 Otesuji Hunp Bldg. 1F, Kochi 780-0842 Kochi Prefecture", "lat": 33.561855, "lng": 133.53847, "ref_id": 9615285, "rating": -1, "num_reviews": 0, "website": null, "contact_phone": "+81 88-824-9247", "contact_email": null, "status": 1, "source_type": 1, "numberReviews": 0}, {"name": "Maika", "type": "restaurant", "image": null, "address": "2505-2 Nishibunko, Geisei-mura, Aki-gun 781-5703 Kochi Prefecture", "lat": 33.543938, "lng": 133.7955, "ref_id": 14737176, "rating": -1, "num_reviews": 0, "website": null, "contact_phone": "+81 887-33-3681", "contact_email": null, "status": 1, "source_type": 1, "numberReviews": 0}, {"name": "Okubo", "type": "restaurant", "image": null, "address": "3-2-12 Harimayacho Hashimoto Building 1F, Kochi 780-0822 Kochi Prefecture", "lat": 33.56358, "lng": 133.54303, "ref_id": 14737106, "rating": -1, "num_reviews": 0, "website": null, "contact_phone": "+81 88-802-5955", "contact_email": null, "status": 1, "source_type": 1, "numberReviews": 0}, {"name": "Gyosai Kirari", "type": "restaurant", "image": "https://dynamic-media-cdn.tripadvisor.com/media/photo-o/04/a0/57/bc/gyosai-kirari.jpg?w=1000&s=1", "address": "15-12 Shiotacho, Kochi 780-0065 Kochi Prefecture", "lat": 33.57185, "lng": 133.5451, "ref_id": 4903395, "rating": -1, "num_reviews": 0, "website": null, "contact_phone": "+81 88-821-2267", "contact_email": null, "status": 1, "source_type": 1, "numberReviews": 0}, {"name": "Stand Jo", "type": "restaurant", "image": null, "address": "1-3-1 Otesuji, Kochi 780-0842 Kochi Prefecture", "lat": 33.562347, "lng": 133.5423, "ref_id": 14737124, "rating": -1, "num_reviews": 0, "website": null, "contact_phone": "+81 88-872-6650", "contact_email": null, "status": 1, "source_type": 1, "numberReviews": 0}, {"name": "Restaurant Southern Cross", "type": "restaurant", "image": null, "address": "4525 Wajikiko, Geisei-mura, Aki-gun Kochi Prefecture", "lat": 33.529175, "lng": 133.81837, "ref_id": 7482728, "rating": -1, "num_reviews": 0, "website": null, "contact_phone": "+81 887-33-4410", "contact_email": null, "status": 1, "source_type": 1, "numberReviews": 0}, {"name": "Dining Bar Circle", "type": "restaurant", "image": null, "address": "7-22 Nijudai-Machi, Kochi Kochi Prefecture", "lat": 33.563072, "lng": 133.53963, "ref_id": 7450463, "rating": -1, "num_reviews": 0, "website": null, "contact_phone": "+81 88-873-1555", "contact_email": null, "status": 1, "source_type": 1, "numberReviews": 0}, {"name": "Ryo No Ie", "type": "restaurant", "image": null, "address": "2-8-4 Harimayacho, Kochi 780-0822 Kochi Prefecture", "lat": 33.56188, "lng": 133.54465, "ref_id": 9673660, "rating": -1, "num_reviews": 0, "website": null, "contact_phone": "+81 88-884-1156", "contact_email": null, "status": 1, "source_type": 1, "numberReviews": 0}, {"name": "Karaoke Cafe Ikkyu", "type": "restaurant", "image": null, "address": "596 Yasu-Cho Tsuboi, Konan 781-5601 Kochi Prefecture", "lat": 33.53739, "lng": 133.74797, "ref_id": 14737179, "rating": -1, "num_reviews": 0, "website": null, "contact_phone": "+81 887-54-1830", "contact_email": null, "status": 1, "source_type": 1, "numberReviews": 0}, {"name": "Yurakushubou Tsukiusa", "type": "restaurant", "image": null, "address": "20 Konyamachi Awaya Bldg. 1F, Tokushima 770-0918 Qu\u00e2\u0323n Tokushima", "lat": null, "lng": null, "ref_id": 21213436, "rating": -1, "num_reviews": 0, "website": "https://www.instagram.com/tsukiusa_yuraku/", "contact_phone": "+81 88-661-4704", "contact_email": null, "status": 1, "source_type": 1, "numberReviews": 0}, {"name": "Senyuji Shukubo", "type": "restaurant", "image": "https://dynamic-media-cdn.tripadvisor.com/media/photo-o/0e/8d/cd/a0/photo2jpg.jpg?w=1000&s=1", "address": "483 Besshoko Tamagawacho, Imabari Ehime Prefecture", "lat": 34.013203, "lng": 132.97739, "ref_id": 7546535, "rating": 5, "num_reviews": 0, "website": null, "contact_phone": "+81 898-55-2141", "contact_email": null, "status": 1, "source_type": 1, "numberReviews": 2}, {"name": "Karibu", "type": "restaurant", "image": null, "address": "5732 Iguchi Kamiuracho, Imabari Ehime Prefecture", "lat": 34.265472, "lng": 133.04184, "ref_id": 7546659, "rating": 5, "num_reviews": 0, "website": "http://www.o-karibu.com", "contact_phone": "+81 897-87-2874", "contact_email": null, "status": 1, "source_type": 1, "numberReviews": 1}, {"name": "Hanamaru Udon Aeon Mall Imabari New City", "type": "restaurant", "image": "https://dynamic-media-cdn.tripadvisor.com/media/photo-o/12/ff/d1/ce/photo0jpg.jpg?w=1000&s=1", "address": "1-1 Nigiwai Hiroba, Imabari 794-0068 Ehime Prefecture", "lat": 34.043766, "lng": 132.96225, "ref_id": 13086137, "rating": 4, "num_reviews": 0, "website": "https://www.hanamaruudon.com/shop/detail_415.html", "contact_phone": "+81 898-23-0870", "contact_email": null, "status": 1, "source_type": 1, "numberReviews": 3}, {"name": "Eho", "type": "restaurant", "image": "https://dynamic-media-cdn.tripadvisor.com/media/photo-o/0c/84/ab/b8/caption.jpg?w=1000&s=1", "address": "4-4-18 Tokiwacho, Imabari Ehime Prefecture", "lat": 34.064636, "lng": 132.99762, "ref_id": 7546635, "rating": 4.5, "num_reviews": 0, "website": null, "contact_phone": "+81 898-23-8177", "contact_email": null, "status": 1, "source_type": 1, "numberReviews": 2}, {"name": "Hakuryu", "type": "restaurant", "image": "https://dynamic-media-cdn.tripadvisor.com/media/photo-o/1d/51/e0/e7/2007.jpg?w=1000&s=1", "address": "1-1-15 Gohoncho, Imabari 794-0823 Ehime Prefecture", "lat": 34.04711, "lng": 132.99458, "ref_id": 23487696, "rating": 5, "num_reviews": 0, "website": null, "contact_phone": "+81 898-32-8797", "contact_email": null, "status": 1, "source_type": 1, "numberReviews": 1}, {"name": "Rihoen", "type": "restaurant", "image": "https://dynamic-media-cdn.tripadvisor.com/media/photo-o/12/e9/7a/21/rihoen.jpg?w=1000&s=1", "address": "4-5-17 Nakahori, Imabari Ehime Prefecture", "lat": 34.100285, "lng": 132.95667, "ref_id": 7546558, "rating": 4.5, "num_reviews": 0, "website": null, "contact_phone": "+81 898-41-8599", "contact_email": null, "status": 1, "source_type": 1, "numberReviews": 2}, {"name": "Iyo No Torihime", "type": "restaurant", "image": "https://dynamic-media-cdn.tripadvisor.com/media/photo-o/11/e7/fe/95/caption.jpg?w=1000&s=1", "address": "1-1 Nigiwai Hiroba, Imabari 794-0068 Ehime Prefecture", "lat": 34.043743, "lng": 132.96236, "ref_id": 13027829, "rating": 4.5, "num_reviews": 0, "website": null, "contact_phone": "+81 898-55-8204", "contact_email": null, "status": 1, "source_type": 1, "numberReviews": 2}, {"name": "Sanuki Udon Tsurubee", "type": "restaurant", "image": "https://dynamic-media-cdn.tripadvisor.com/media/photo-o/12/cf/3d/80/dsc-0150-largejpg.jpg?w=1000&s=1", "address": "1-14-2 Higashi Mura World Plaza 1F, Imabari 799-1506 Ehime Prefecture", "lat": 34.041866, "lng": 133.02698, "ref_id": 13953599, "rating": 4, "num_reviews": 0, "website": "http://sanukiudontsurubee.hp.gogo.jp/pc/index.html", "contact_phone": "+81 898-47-2265", "contact_email": null, "status": 1, "source_type": 1, "numberReviews": 3}, {"name": "Iso Kairaku", "type": "restaurant", "image": "https://dynamic-media-cdn.tripadvisor.com/media/photo-o/17/f0/d5/c9/caption.jpg?w=1000&s=1", "address": "1-6-15 Minami Daimoncho, Imabari Ehime Prefecture", "lat": 34.065662, "lng": 132.996, "ref_id": 7546669, "rating": 4, "num_reviews": 0, "website": null, "contact_phone": "+81 898-22-5656", "contact_email": null, "status": 1, "source_type": 1, "numberReviews": 3}, {"name": "Kontextowel Garden", "type": "restaurant", "image": "https://dynamic-media-cdn.tripadvisor.com/media/photo-o/14/f6/d9/ce/caption.jpg?w=1000&s=1", "address": "854-1 Takuma, Imabari Ehime Prefecture", "lat": 34.072224, "lng": 132.94644, "ref_id": 7546362, "rating": 4.5, "num_reviews": 0, "website": null, "contact_phone": "+81 898-23-3933", "contact_email": null, "status": 1, "source_type": 1, "numberReviews": 2}, {"name": "Shunsai Imamura", "type": "restaurant", "image": "https://dynamic-media-cdn.tripadvisor.com/media/photo-o/0c/72/0e/81/photo0jpg.jpg?w=1000&s=1", "address": "2-3-14 Kyoeicho, Imabari 794-0024 Ehime Prefecture", "lat": 34.068558, "lng": 133.00008, "ref_id": 4669386, "rating": 4.5, "num_reviews": 0, "website": null, "contact_phone": "+81 898-32-2910", "contact_email": null, "status": 1, "source_type": 1, "numberReviews": 3}, {"name": "Shishikotsu Ramen", "type": "restaurant", "image": "https://dynamic-media-cdn.tripadvisor.com/media/photo-o/1a/96/9f/9e/photo0jpg.jpg?w=1000&s=1", "address": "5516 Miyaura, Imabari 794-1304 Ehime Prefecture", "lat": 34.248833, "lng": 133.00299, "ref_id": 15777098, "rating": 3.5, "num_reviews": 0, "website": "http://www.shishikotsu.com", "contact_phone": "+81 897-72-8780", "contact_email": "shishikotsu@gmail.com", "status": 1, "source_type": 1, "numberReviews": 3}, {"name": "McDonald's Aeon Imabari", "type": "restaurant", "image": "https://dynamic-media-cdn.tripadvisor.com/media/photo-o/09/9d/92/a9/mcdonald-s-aeon-imabari.jpg?w=1000&s=1", "address": "4-8-1 Umagoecho, Imabari 794-0062 Ehime Prefecture", "lat": 34.05619, "lng": 132.97978, "ref_id": 5892225, "rating": 3.5, "num_reviews": 0, "website": "http://map.mcdonalds.co.jp/map/38522", "contact_phone": "+81 898-33-9530", "contact_email": null, "status": 1, "source_type": 1, "numberReviews": 6}, {"name": "Wang Fu Jing", "type": "restaurant", "image": "https://dynamic-media-cdn.tripadvisor.com/media/photo-o/07/ff/8d/71/caption.jpg?w=1000&s=1", "address": "2930 Asakurakamiko, Imabari 799-1607 Ehime Prefecture", "lat": 33.96914, "lng": 133.03262, "ref_id": 6453443, "rating": 3.5, "num_reviews": 0, "website": "", "contact_phone": "+81 898-56-1517", "contact_email": null, "status": 1, "source_type": 1, "numberReviews": 7}, {"name": "Yakiniku no Kura, Imabari", "type": "restaurant", "image": "https://dynamic-media-cdn.tripadvisor.com/media/photo-o/11/8e/cf/ae/caption.jpg?w=1000&s=1", "address": "4-493-1 Minamitoriucho Beside Lady Drug Store Kusuri no Lady Minamitoriu West Side, Imabari 794-0802 Ehime Prefecture", "lat": 34.05024, "lng": 133.00719, "ref_id": 12278860, "rating": 4, "num_reviews": 0, "website": null, "contact_phone": "+81 898-52-8929", "contact_email": null, "status": 1, "source_type": 1, "numberReviews": 4}, {"name": "Kottondoru", "type": "restaurant", "image": null, "address": "242-28 Kamitoku, Imabari Ehime Prefecture", "lat": 34.040066, "lng": 133.01456, "ref_id": 1698324, "rating": 4.5, "num_reviews": 0, "website": null, "contact_phone": "+81 898-47-3325", "contact_email": "", "status": 1, "source_type": 1, "numberReviews": 3}, {"name": "Jungawa Seseragi Koryukan Snack Corner", "type": "restaurant", "image": "https://dynamic-media-cdn.tripadvisor.com/media/photo-o/09/2c/5f/73/caption.jpg?w=1000&s=1", "address": "218-1 Nibukawa-Ko Tamagawacho, Imabari Ehime Prefecture", "lat": 33.984764, "lng": 132.94035, "ref_id": 7546704, "rating": 4, "num_reviews": 0, "website": null, "contact_phone": "+81 898-55-4477", "contact_email": null, "status": 1, "source_type": 1, "numberReviews": 3}, {"name": "Ichimishin", "type": "restaurant", "image": null, "address": "2-229-1 Kanebacho, Imabari Ehime Prefecture", "lat": 34.08526, "lng": 132.98863, "ref_id": 7546523, "rating": 4.5, "num_reviews": 0, "website": null, "contact_phone": "+81 898-25-3939", "contact_email": null, "status": 1, "source_type": 1, "numberReviews": 2}, {"name": "Roadside Station Imabari Yunoura Hot Spring", "type": "restaurant", "image": "https://dynamic-media-cdn.tripadvisor.com/media/photo-o/07/71/41/02/caption.jpg?w=1000&s=1", "address": "252-2 Nagasawa Michinoeki Imabari Yunouraonsen, Imabari 799-1527 Ehime Prefecture", "lat": 33.99281, "lng": 133.0484, "ref_id": 4668842, "rating": 3.5, "num_reviews": 0, "website": "http://www.oideya.gr.jp/spot/area_imabari/sightseeing/michinoekiyunoura.htm", "contact_phone": "+81 898-47-0990", "contact_email": null, "status": 1, "source_type": 1, "numberReviews": 8}, {"name": "Okonomiyaki Sakura", "type": "restaurant", "image": "https://dynamic-media-cdn.tripadvisor.com/media/photo-o/1b/07/b0/f4/caption.jpg?w=1000&s=1", "address": "669-3 Hakatacho Ikata Ko, Imabari Ehime Prefecture", "lat": 34.227856, "lng": 133.07538, "ref_id": 7546329, "rating": 5, "num_reviews": 0, "website": null, "contact_phone": "+81 897-73-0012", "contact_email": null, "status": 1, "source_type": 1, "numberReviews": 1}, {"name": "Okonomiyaki Fu", "type": "restaurant", "image": "https://dynamic-media-cdn.tripadvisor.com/media/photo-o/07/a0/54/3e/caption.jpg?w=1000&s=1", "address": "1667-5 Hakatacho Kanoura, Imabari 794-2302 Ehime Prefecture", "lat": 34.207886, "lng": 133.07924, "ref_id": 7808020, "rating": 4.5, "num_reviews": 0, "website": null, "contact_phone": "+81 897-74-0053", "contact_email": null, "status": 1, "source_type": 1, "numberReviews": 2}, {"name": "Shinshusoba Kubota", "type": "restaurant", "image": "https://dynamic-media-cdn.tripadvisor.com/media/photo-o/1a/96/86/1d/caption.jpg?w=1000&s=1", "address": "163-9 Machiyako, Imabari Ehime Prefecture", "lat": 34.02665, "lng": 133.00667, "ref_id": 7546540, "rating": 5, "num_reviews": 0, "website": null, "contact_phone": "+81 898-47-3787", "contact_email": null, "status": 1, "source_type": 1, "numberReviews": 1}, {"name": "Setouchichaya Omishima", "type": "restaurant", "image": "https://dynamic-media-cdn.tripadvisor.com/media/photo-o/08/37/05/6e/caption.jpg?w=1000&s=1", "address": "5119-2 Omishimacho Miyaura, Imabari 794-1304 Ehime Prefecture", "lat": 34.247833, "lng": 133.00296, "ref_id": 4665239, "rating": 3, "num_reviews": 0, "website": "http://suigun.co.jp/setouchi/", "contact_phone": "+81 897-82-0195", "contact_email": null, "status": 1, "source_type": 1, "numberReviews": 21}, {"name": "Izakaya Nagatsuki", "type": "restaurant", "image": "https://dynamic-media-cdn.tripadvisor.com/media/photo-o/1a/76/f2/ff/dsc-1635-largejpg.jpg?w=1000&s=1", "address": "2-5-17 Matsumotocho, Imabari 794-0041 Ehime Prefecture", "lat": 34.062847, "lng": 133.00221, "ref_id": 13027833, "rating": 5, "num_reviews": 0, "website": null, "contact_phone": "+81 898-55-8508", "contact_email": null, "status": 1, "source_type": 1, "numberReviews": 1}, {"name": "Paysan", "type": "restaurant", "image": "https://dynamic-media-cdn.tripadvisor.com/media/photo-o/0a/7b/da/30/photo4jpg.jpg?w=1000&s=1", "address": "477 Yoshiumicho Honjo, Imabari Ehime Prefecture", "lat": 34.156345, "lng": 133.02907, "ref_id": 7633849, "rating": 4, "num_reviews": 0, "website": null, "contact_phone": "+81 897-84-4016", "contact_email": null, "status": 1, "source_type": 1, "numberReviews": 4}, {"name": "Kaikyo Dining 3373", "type": "restaurant", "image": null, "address": "2-6-37 Minatocho, Imabari Ehime Prefecture", "lat": 34.09288, "lng": 132.98953, "ref_id": 1692045, "rating": 4, "num_reviews": 0, "website": "http://www.iyosuigun.co.jp/3373/", "contact_phone": "+81 898-32-3373", "contact_email": "", "status": 1, "source_type": 1, "numberReviews": 4}, {"name": "Kaon", "type": "restaurant", "image": "https://dynamic-media-cdn.tripadvisor.com/media/photo-o/0d/a0/2a/59/caption.jpg?w=1000&s=1", "address": "2-3-35 Umagoecho, Imabari Ehime Prefecture", "lat": 34.05846, "lng": 132.98277, "ref_id": 1696296, "rating": 4, "num_reviews": 0, "website": "http://www.glip.co.jp/htm/small/ctg/shop/imabari.shtml", "contact_phone": "+81 898-33-7337", "contact_email": "", "status": 1, "source_type": 1, "numberReviews": 3}, {"name": "Organic Guest House & Cafe Ohana", "type": "restaurant", "image": "https://dynamic-media-cdn.tripadvisor.com/media/photo-o/0e/6e/54/a5/cafe.jpg?w=1000&s=1", "address": "5341 Oomishimacho Miyaura, Imabari 794-1304 Ehime Prefecture", "lat": 34.247307, "lng": 132.99876, "ref_id": 11624593, "rating": 5, "num_reviews": 0, "website": "http://ohanaguesthouse.net", "contact_phone": "+81 897-82-0023", "contact_email": null, "status": 1, "source_type": 1, "numberReviews": 1}, {"name": "Freshly Baked Bread Workshop Pao Guitars", "type": "restaurant", "image": "https://dynamic-media-cdn.tripadvisor.com/media/photo-o/15/19/78/b0/photo1jpg.jpg?w=1000&s=1", "address": "539-1 Takahashi Ko, Imabari 794-0066 Ehime Prefecture", "lat": 34.034115, "lng": 132.96696, "ref_id": 13027640, "rating": 3.5, "num_reviews": 0, "website": null, "contact_phone": "+81 898-31-0018", "contact_email": null, "status": 1, "source_type": 1, "numberReviews": 3}, {"name": "Umakoshi", "type": "restaurant", "image": null, "address": "71-3 Tokushige, Imabari 794-0863 Ehime Prefecture", "lat": 34.033665, "lng": 132.98805, "ref_id": 7546316, "rating": 5, "num_reviews": 0, "website": null, "contact_phone": "+81 898-32-6045", "contact_email": null, "status": 1, "source_type": 1, "numberReviews": 1}, {"name": "Sei", "type": "restaurant", "image": null, "address": "9-35 Izumiikecho, Niihama 792-0013 Ehime Prefecture", "lat": 33.967014, "lng": 133.27623, "ref_id": 14966276, "rating": 4, "num_reviews": 0, "website": null, "contact_phone": "+81 897-66-9797", "contact_email": null, "status": 1, "source_type": 1, "numberReviews": 1}, {"name": "Boulanger Rifukusuke", "type": "restaurant", "image": "https://dynamic-media-cdn.tripadvisor.com/media/photo-o/17/a5/f5/5b/photo0jpg.jpg?w=1000&s=1", "address": "1-3-7 Go, Niihama 792-0886 Ehime Prefecture", "lat": 33.965595, "lng": 133.30614, "ref_id": 13027534, "rating": 4, "num_reviews": 0, "website": null, "contact_phone": "+81 897-47-5510", "contact_email": null, "status": 1, "source_type": 1, "numberReviews": 1}, {"name": "Shinonome", "type": "restaurant", "image": "https://dynamic-media-cdn.tripadvisor.com/media/photo-o/14/65/90/2d/caption.jpg?w=1000&s=1", "address": "22-20 Arayashiki Otsu Komatsucho Ishizuchisan Service Area Inbound, Saijo 799-1101 Ehime Prefecture", "lat": 33.885956, "lng": 133.11024, "ref_id": 9620312, "rating": 3.5, "num_reviews": 0, "website": null, "contact_phone": "+81 898-72-6500", "contact_email": null, "status": 1, "source_type": 1, "numberReviews": 2}, {"name": "Kadoya Shokudo", "type": "restaurant", "image": "https://dynamic-media-cdn.tripadvisor.com/media/photo-o/0d/c7/aa/3e/caption.jpg?w=1000&s=1", "address": "66-2 Nyugawa, Saijo Ehime Prefecture", "lat": 33.935127, "lng": 133.08522, "ref_id": 7545926, "rating": 4, "num_reviews": 0, "website": null, "contact_phone": "+81 898-64-2360", "contact_email": null, "status": 1, "source_type": 1, "numberReviews": 1}, {"name": "Kaitoku", "type": "restaurant", "image": "https://dynamic-media-cdn.tripadvisor.com/media/photo-o/17/3c/56/37/photo0jpg.jpg?w=1000&s=1", "address": "4-43 Tokutsunecho, Niihama Ehime Prefecture", "lat": 33.96394, "lng": 133.2813, "ref_id": 7545523, "rating": 4, "num_reviews": 0, "website": null, "contact_phone": "+81 897-34-6200", "contact_email": null, "status": 1, "source_type": 1, "numberReviews": 1}, {"name": "Hamacho", "type": "restaurant", "image": null, "address": "1-3-27 Nakasukacho, Niihama Ehime Prefecture", "lat": 33.96352, "lng": 133.27293, "ref_id": 7545518, "rating": 4, "num_reviews": 0, "website": null, "contact_phone": "+81 897-33-2810", "contact_email": null, "status": 1, "source_type": 1, "numberReviews": 1}, {"name": "Morinokaze", "type": "restaurant", "image": "https://dynamic-media-cdn.tripadvisor.com/media/photo-o/17/eb/40/38/photo1jpg.jpg?w=1000&s=1", "address": "707-3 Tatsukawacho, Niihama 792-0846 Ehime Prefecture", "lat": 33.90189, "lng": 133.30984, "ref_id": 7296811, "rating": 3, "num_reviews": 0, "website": "http://besshi.com/restaurant", "contact_phone": "+81 897-43-1801", "contact_email": null, "status": 1, "source_type": 1, "numberReviews": 8}, {"name": "Mansaku", "type": "restaurant", "image": null, "address": "1-1-23 Ichinomiya-Machi, Niihama Ehime Prefecture", "lat": 33.9608, "lng": 133.28075, "ref_id": 7545563, "rating": 4, "num_reviews": 0, "website": null, "contact_phone": "+81 897-33-1111", "contact_email": null, "status": 1, "source_type": 1, "numberReviews": 1}, {"name": "Anemone", "type": "restaurant", "image": null, "address": "3-2-14 Kubotacho, Niihama 792-0026 Ehime Prefecture", "lat": 33.95538, "lng": 133.28577, "ref_id": 15563029, "rating": 4, "num_reviews": 0, "website": null, "contact_phone": "+81 897-66-8139", "contact_email": null, "status": 1, "source_type": 1, "numberReviews": 1}, {"name": "Ramen Tei", "type": "restaurant", "image": "https://dynamic-media-cdn.tripadvisor.com/media/photo-o/15/67/d7/40/caption.jpg?w=1000&s=1", "address": "8-43 Tokutsunecho, Niihama 792-0022 Ehime Prefecture", "lat": 33.964954, "lng": 133.28107, "ref_id": 9624582, "rating": 4, "num_reviews": 0, "website": null, "contact_phone": "+81 897-37-0045", "contact_email": null, "status": 1, "source_type": 1, "numberReviews": 1}, {"name": "Himesambo", "type": "restaurant", "image": "https://dynamic-media-cdn.tripadvisor.com/media/photo-o/15/45/26/7c/photo2jpg.jpg?w=1000&s=1", "address": "2-17-27 Tsuchihashi, Niihama 792-0043 Ehime Prefecture", "lat": 33.92863, "lng": 133.29471, "ref_id": 13027714, "rating": 4, "num_reviews": 0, "website": null, "contact_phone": "+81 897-41-2002", "contact_email": null, "status": 1, "source_type": 1, "numberReviews": 1}, {"name": "Shin Creative Sichuan Restaurant Manrai", "type": "restaurant", "image": null, "address": "1-6-26 Hongo, Niihama Ehime Prefecture", "lat": 33.9356, "lng": 133.28442, "ref_id": 7545508, "rating": 4, "num_reviews": 0, "website": null, "contact_phone": "+81 897-47-4188", "contact_email": null, "status": 1, "source_type": 1, "numberReviews": 1}, {"name": "Cafezecca", "type": "restaurant", "image": null, "address": "8-5 Kamiizumicho, Niihama 792-0824 Ehime Prefecture", "lat": 33.936085, "lng": 133.30655, "ref_id": 13027621, "rating": 4, "num_reviews": 0, "website": null, "contact_phone": "+81 897-41-1001", "contact_email": null, "status": 1, "source_type": 1, "numberReviews": 1}, {"name": "Kushito Shun Ama No Hagoromo", "type": "restaurant", "image": null, "address": "1-7-7 Wakamizucho, Niihama Ehime Prefecture", "lat": 33.966118, "lng": 133.27885, "ref_id": 7545453, "rating": 4, "num_reviews": 0, "website": null, "contact_phone": "+81 897-34-8511", "contact_email": null, "status": 1, "source_type": 1, "numberReviews": 1}, {"name": "Matsuya", "type": "restaurant", "image": "https://dynamic-media-cdn.tripadvisor.com/media/photo-o/13/fe/43/ce/caption.jpg?w=1000&s=1", "address": "1-8-1 Wakamizucho, Niihama Ehime Prefecture", "lat": 33.965275, "lng": 133.27846, "ref_id": 7545512, "rating": 4, "num_reviews": 0, "website": null, "contact_phone": "+81 897-36-3610", "contact_email": null, "status": 1, "source_type": 1, "numberReviews": 1}, {"name": "Gojo Pastry Dobashi", "type": "restaurant", "image": null, "address": "1-9-1 Tsuchihashi, Niihama 792-0043 Ehime Prefecture", "lat": 33.93578, "lng": 133.29138, "ref_id": 13027670, "rating": 4, "num_reviews": 0, "website": null, "contact_phone": "+81 897-41-3015", "contact_email": null, "status": 1, "source_type": 1, "numberReviews": 1}, {"name": "Yakiniku Ichifuku", "type": "restaurant", "image": null, "address": "1-10-5 Kikojicho, Niihama 792-0826 Ehime Prefecture", "lat": 33.934708, "lng": 133.30048, "ref_id": 13787669, "rating": 4, "num_reviews": 0, "website": null, "contact_phone": "+81 897-66-7811", "contact_email": null, "status": 1, "source_type": 1, "numberReviews": 1}, {"name": "Okonomiyaki Ikoi Niihama", "type": "restaurant", "image": null, "address": "1-5-14 Kikojicho, Niihama 792-0826 Ehime Prefecture", "lat": 33.935207, "lng": 133.29749, "ref_id": 9655547, "rating": 4, "num_reviews": 0, "website": null, "contact_phone": "+81 897-47-5562", "contact_email": null, "status": 1, "source_type": 1, "numberReviews": 1}, {"name": "Sake Dining Tsujimaru", "type": "restaurant", "image": null, "address": "147-6 Komatsucho Myoguchi Ko, Saijo 799-1104 Ehime Prefecture", "lat": 33.89156, "lng": 133.08943, "ref_id": 4671943, "rating": 4, "num_reviews": 0, "website": null, "contact_phone": "+81 898-76-3939", "contact_email": null, "status": 1, "source_type": 1, "numberReviews": 1}, {"name": "Marionette", "type": "restaurant", "image": null, "address": "567-1 Tamanoe, Saijo 799-1363 Ehime Prefecture", "lat": 33.912106, "lng": 133.10902, "ref_id": 6068571, "rating": 4, "num_reviews": 0, "website": null, "contact_phone": "+81 898-64-3281", "contact_email": null, "status": 1, "source_type": 1, "numberReviews": 1}, {"name": "New Squall", "type": "restaurant", "image": null, "address": "41 Arayashiki Ko Komatsucho, Saijo 799-1101 Ehime Prefecture", "lat": 33.897346, "lng": 133.11952, "ref_id": 10654621, "rating": 4, "num_reviews": 0, "website": null, "contact_phone": "+81 898-72-2248", "contact_email": null, "status": 1, "source_type": 1, "numberReviews": 1}, {"name": "Saina Ando", "type": "restaurant", "image": null, "address": "Himihei 597-1, Saijo 793-0073 Ehime Prefecture", "lat": 33.89201, "lng": 133.1296, "ref_id": 9620299, "rating": 4, "num_reviews": 0, "website": null, "contact_phone": "+81 897-47-8625", "contact_email": null, "status": 1, "source_type": 1, "numberReviews": 1}, {"name": "Gohanyasan", "type": "restaurant", "image": null, "address": "536-1 Tamanoe, Saijo 799-1363 Ehime Prefecture", "lat": 33.913795, "lng": 133.1072, "ref_id": 13027665, "rating": 4, "num_reviews": 0, "website": null, "contact_phone": "+81 898-64-3993", "contact_email": null, "status": 1, "source_type": 1, "numberReviews": 1}, {"name": "Kashin", "type": "restaurant", "image": null, "address": "1628-5 Komatsucho Myoguchi Ko, Saijo 799-1104 Ehime Prefecture", "lat": 33.894176, "lng": 133.09473, "ref_id": 4671555, "rating": 4, "num_reviews": 0, "website": null, "contact_phone": "+81 898-72-5332", "contact_email": null, "status": 1, "source_type": 1, "numberReviews": 1}, {"name": "Ramen-Ya San", "type": "restaurant", "image": null, "address": "703-2 Himiotsu, Saijo Ehime Prefecture", "lat": 33.89552, "lng": 133.13486, "ref_id": 7546023, "rating": 4, "num_reviews": 0, "website": null, "contact_phone": "+81 897-57-9515", "contact_email": null, "status": 1, "source_type": 1, "numberReviews": 1}, {"name": "Bakery Uno", "type": "restaurant", "image": null, "address": "684-3 Himiotsu, Saijo 793-0072 Ehime Prefecture", "lat": 33.89533, "lng": 133.13626, "ref_id": 13027510, "rating": 4, "num_reviews": 0, "website": null, "contact_phone": "+81 897-57-9431", "contact_email": null, "status": 1, "source_type": 1, "numberReviews": 1}, {"name": "Mama's Cafe & Kichen", "type": "restaurant", "image": null, "address": "76-2 Minamikawa, Komatsucho, Saijo 799-1102 Ehime Prefecture", "lat": 33.895393, "lng": 133.09784, "ref_id": 9667497, "rating": 4, "num_reviews": 0, "website": null, "contact_phone": "+81 898-72-5757", "contact_email": null, "status": 1, "source_type": 1, "numberReviews": 1}, {"name": "Shunsai Haru", "type": "restaurant", "image": null, "address": "1780 Himi-Otsu, Saijo 793-0072 Ehime Prefecture", "lat": 33.893867, "lng": 133.12843, "ref_id": 9620307, "rating": 4, "num_reviews": 0, "website": null, "contact_phone": "+81 897-57-9800", "contact_email": null, "status": 1, "source_type": 1, "numberReviews": 1}, {"name": "Coffee Aika", "type": "restaurant", "image": null, "address": "174-4 Shin Yashiki Ko, Komatsucho, Saijo 799-1101 Ehime Prefecture", "lat": 33.909187, "lng": 133.11246, "ref_id": 9667493, "rating": 4, "num_reviews": 0, "website": null, "contact_phone": "+81 898-72-5131", "contact_email": null, "status": 1, "source_type": 1, "numberReviews": 1}, {"name": "Yakiniku Restaurant Heijo", "type": "restaurant", "image": null, "address": "2-1-12 Shindencho, Niihama 792-0003 Ehime Prefecture", "lat": 33.955215, "lng": 133.26259, "ref_id": 13028385, "rating": 4, "num_reviews": 0, "website": null, "contact_phone": "+81 897-66-8711", "contact_email": null, "status": 1, "source_type": 1, "numberReviews": 1}, {"name": "Izakaya Hinoki", "type": "restaurant", "image": "https://dynamic-media-cdn.tripadvisor.com/media/photo-o/0e/13/e1/e0/caption.jpg?w=1000&s=1", "address": "164-7 Sasagino Matsushige-Cho Inside Business Hotel Sky Route, Matsushige-cho, Itano-gun 771-0219 Qu\u00e2\u0323n Tokushima", "lat": 34.141346, "lng": 134.5922, "ref_id": 4903195, "rating": 4, "num_reviews": 0, "website": null, "contact_phone": "+81 88-699-3988", "contact_email": null, "status": 1, "source_type": 1, "numberReviews": 5}, {"name": "Shima no Mono Cafe Tanakado", "type": "restaurant", "image": "https://dynamic-media-cdn.tripadvisor.com/media/photo-o/18/7f/67/96/caption.jpg?w=1000&s=1", "address": "2-8-1 Sumiyoshi, Matsuyama 791-8062 Ehime Prefecture", "lat": 33.863987, "lng": 132.71696, "ref_id": 11884340, "rating": 4.5, "num_reviews": 0, "website": null, "contact_phone": "+81 90-6280-3750", "contact_email": null, "status": 1, "source_type": 1, "numberReviews": 6}, {"name": "Chef's Kitchen", "type": "restaurant", "image": "https://dynamic-media-cdn.tripadvisor.com/media/photo-o/14/20/3d/aa/caption.jpg?w=1000&s=1", "address": "2731 Minamiyoshidamachi Matsuyama Airport Bldg. 2F, Matsuyama 791-8042 Ehime Prefecture", "lat": 33.82949, "lng": 132.70128, "ref_id": 13509747, "rating": 3.5, "num_reviews": 0, "website": null, "contact_phone": "+81 89-973-5011", "contact_email": null, "status": 1, "source_type": 1, "numberReviews": 20}, {"name": "Hanaoka Yakitori Yakiniku", "type": "restaurant", "image": null, "address": "246 Nakayabu Handa, Tsurugi-cho, Mima-gun Qu\u00e2\u0323n Tokushima", "lat": 34.040653, "lng": 134.03603, "ref_id": 7482220, "rating": -1, "num_reviews": 0, "website": null, "contact_phone": "+81 883-64-2814", "contact_email": null, "status": 1, "source_type": 1, "numberReviews": 0}, {"name": "Junta", "type": "restaurant", "image": null, "address": "64-15 Nishiyama Sadamitsu, Tsurugi-cho, Mima-gun Qu\u00e2\u0323n Tokushima", "lat": 34.040413, "lng": 134.05533, "ref_id": 7639068, "rating": -1, "num_reviews": 0, "website": null, "contact_phone": "+81 883-62-3132", "contact_email": null, "status": 1, "source_type": 1, "numberReviews": 0}, {"name": "Kondo", "type": "restaurant", "image": null, "address": "102-3 Sadamitsu Miyashita, Tsurugi-cho, Mima-gun Qu\u00e2\u0323n Tokushima", "lat": 34.04037, "lng": 134.06133, "ref_id": 7482190, "rating": -1, "num_reviews": 0, "website": null, "contact_phone": "+81 883-62-4466", "contact_email": null, "status": 1, "source_type": 1, "numberReviews": 0}, {"name": "Nishimura Shokudo", "type": "restaurant", "image": null, "address": "1-3 Noguchi Sadamitsu, Tsurugi-cho, Mima-gun 779-4102 Qu\u00e2\u0323n Tokushima", "lat": 34.037834, "lng": 134.06067, "ref_id": 10009480, "rating": -1, "num_reviews": 0, "website": null, "contact_phone": "+81 883-62-2189", "contact_email": null, "status": 1, "source_type": 1, "numberReviews": 0}, {"name": "Sushiyoshi", "type": "restaurant", "image": null, "address": "124-1 Solder Character Osaka, Tsurugi-cho, Mima-gun 779-4401 Qu\u00e2\u0323n Tokushima", "lat": 34.033146, "lng": 134.0325, "ref_id": 13267344, "rating": -1, "num_reviews": 0, "website": null, "contact_phone": "+81 883-64-2250", "contact_email": null, "status": 1, "source_type": 1, "numberReviews": 0}, {"name": "Seasonal Cuisine Miyabi", "type": "restaurant", "image": null, "address": "33-1 Mima-Cho Nakamichikita, Mima 771-2104 Qu\u00e2\u0323n Tokushima", "lat": 34.05803, "lng": 134.08182, "ref_id": 13248166, "rating": -1, "num_reviews": 0, "website": null, "contact_phone": "+81 883-55-2030", "contact_email": null, "status": 1, "source_type": 1, "numberReviews": 0}, {"name": "Igawa-Ya Main Store", "type": "restaurant", "image": null, "address": "319-1 Nishiikawa Ikawacho, Miyoshi Qu\u00e2\u0323n Tokushima", "lat": 34.03206, "lng": 133.84088, "ref_id": 7504128, "rating": -1, "num_reviews": 0, "website": null, "contact_phone": "+81 883-72-1022", "contact_email": null, "status": 1, "source_type": 1, "numberReviews": 0}, {"name": "Sushi Hirai", "type": "restaurant", "image": null, "address": "2413-2 Ikedacho Machi, Miyoshi 778-0002 Qu\u00e2\u0323n Tokushima", "lat": 34.029995, "lng": 133.8106, "ref_id": 4907883, "rating": -1, "num_reviews": 0, "website": null, "contact_phone": "+81 883-72-0493", "contact_email": null, "status": 1, "source_type": 1, "numberReviews": 0}, {"name": "Shurian", "type": "restaurant", "image": null, "address": "1661-1 Ikedacho Sarada, Miyoshi Qu\u00e2\u0323n Tokushima", "lat": 34.027885, "lng": 133.81105, "ref_id": 7504116, "rating": -1, "num_reviews": 0, "website": null, "contact_phone": "+81 883-72-5006", "contact_email": null, "status": 1, "source_type": 1, "numberReviews": 0}, {"name": "Yamamoto Restaurant", "type": "restaurant", "image": null, "address": "1074-2 Minocho Shibo, Miyoshi 771-2304 Qu\u00e2\u0323n Tokushima", "lat": 34.04204, "lng": 133.96918, "ref_id": 13267115, "rating": -1, "num_reviews": 0, "website": null, "contact_phone": "+81 883-77-2035", "contact_email": null, "status": 1, "source_type": 1, "numberReviews": 0}, {"name": "Takara Sushi", "type": "restaurant", "image": null, "address": "1836-3 Kamo Higashimiyoshi-Cho, Higashimiyoshi-cho, Miyoshi-gun 779-4701 Qu\u00e2\u0323n Tokushima", "lat": 34.03929, "lng": 133.92838, "ref_id": 4906948, "rating": -1, "num_reviews": 0, "website": null, "contact_phone": "+81 883-82-5696", "contact_email": null, "status": 1, "source_type": 1, "numberReviews": 0}, {"name": "Kanran", "type": "restaurant", "image": null, "address": "1798 Sarada Ikedacho, Miyoshi Qu\u00e2\u0323n Tokushima", "lat": 34.02751, "lng": 133.8063, "ref_id": 7643690, "rating": -1, "num_reviews": 0, "website": null, "contact_phone": "+81 883-72-3331", "contact_email": null, "status": 1, "source_type": 1, "numberReviews": 0}, {"name": "Izakaya Yajirobee", "type": "restaurant", "image": null, "address": "2-12 Masugata, Kochi 780-0861 Kochi Prefecture", "lat": 33.558372, "lng": 133.52733, "ref_id": 4903207, "rating": -1, "num_reviews": 0, "website": null, "contact_phone": "+81 88-825-4522", "contact_email": null, "status": 1, "source_type": 1, "numberReviews": 0}, {"name": "Just", "type": "restaurant", "image": null, "address": "3-3 Ekimaecho, Kochi 780-0053 Kochi Prefecture", "lat": 33.564735, "lng": 133.5431, "ref_id": 9650718, "rating": -1, "num_reviews": 0, "website": null, "contact_phone": "+81 88-823-3088", "contact_email": null, "status": 1, "source_type": 1, "numberReviews": 0}, {"name": "Tsukiya", "type": "restaurant", "image": "https://dynamic-media-cdn.tripadvisor.com/media/photo-o/2b/9a/5f/4c/toriya-tsukiya-in-anan.jpg?w=1000&s=1", "address": "556-9 Tomiokacho, Anan 774-0030 Qu\u00e2\u0323n Tokushima", "lat": 33.92255, "lng": 134.6627, "ref_id": 4903696, "rating": 4, "num_reviews": 0, "website": "http://tsukiya.skr.jp", "contact_phone": "+81 884-22-7065", "contact_email": null, "status": 1, "source_type": 1, "numberReviews": 2}, {"name": "Tontarotsunomine", "type": "restaurant", "image": null, "address": "87-1 Higashibun Tsunominecho, Anan Qu\u00e2\u0323n Tokushima", "lat": 33.88701, "lng": 134.65292, "ref_id": 7432881, "rating": 3, "num_reviews": 0, "website": null, "contact_phone": "+81 884-27-2668", "contact_email": null, "status": 1, "source_type": 1, "numberReviews": 1}, {"name": "Kanemoto Confectionery", "type": "restaurant", "image": null, "address": "749 Konoura, Matsuyama 791-4505 Ehime Prefecture", "lat": 33.951298, "lng": 132.60577, "ref_id": 13027872, "rating": -1, "num_reviews": 0, "website": null, "contact_phone": "+81 89-997-0741", "contact_email": null, "status": 1, "source_type": 1, "numberReviews": 0}, {"name": "Yokan", "type": "restaurant", "image": null, "address": "3-6-4 Okaido 2F, Matsuyama 790-0004 Ehime Prefecture", "lat": null, "lng": null, "ref_id": 21198866, "rating": -1, "num_reviews": 0, "website": "https://www.facebook.com/yokan.eiei/", "contact_phone": "+81 89-950-4731", "contact_email": null, "status": 1, "source_type": 1, "numberReviews": 0}, {"name": "#.icafe Power Center", "type": "restaurant", "image": null, "address": "317-1 Keraotsu, Kochi 781-5106 Kochi Prefecture", "lat": null, "lng": null, "ref_id": 21171876, "rating": -1, "num_reviews": 0, "website": null, "contact_phone": "+81 50-5597-9148", "contact_email": null, "status": 1, "source_type": 1, "numberReviews": 0}, {"name": "Tsushima Yasuragino Sato Restaurant", "type": "restaurant", "image": null, "address": "830-1 Takata-Ko Tsushimacho, Uwajima Ehime Prefecture", "lat": 33.139732, "lng": 132.52014, "ref_id": 7428913, "rating": 3, "num_reviews": 0, "website": null, "contact_phone": "+81 895-20-8181", "contact_email": null, "status": 1, "source_type": 1, "numberReviews": 1}, {"name": "Sumiyaki Mura", "type": "restaurant", "image": null, "address": "1438-7 Tsushimacho Shimohataji Ko, Uwajima 798-3321 Ehime Prefecture", "lat": 33.09691, "lng": 132.51486, "ref_id": 9617920, "rating": 3, "num_reviews": 0, "website": null, "contact_phone": "+81 895-32-5471", "contact_email": null, "status": 1, "source_type": 1, "numberReviews": 2}, {"name": "Uogashi Isoichi Lion Dori Main Store", "type": "restaurant", "image": null, "address": "2-1 Hyakkencho, Takamatsu 760-0041 Kagawa Prefecture", "lat": 34.345364, "lng": 134.05247, "ref_id": 9673571, "rating": -1, "num_reviews": 0, "website": null, "contact_phone": "+81 87-811-2239", "contact_email": null, "status": 1, "source_type": 1, "numberReviews": 0}, {"name": "Nikuriki Japan Rakuchin", "type": "restaurant", "image": null, "address": "9-1 Togiyamachi, Takamatsu 760-0026 Kagawa Prefecture", "lat": 34.344864, "lng": 134.0488, "ref_id": 17411394, "rating": -1, "num_reviews": 0, "website": null, "contact_phone": "+81 87-826-2202", "contact_email": null, "status": 1, "source_type": 1, "numberReviews": 0}, {"name": "Classic Bar Avanti", "type": "restaurant", "image": null, "address": "1-2-4 Kawaramachi Gourmet Kan 2F, Takamatsu 760-0052 Kagawa Prefecture", "lat": 34.34167, "lng": 134.05112, "ref_id": 9662658, "rating": -1, "num_reviews": 0, "website": null, "contact_phone": "+81 87-851-9758", "contact_email": null, "status": 1, "source_type": 1, "numberReviews": 0}, {"name": "Shichimi", "type": "restaurant", "image": "https://dynamic-media-cdn.tripadvisor.com/media/photo-o/19/f1/c4/75/caption.jpg?w=1000&s=1", "address": "9-14 Gobomachi, Takamatsu 760-0044 Kagawa Prefecture", "lat": 34.343082, "lng": 134.05247, "ref_id": 19273524, "rating": -1, "num_reviews": 0, "website": "http://ja-jp.facebook.com/shichimi.oryouri/", "contact_phone": "+81 87-873-2879", "contact_email": null, "status": 1, "source_type": 1, "numberReviews": 0}, {"name": "Suzuka Wall", "type": "restaurant", "image": null, "address": "247-1 Oaza Hiragi, Miki-cho, Kita-gun 761-0702 Kagawa Prefecture", "lat": 34.272095, "lng": 134.13438, "ref_id": 13038824, "rating": -1, "num_reviews": 0, "website": null, "contact_phone": "+81 87-898-3136", "contact_email": null, "status": 1, "source_type": 1, "numberReviews": 0}, {"name": "Peasant Tea House Art Cafe Shirayama", "type": "restaurant", "image": null, "address": "846 Shimotakaoka Miki-Cho, Miki-cho, Kita-gun 761-0704 Kagawa Prefecture", "lat": 34.273415, "lng": 134.15437, "ref_id": 4906821, "rating": -1, "num_reviews": 0, "website": null, "contact_phone": "+81 87-898-5252", "contact_email": null, "status": 1, "source_type": 1, "numberReviews": 0}, {"name": "G-Spot 108", "type": "restaurant", "image": null, "address": "14-8 Furubabacho, Takamatsu Kagawa Prefecture", "lat": 34.34225, "lng": 134.05104, "ref_id": 7449985, "rating": -1, "num_reviews": 0, "website": null, "contact_phone": "+81 87-851-1081", "contact_email": null, "status": 1, "source_type": 1, "numberReviews": 0}, {"name": "Uehara", "type": "restaurant", "image": null, "address": "708-7 Rokujocho, Takamatsu 761-0303 Kagawa Prefecture", "lat": 34.3037, "lng": 134.08339, "ref_id": 13038872, "rating": -1, "num_reviews": 0, "website": null, "contact_phone": "+81 87-814-7007", "contact_email": null, "status": 1, "source_type": 1, "numberReviews": 0}, {"name": "Ushiwakamaru Takamatsu", "type": "restaurant", "image": null, "address": "1-14 Imajimmachi, Takamatsu 760-0043 Kagawa Prefecture", "lat": 34.344246, "lng": 134.05156, "ref_id": 14856675, "rating": -1, "num_reviews": 0, "website": null, "contact_phone": "+81 87-811-7771", "contact_email": null, "status": 1, "source_type": 1, "numberReviews": 0}, {"name": "Infinity", "type": "restaurant", "image": null, "address": "849-4 Shindenchoko, Takamatsu 761-0102 Kagawa Prefecture", "lat": 34.32221, "lng": 134.10458, "ref_id": 15237600, "rating": -1, "num_reviews": 0, "website": null, "contact_phone": "+81 87-841-4060", "contact_email": null, "status": 1, "source_type": 1, "numberReviews": 0}, {"name": "Kajiyamachi Sakaba Nagomi", "type": "restaurant", "image": null, "address": "4-9 Kajiyamachi Paddy Building 1F, Takamatsu 760-0028 Kagawa Prefecture", "lat": 34.343155, "lng": 134.04866, "ref_id": 17359093, "rating": -1, "num_reviews": 0, "website": null, "contact_phone": "+81 87-851-0907", "contact_email": null, "status": 1, "source_type": 1, "numberReviews": 0}, {"name": "Angelo Shiki", "type": "restaurant", "image": null, "address": "4-1 Kajiyamachi Festa 2, Takamatsu 760-0028 Kagawa Prefecture", "lat": 34.342987, "lng": 134.0493, "ref_id": 9662653, "rating": -1, "num_reviews": 0, "website": null, "contact_phone": "+81 87-823-2578", "contact_email": null, "status": 1, "source_type": 1, "numberReviews": 0}, {"name": "Inoue", "type": "restaurant", "image": null, "address": "5-2 Daikumachi, Takamatsu 760-0042 Kagawa Prefecture", "lat": 34.344147, "lng": 134.05403, "ref_id": 13174942, "rating": -1, "num_reviews": 0, "website": null, "contact_phone": "+81 87-851-2161", "contact_email": null, "status": 1, "source_type": 1, "numberReviews": 0}, {"name": "Tebasaki No Mise Dareyami", "type": "restaurant", "image": null, "address": "13-16 Furubabacho, Takamatsu 760-0045 Kagawa Prefecture", "lat": 34.341923, "lng": 134.0518, "ref_id": 9615049, "rating": -1, "num_reviews": 0, "website": null, "contact_phone": "+81 87-822-4349", "contact_email": null, "status": 1, "source_type": 1, "numberReviews": 0}, {"name": "Ashioto", "type": "restaurant", "image": null, "address": "11-11 Kameicho, Takamatsu 760-0050 Kagawa Prefecture", "lat": 34.33861, "lng": 134.04834, "ref_id": 13197860, "rating": -1, "num_reviews": 0, "website": null, "contact_phone": "+81 87-861-9929", "contact_email": null, "status": 1, "source_type": 1, "numberReviews": 0}, {"name": "Nishikisushi", "type": "restaurant", "image": null, "address": "2-5-4 Kawaramachi, Takamatsu 760-0052 Kagawa Prefecture", "lat": 34.339813, "lng": 134.05257, "ref_id": 13038710, "rating": -1, "num_reviews": 0, "website": null, "contact_phone": "+81 87-861-6665", "contact_email": null, "status": 1, "source_type": 1, "numberReviews": 0}, {"name": "Fujiya", "type": "restaurant", "image": null, "address": "548-8 Shido, Sanuki Kagawa Prefecture", "lat": 34.32384, "lng": 134.17268, "ref_id": 7534456, "rating": -1, "num_reviews": 0, "website": null, "contact_phone": "+81 87-894-1175", "contact_email": null, "status": 1, "source_type": 1, "numberReviews": 0}, {"name": "Mitsuya", "type": "restaurant", "image": null, "address": "1-29 Kataharamachi, Takamatsu 760-0040 Kagawa Prefecture", "lat": 34.346176, "lng": 134.05101, "ref_id": 13174963, "rating": -1, "num_reviews": 0, "website": null, "contact_phone": "+81 87-821-8440", "contact_email": null, "status": 1, "source_type": 1, "numberReviews": 0}, {"name": "Nishiya", "type": "restaurant", "image": null, "address": "2-1-12 Katayama, Imabari Ehime Prefecture", "lat": 34.052303, "lng": 132.9843, "ref_id": 7546432, "rating": -1, "num_reviews": 0, "website": null, "contact_phone": "+81 898-22-2521", "contact_email": null, "status": 1, "source_type": 1, "numberReviews": 0}, {"name": "Hananuri", "type": "restaurant", "image": null, "address": "340-1 Nagasawako, Imabari Ehime Prefecture", "lat": 33.99621, "lng": 133.0449, "ref_id": 7546682, "rating": -1, "num_reviews": 0, "website": null, "contact_phone": "+81 898-48-0318", "contact_email": null, "status": 1, "source_type": 1, "numberReviews": 0}, {"name": "Ai", "type": "restaurant", "image": null, "address": "1-4-23 Yamajicho, Imabari Ehime Prefecture", "lat": 34.059795, "lng": 132.9765, "ref_id": 7546610, "rating": -1, "num_reviews": 0, "website": null, "contact_phone": "+81 898-22-6042", "contact_email": null, "status": 1, "source_type": 1, "numberReviews": 0}, {"name": "Tanto", "type": "restaurant", "image": null, "address": "1-25-6 Kitahiyoshicho, Imabari Ehime Prefecture", "lat": 34.064415, "lng": 132.9919, "ref_id": 1698321, "rating": -1, "num_reviews": 0, "website": "", "contact_phone": "+81 898-25-0277", "contact_email": "", "status": 1, "source_type": 1, "numberReviews": 0}, {"name": "Engizushi", "type": "restaurant", "image": null, "address": "285-8 Engi Ko, Imabari Ehime Prefecture", "lat": 34.063805, "lng": 132.96112, "ref_id": 7546602, "rating": -1, "num_reviews": 0, "website": null, "contact_phone": "+81 898-23-0357", "contact_email": null, "status": 1, "source_type": 1, "numberReviews": 0}, {"name": "Kifune Sushi", "type": "restaurant", "image": null, "address": "2556 Ko Namikata Namikatacho, Imabari Ehime Prefecture", "lat": 34.123566, "lng": 132.95319, "ref_id": 7546690, "rating": -1, "num_reviews": 0, "website": null, "contact_phone": "+81 898-41-9709", "contact_email": null, "status": 1, "source_type": 1, "numberReviews": 0}, {"name": "Suzuya", "type": "restaurant", "image": null, "address": "1-7-28 Matsumotocho, Imabari Ehime Prefecture", "lat": 34.06452, "lng": 133.00133, "ref_id": 7546384, "rating": -1, "num_reviews": 0, "website": null, "contact_phone": "+81 898-32-1928", "contact_email": null, "status": 1, "source_type": 1, "numberReviews": 0},