[{"name": "Sushi Isshin", "type": "restaurant", "image": "https://dynamic-media-cdn.tripadvisor.com/media/photo-o/0a/57/d9/78/caption.jpg?w=1000&s=1", "address": "260-2, Yawatahama Ehime Prefecture", "lat": 33.459698, "lng": 132.42455, "ref_id": 7546830, "rating": 4.5, "num_reviews": 0, "website": null, "contact_phone": "+81 894-22-1718", "contact_email": null, "status": 1, "source_type": 1, "numberReviews": 4}, {"name": "Hamami-Kan Atago Funaba-Dori", "type": "restaurant", "image": "https://dynamic-media-cdn.tripadvisor.com/media/photo-o/16/33/da/d0/photo0jpg.jpg?w=1000&s=1", "address": "Semba-Dori, Yawatahama Ehime Prefecture", "lat": 33.459724, "lng": 132.425, "ref_id": 7638433, "rating": 5, "num_reviews": 0, "website": null, "contact_phone": "+81 894-22-3322", "contact_email": null, "status": 1, "source_type": 1, "numberReviews": 2}, {"name": "Fukuchan Ramen", "type": "restaurant", "image": "https://dynamic-media-cdn.tripadvisor.com/media/photo-o/10/08/9e/84/caption.jpg?w=1000&s=1", "address": "77-3 Tanokuchi Ko, Ozu 795-0063 Ehime Prefecture", "lat": 33.51635, "lng": 132.55008, "ref_id": 4663678, "rating": 4.5, "num_reviews": 0, "website": null, "contact_phone": "+81 893-23-0225", "contact_email": null, "status": 1, "source_type": 1, "numberReviews": 5}, {"name": "Cafe Neue", "type": "restaurant", "image": "https://dynamic-media-cdn.tripadvisor.com/media/photo-o/15/07/56/1f/photo3jpg.jpg?w=1000&s=1", "address": "660-1 Ozu, Ozu Ehime Prefecture", "lat": 33.50622, "lng": 132.5467, "ref_id": 7546156, "rating": 4.5, "num_reviews": 0, "website": "http://www.cafe-neue.com/", "contact_phone": "+81 893-24-0212", "contact_email": null, "status": 1, "source_type": 1, "numberReviews": 3}, {"name": "En", "type": "restaurant", "image": "https://dynamic-media-cdn.tripadvisor.com/media/photo-o/1a/80/65/03/dsc-6108-largejpg.jpg?w=1000&s=1", "address": "1163 Uchiko, Uchiko-cho, Kita-gun 791-3301 Ehime Prefecture", "lat": 33.54701, "lng": 132.64946, "ref_id": 13027627, "rating": 4, "num_reviews": 0, "website": null, "contact_phone": "+81 893-50-6660", "contact_email": null, "status": 1, "source_type": 1, "numberReviews": 3}, {"name": "Bistro San Marche", "type": "restaurant", "image": null, "address": "1048-3 Higashi Ozu, Ozu Ehime Prefecture", "lat": 33.527584, "lng": 132.56763, "ref_id": 7546194, "rating": 5, "num_reviews": 0, "website": null, "contact_phone": "+81 893-25-0881", "contact_email": null, "status": 1, "source_type": 1, "numberReviews": 2}, {"name": "Ouchi Gohan Orion", "type": "restaurant", "image": "https://dynamic-media-cdn.tripadvisor.com/media/photo-o/11/08/dd/99/photo1jpg.jpg?w=1000&s=1", "address": "742 Haruka Ko, Ozu 795-0046 Ehime Prefecture", "lat": 33.549263, "lng": 132.55753, "ref_id": 9655605, "rating": 5, "num_reviews": 0, "website": null, "contact_phone": "+81 893-26-1277", "contact_email": null, "status": 1, "source_type": 1, "numberReviews": 2}, {"name": "Marina", "type": "restaurant", "image": "https://dynamic-media-cdn.tripadvisor.com/media/photo-o/08/d7/c6/be/caption.jpg?w=1000&s=1", "address": "1030-51 Nagahama-Ko, Ozu Ehime Prefecture", "lat": 33.616337, "lng": 132.48688, "ref_id": 7546207, "rating": 4.5, "num_reviews": 0, "website": null, "contact_phone": "+81 893-52-1505", "contact_email": null, "status": 1, "source_type": 1, "numberReviews": 2}, {"name": "Ikedaya", "type": "restaurant", "image": "https://dynamic-media-cdn.tripadvisor.com/media/photo-o/11/cc/f3/2b/caption.jpg?w=1000&s=1", "address": "4-332 Unomachi Uwacho, Seiyo Ehime Prefecture", "lat": 33.362724, "lng": 132.51505, "ref_id": 7545831, "rating": 5, "num_reviews": 0, "website": null, "contact_phone": "+81 894-62-0223", "contact_email": null, "status": 1, "source_type": 1, "numberReviews": 2}, {"name": "Daisukeudon", "type": "restaurant", "image": "https://dynamic-media-cdn.tripadvisor.com/media/photo-o/11/93/fe/bf/caption.jpg?w=1000&s=1", "address": "299-1 Niiyaotsu, Ozu Ehime Prefecture", "lat": 33.53385, "lng": 132.58623, "ref_id": 1692741, "rating": 4, "num_reviews": 0, "website": null, "contact_phone": "+81 893-25-5917", "contact_email": "", "status": 1, "source_type": 1, "numberReviews": 4}, {"name": "Nishikawa", "type": "restaurant", "image": "https://dynamic-media-cdn.tripadvisor.com/media/photo-o/09/17/e0/a8/caption.jpg?w=1000&s=1", "address": "392-6 Tanokuchi Ko, Ozu 795-0063 Ehime Prefecture", "lat": 33.52002, "lng": 132.55157, "ref_id": 7546200, "rating": 4, "num_reviews": 0, "website": "http://www.west-nisikawa.jp/restaurant/", "contact_phone": "+81 893-24-4046", "contact_email": null, "status": 1, "source_type": 1, "numberReviews": 4}, {"name": "Noboritate Udon", "type": "restaurant", "image": "https://dynamic-media-cdn.tripadvisor.com/media/photo-o/14/f9/0a/84/20181008-115657-largejpg.jpg?w=1000&s=1", "address": "543 Ko Uchiko, Uchiko-cho, Kita-gun Ehime Prefecture", "lat": 33.54512, "lng": 132.64932, "ref_id": 7482658, "rating": 4, "num_reviews": 0, "website": null, "contact_phone": "+81 893-43-0352", "contact_email": null, "status": 1, "source_type": 1, "numberReviews": 2}, {"name": "Marugame Seimen Iyoosu", "type": "restaurant", "image": "https://dynamic-media-cdn.tripadvisor.com/media/photo-o/15/74/ee/0f/photo0jpg.jpg?w=1000&s=1", "address": "284-1 Higashi Ozu, Ozu Ehime Prefecture", "lat": 33.521427, "lng": 132.55461, "ref_id": 7546219, "rating": 4.5, "num_reviews": 0, "website": null, "contact_phone": "+81 893-24-7788", "contact_email": null, "status": 1, "source_type": 1, "numberReviews": 2}, {"name": "Futaba Shop Aspirations Grade Rice Cake", "type": "restaurant", "image": "https://dynamic-media-cdn.tripadvisor.com/media/photo-o/12/35/5d/8e/caption.jpg?w=1000&s=1", "address": "165 Ozu, Ozu 795-0012 Ehime Prefecture", "lat": 33.507526, "lng": 132.54536, "ref_id": 13027655, "rating": 4, "num_reviews": 0, "website": null, "contact_phone": "+81 893-24-2437", "contact_email": null, "status": 1, "source_type": 1, "numberReviews": 3}, {"name": "Sushi Kodachi", "type": "restaurant", "image": "https://dynamic-media-cdn.tripadvisor.com/media/photo-o/14/2d/54/13/photo0jpg.jpg?w=1000&s=1", "address": "826 Uchiko Ko, Uchiko-cho, Kita-gun Ehime Prefecture", "lat": 33.53456, "lng": 132.66196, "ref_id": 7482633, "rating": 4, "num_reviews": 0, "website": null, "contact_phone": "+81 893-44-5584", "contact_email": null, "status": 1, "source_type": 1, "numberReviews": 3}, {"name": "Shiraishi Udon Shop", "type": "restaurant", "image": "https://dynamic-media-cdn.tripadvisor.com/media/photo-o/1a/0a/8a/1d/photo2jpg.jpg?w=1000&s=1", "address": "880-12 Ozu, Ozu Ehime Prefecture", "lat": 33.508125, "lng": 132.54066, "ref_id": 7546258, "rating": 4.5, "num_reviews": 0, "website": null, "contact_phone": "+81 893-24-2614", "contact_email": null, "status": 1, "source_type": 1, "numberReviews": 2}, {"name": "Lloyds", "type": "restaurant", "image": "https://dynamic-media-cdn.tripadvisor.com/media/photo-o/08/e8/49/b4/caption.jpg?w=1000&s=1", "address": "1340-1 Higashiozu, Ozu Ehime Prefecture", "lat": 33.530834, "lng": 132.57037, "ref_id": 7546221, "rating": 4.5, "num_reviews": 0, "website": "http://ja-jp.facebook.com/Roys-189990657798662/", "contact_phone": "+81 893-25-6005", "contact_email": null, "status": 1, "source_type": 1, "numberReviews": 2}, {"name": "Taiki Market Aitaina", "type": "restaurant", "image": "https://dynamic-media-cdn.tripadvisor.com/media/photo-o/17/a2/fc/3a/photo2jpg.jpg?w=1000&s=1", "address": "1702-1 Higashiozu, Ozu 795-0064 Ehime Prefecture", "lat": 33.530415, "lng": 132.57356, "ref_id": 4671453, "rating": 3.5, "num_reviews": 0, "website": null, "contact_phone": "+81 893-25-6262", "contact_email": null, "status": 1, "source_type": 1, "numberReviews": 8}, {"name": "Tomeikaku", "type": "restaurant", "image": "https://dynamic-media-cdn.tripadvisor.com/media/photo-o/10/da/60/2f/photo0jpg.jpg?w=1000&s=1", "address": "2245-44 Tokunomori, Ozu Ehime Prefecture", "lat": 33.521164, "lng": 132.58662, "ref_id": 7546246, "rating": 4.5, "num_reviews": 0, "website": null, "contact_phone": "+81 893-25-1688", "contact_email": null, "status": 1, "source_type": 1, "numberReviews": 4}, {"name": "Kanogawa-So Restaurant", "type": "restaurant", "image": "https://dynamic-media-cdn.tripadvisor.com/media/photo-o/14/d4/3d/fe/caption.jpg?w=1000&s=1", "address": "588-1 Uwagawa Hijikawacho, Ozu Ehime Prefecture", "lat": 33.447746, "lng": 132.68542, "ref_id": 7546282, "rating": 4, "num_reviews": 0, "website": null, "contact_phone": "+81 893-34-2000", "contact_email": null, "status": 1, "source_type": 1, "numberReviews": 3}, {"name": "Kano Kamabokoten", "type": "restaurant", "image": "https://dynamic-media-cdn.tripadvisor.com/media/photo-o/0f/2c/03/d6/photo1jpg.jpg?w=1000&s=1", "address": "1410-1 Susaki, Yawatahama Ehime Prefecture", "lat": 33.45735, "lng": 132.42471, "ref_id": 7546784, "rating": 4.5, "num_reviews": 0, "website": "http://yawatahama-kankou.com/%e5%8f%b6%e8%92%b2%e9%89%be%e5%ba%97/", "contact_phone": "+81 894-22-1238", "contact_email": null, "status": 1, "source_type": 1, "numberReviews": 2}, {"name": "Kitahama Oshimaya", "type": "restaurant", "image": null, "address": "418 Yawatahamashinotsuginibanchigakurubaai, Yawatahama 796-0088 Ehime Prefecture", "lat": 33.461674, "lng": 132.42352, "ref_id": 4666050, "rating": 5, "num_reviews": 0, "website": null, "contact_phone": "+81 894-24-0051", "contact_email": null, "status": 1, "source_type": 1, "numberReviews": 1}, {"name": "Joyfull", "type": "restaurant", "image": "https://dynamic-media-cdn.tripadvisor.com/media/photo-o/19/e2/cb/c5/caption.jpg?w=1000&s=1", "address": "1046-3 Yunoki, Ozu Ehime Prefecture", "lat": 33.49909, "lng": 132.54716, "ref_id": 7631873, "rating": 4, "num_reviews": 0, "website": null, "contact_phone": "+81 893-59-1670", "contact_email": null, "status": 1, "source_type": 1, "numberReviews": 2}, {"name": "Ryoka Ozu", "type": "restaurant", "image": "https://dynamic-media-cdn.tripadvisor.com/media/photo-o/0b/07/9f/f5/880.jpg?w=1000&s=1", "address": "1240-2 Higashi Ozu, Ozu 795-0064 Ehime Prefecture", "lat": 33.52842, "lng": 132.56924, "ref_id": 10068973, "rating": 5, "num_reviews": 0, "website": "http://www.ryoka-ism.com/", "contact_phone": "+81 893-25-6969", "contact_email": null, "status": 1, "source_type": 1, "numberReviews": 1}, {"name": "Iroha", "type": "restaurant", "image": "https://dynamic-media-cdn.tripadvisor.com/media/photo-o/1a/6c/cd/e4/caption.jpg?w=1000&s=1", "address": "3-199 Unomachi Uwacho, Seiyo Ehime Prefecture", "lat": 33.36297, "lng": 132.51317, "ref_id": 7545772, "rating": 5, "num_reviews": 0, "website": null, "contact_phone": "+81 894-62-0171", "contact_email": null, "status": 1, "source_type": 1, "numberReviews": 1}, {"name": "Restaurant Takamatsu", "type": "restaurant", "image": "https://dynamic-media-cdn.tripadvisor.com/media/photo-o/1a/6c/e6/f6/caption.jpg?w=1000&s=1", "address": "3277-3 Uchiko, Uchiko-cho, Kita-gun 791-3301 Ehime Prefecture", "lat": 33.550297, "lng": 132.6504, "ref_id": 13028209, "rating": 5, "num_reviews": 0, "website": null, "contact_phone": "+81 893-44-3188", "contact_email": null, "status": 1, "source_type": 1, "numberReviews": 1}, {"name": "Enoki Restaurant & Cafe", "type": "restaurant", "image": "https://dynamic-media-cdn.tripadvisor.com/media/photo-o/0b/8b/75/b5/photo1jpg.jpg?w=1000&s=1", "address": "139-3 Hiraoka Ko, Uchiko-cho, Kita-gun 795-0303 Ehime Prefecture", "lat": 33.532665, "lng": 132.65897, "ref_id": 4672290, "rating": 4.5, "num_reviews": 0, "website": null, "contact_phone": "+81 893-44-3588", "contact_email": null, "status": 1, "source_type": 1, "numberReviews": 2}, {"name": "Sakami Kigetsudo", "type": "restaurant", "image": "https://dynamic-media-cdn.tripadvisor.com/media/photo-o/19/31/68/9f/caption.jpg?w=1000&s=1", "address": "1094 Uchiko Ko, Uchiko-cho, Kita-gun 791-3301 Ehime Prefecture", "lat": 33.555817, "lng": 132.68457, "ref_id": 13028219, "rating": 5, "num_reviews": 0, "website": null, "contact_phone": "+81 893-44-2865", "contact_email": null, "status": 1, "source_type": 1, "numberReviews": 1}, {"name": "Fuku Sushi", "type": "restaurant", "image": null, "address": "386 Nagahamako, Ozu Ehime Prefecture", "lat": 33.613358, "lng": 132.4805, "ref_id": 7546261, "rating": -1, "num_reviews": 0, "website": null, "contact_phone": "+81 893-52-2708", "contact_email": null, "status": 1, "source_type": 1, "numberReviews": 0}, {"name": "Teppanyaki Miyuki", "type": "restaurant", "image": null, "address": "3-339 Uwacho, Unomachi, Seiyo 797-0015 Ehime Prefecture", "lat": 33.363014, "lng": 132.51196, "ref_id": 4667134, "rating": -1, "num_reviews": 0, "website": null, "contact_phone": "+81 894-62-3608", "contact_email": null, "status": 1, "source_type": 1, "numberReviews": 0}, {"name": "Soan", "type": "restaurant", "image": null, "address": "93 Saiwaicho, Ino-cho, Agawa-gun Kochi Prefecture", "lat": 33.54768, "lng": 133.42232, "ref_id": 7482785, "rating": 3, "num_reviews": 0, "website": null, "contact_phone": "+81 88-892-3684", "contact_email": null, "status": 1, "source_type": 1, "numberReviews": 1}, {"name": "Andotei", "type": "restaurant", "image": null, "address": "1469-8, Ino-cho, Agawa-gun Kochi Prefecture", "lat": 33.548462, "lng": 133.43207, "ref_id": 7482796, "rating": 3, "num_reviews": 0, "website": null, "contact_phone": "+81 88-892-0559", "contact_email": null, "status": 1, "source_type": 1, "numberReviews": 1}, {"name": "Tokutoku Kochi Asahi", "type": "restaurant", "image": null, "address": "226 Higashi Kawahara, Hongucho, Kochi 780-0945 Kochi Prefecture", "lat": 33.55568, "lng": 133.50032, "ref_id": 9615183, "rating": 3, "num_reviews": 0, "website": null, "contact_phone": "+81 88-828-8388", "contact_email": null, "status": 1, "source_type": 1, "numberReviews": 2}, {"name": "Suzuki Shokudo", "type": "restaurant", "image": "https://dynamic-media-cdn.tripadvisor.com/media/photo-o/05/d5/a0/32/suzuki-shokudo.jpg?w=1000&s=1", "address": "199-3 Joyamacho Corp Shiroyama 1F, Kochi 780-8037 Kochi Prefecture", "lat": 33.550083, "lng": 133.511, "ref_id": 6053154, "rating": 3, "num_reviews": 0, "website": null, "contact_phone": "+81 88-834-3323", "contact_email": null, "status": 1, "source_type": 1, "numberReviews": 2}, {"name": "Kochi Keibajo Maruman", "type": "restaurant", "image": null, "address": "2000 Nagahamamiyata, Kochi Kochi Prefecture", "lat": 33.504852, "lng": 133.53049, "ref_id": 7450751, "rating": -1, "num_reviews": 0, "website": null, "contact_phone": "+81 88-841-5123", "contact_email": null, "status": 1, "source_type": 1, "numberReviews": 0}, {"name": "Yakiniku Izakaya Hiro", "type": "restaurant", "image": null, "address": "133-4 Nii, Kokubunjicho, Takamatsu 769-0101 Kagawa Prefecture", "lat": 34.305786, "lng": 133.97586, "ref_id": 9615128, "rating": 4, "num_reviews": 0, "website": null, "contact_phone": "+81 87-874-2919", "contact_email": null, "status": 1, "source_type": 1, "numberReviews": 1}, {"name": "Kokubunji Umakabo Hanten", "type": "restaurant", "image": "https://dynamic-media-cdn.tripadvisor.com/media/photo-o/12/50/6b/e5/caption.jpg?w=1000&s=1", "address": "3-1 Kokubunjicho Nii, Takamatsu 769-0101 Kagawa Prefecture", "lat": 34.311054, "lng": 133.98087, "ref_id": 4903892, "rating": 3.5, "num_reviews": 0, "website": null, "contact_phone": "+81 87-874-8433", "contact_email": null, "status": 1, "source_type": 1, "numberReviews": 2}, {"name": "Juno", "type": "restaurant", "image": "https://dynamic-media-cdn.tripadvisor.com/media/photo-o/0b/69/62/4d/caption.jpg?w=1000&s=1", "address": "12-4 Nii, Kokubunjicho, Takamatsu 769-0101 Kagawa Prefecture", "lat": 34.31026, "lng": 133.97858, "ref_id": 10345355, "rating": 3.5, "num_reviews": 0, "website": null, "contact_phone": "+81 87-874-6166", "contact_email": null, "status": 1, "source_type": 1, "numberReviews": 2}, {"name": "Ramen Kawahiro", "type": "restaurant", "image": "https://dynamic-media-cdn.tripadvisor.com/media/photo-o/0c/a5/eb/88/caption.jpg?w=1000&s=1", "address": "1648-8 Danshicho, Takamatsu 761-8041 Kagawa Prefecture", "lat": 34.30602, "lng": 133.99704, "ref_id": 4901837, "rating": 3.5, "num_reviews": 0, "website": null, "contact_phone": "+81 87-885-3508", "contact_email": null, "status": 1, "source_type": 1, "numberReviews": 2}, {"name": "Yakitori Pochi", "type": "restaurant", "image": "https://dynamic-media-cdn.tripadvisor.com/media/photo-o/0c/37/32/15/caption.jpg?w=1000&s=1", "address": "4-4 Togiyamachi Aya Bldg. 1F, Takamatsu 760-0026 Kagawa Prefecture", "lat": 34.345364, "lng": 134.04752, "ref_id": 4901546, "rating": 3.5, "num_reviews": 0, "website": null, "contact_phone": "+81 87-851-3662", "contact_email": null, "status": 1, "source_type": 1, "numberReviews": 2}, {"name": "Soba Tachibana", "type": "restaurant", "image": null, "address": "899-12 Ono, Kagawacho, Takamatsu 761-1701 Kagawa Prefecture", "lat": 34.264473, "lng": 134.02786, "ref_id": 9673514, "rating": 4, "num_reviews": 0, "website": null, "contact_phone": "+81 87-885-7318", "contact_email": null, "status": 1, "source_type": 1, "numberReviews": 1}, {"name": "Katsuzo Higashi Bypass", "type": "restaurant", "image": "https://dynamic-media-cdn.tripadvisor.com/media/photo-o/0b/d7/75/71/dsc-9903-largejpg.jpg?w=1000&s=1", "address": "2167-7 Fuseishicho, Takamatsu 761-8071 Kagawa Prefecture", "lat": 34.30718, "lng": 134.05847, "ref_id": 9650431, "rating": 4, "num_reviews": 0, "website": null, "contact_phone": "+81 87-815-1511", "contact_email": null, "status": 1, "source_type": 1, "numberReviews": 1}, {"name": "Mikawaya", "type": "restaurant", "image": null, "address": "1-13 Hyakken-Machi, Takamatsu Kagawa Prefecture", "lat": 34.345383, "lng": 134.05164, "ref_id": 7450199, "rating": 4, "num_reviews": 0, "website": null, "contact_phone": "+81 87-822-3669", "contact_email": null, "status": 1, "source_type": 1, "numberReviews": 1}, {"name": "Kuishinbo Tea House Rokuemon Rainbow", "type": "restaurant", "image": "https://dynamic-media-cdn.tripadvisor.com/media/photo-o/04/9f/fe/0e/kuishinbo-tea-house-rokuemon.jpg?w=1000&s=1", "address": "1548-25 Tahi Shimomachi, Takamatsu 761-8075 Kagawa Prefecture", "lat": 34.301334, "lng": 134.0593, "ref_id": 4898890, "rating": 4, "num_reviews": 0, "website": null, "contact_phone": "+81 87-868-2566", "contact_email": null, "status": 1, "source_type": 1, "numberReviews": 1}, {"name": "Sumibiyaki Dining Wataminchi Takamatsu Minami Shinmachi", "type": "restaurant", "image": null, "address": "12-5 Minami Shimmachi Takaraya Bldg. 3F, Takamatsu 760-0051 Kagawa Prefecture", "lat": 34.34106, "lng": 134.04964, "ref_id": 9615180, "rating": 4, "num_reviews": 0, "website": null, "contact_phone": "+81 50-5788-1812", "contact_email": null, "status": 1, "source_type": 1, "numberReviews": 1}, {"name": "Bincho Ogiya Takamatsu Higashi-Yamasaki", "type": "restaurant", "image": null, "address": "67-1 Aza Nishihara, Higashi Yamasakicho, Takamatsu 761-0312 Kagawa Prefecture", "lat": 34.304016, "lng": 134.09105, "ref_id": 9628543, "rating": 3.5, "num_reviews": 0, "website": null, "contact_phone": "+81 87-847-1191", "contact_email": null, "status": 1, "source_type": 1, "numberReviews": 2}, {"name": "Honetsukidori Azuma", "type": "restaurant", "image": null, "address": "2-17-23 Ritsurincho, Takamatsu Kagawa Prefecture", "lat": 34.329514, "lng": 134.04903, "ref_id": 10196393, "rating": 4, "num_reviews": 0, "website": null, "contact_phone": "+81 87-812-5955", "contact_email": null, "status": 1, "source_type": 1, "numberReviews": 1}, {"name": "Udon Asahi", "type": "restaurant", "image": "https://dynamic-media-cdn.tripadvisor.com/media/photo-o/0b/d9/d5/d2/dsc-9970-largejpg.jpg?w=1000&s=1", "address": "3-4-5 Fukuokacho, Takamatsu 760-0066 Kagawa Prefecture", "lat": 34.346565, "lng": 134.07138, "ref_id": 8474448, "rating": 3.5, "num_reviews": 0, "website": null, "contact_phone": "+81 87-822-7063", "contact_email": null, "status": 1, "source_type": 1, "numberReviews": 3}, {"name": "Kodawari Tonkatsu Yamakatsu Yajima", "type": "restaurant", "image": null, "address": "1651-1 Kasugacho, Takamatsu 761-0101 Kagawa Prefecture", "lat": 34.33954, "lng": 134.09119, "ref_id": 9650485, "rating": 3.5, "num_reviews": 0, "website": null, "contact_phone": "+81 87-841-0655", "contact_email": null, "status": 1, "source_type": 1, "numberReviews": 4}, {"name": "Torikara Torimasa", "type": "restaurant", "image": null, "address": "1-4-2 Tokiwacho, Takamatsu 760-0054 Kagawa Prefecture", "lat": 34.33884, "lng": 134.0503, "ref_id": 10298469, "rating": 4, "num_reviews": 0, "website": null, "contact_phone": "+81 90-7788-4114", "contact_email": null, "status": 1, "source_type": 1, "numberReviews": 1}, {"name": "Kurumaya Josanjima", "type": "restaurant", "image": null, "address": "1-17-6 Nakajo Sanjimacho, Tokushima 770-0813 Qu\u00e2\u0323n Tokushima", "lat": 34.08023, "lng": 134.56001, "ref_id": 9650844, "rating": 4.5, "num_reviews": 0, "website": null, "contact_phone": "+81 88-654-5333", "contact_email": null, "status": 1, "source_type": 1, "numberReviews": 3}, {"name": "Sohonke Hashimoto Sogo", "type": "restaurant", "image": "https://dynamic-media-cdn.tripadvisor.com/media/photo-o/0f/ff/e6/4a/caption_rotated_90.jpg?w=1000&s=1", "address": "1-5 Terashima Honcho Nishi Sogo Tokushima B1F, Tokushima 770-0831 Qu\u00e2\u0323n Tokushima", "lat": 34.07343, "lng": 134.54951, "ref_id": 9673789, "rating": 3.5, "num_reviews": 0, "website": "http://www.sogo-seibu.jp/tokushima/kakutensublist/", "contact_phone": "+81 88-625-6287", "contact_email": null, "status": 1, "source_type": 1, "numberReviews": 6}, {"name": "Inoue", "type": "restaurant", "image": "https://dynamic-media-cdn.tripadvisor.com/media/photo-o/0c/fa/cd/68/caption.jpg?w=1000&s=1", "address": "163 Hiraishi Wakamiya, Kawauchicho, Tokushima 771-0137 Qu\u00e2\u0323n Tokushima", "lat": 34.10358, "lng": 134.58224, "ref_id": 9650784, "rating": 4, "num_reviews": 0, "website": null, "contact_phone": "+81 88-678-4157", "contact_email": null, "status": 1, "source_type": 1, "numberReviews": 3}, {"name": "Wafuku Dining Ren", "type": "restaurant", "image": null, "address": "13-3 Higashinakatomi Aizumi-Cho, Aizumi-cho, Itano-gun 771-1220 Qu\u00e2\u0323n Tokushima", "lat": 34.12382, "lng": 134.47836, "ref_id": 4907636, "rating": 5, "num_reviews": 0, "website": "http://d-ren.com/", "contact_phone": "+81 88-692-0977", "contact_email": null, "status": 1, "source_type": 1, "numberReviews": 2}, {"name": "Shokuraku-En", "type": "restaurant", "image": null, "address": "1-8 Minaminakanocho, Tokushima Qu\u00e2\u0323n Tokushima", "lat": 34.066013, "lng": 134.55, "ref_id": 7451279, "rating": 4, "num_reviews": 0, "website": null, "contact_phone": "+81 88-655-1251", "contact_email": null, "status": 1, "source_type": 1, "numberReviews": 3}, {"name": "Hyakko", "type": "restaurant", "image": "https://dynamic-media-cdn.tripadvisor.com/media/photo-o/0e/e2/46/7e/caption.jpg?w=1000&s=1", "address": "2-2 Aza Higashi Nakazu Nishi Nakatomi, Itano-cho, Itano-gun 779-0119 Qu\u00e2\u0323n Tokushima", "lat": 34.12522, "lng": 134.46648, "ref_id": 10013898, "rating": 4.5, "num_reviews": 0, "website": null, "contact_phone": "+81 88-677-9419", "contact_email": null, "status": 1, "source_type": 1, "numberReviews": 2}, {"name": "Mercatino Delcuore", "type": "restaurant", "image": "https://dynamic-media-cdn.tripadvisor.com/media/photo-o/1a/17/84/e0/img-20191120-205858-largejpg.jpg?w=1000&s=1", "address": "121-1 Okinoshima Kawauchicho, Tokushima Qu\u00e2\u0323n Tokushima", "lat": 34.104076, "lng": 134.57513, "ref_id": 7451061, "rating": 4, "num_reviews": 0, "website": null, "contact_phone": "+81 88-624-9100", "contact_email": null, "status": 1, "source_type": 1, "numberReviews": 4}, {"name": "Isuzu", "type": "restaurant", "image": null, "address": "1-52 Akitamachi, Tokushima 770-0934 Qu\u00e2\u0323n Tokushima", "lat": 34.06543, "lng": 134.54987, "ref_id": 9628303, "rating": 4.5, "num_reviews": 0, "website": null, "contact_phone": "+81 88-623-3108", "contact_email": null, "status": 1, "source_type": 1, "numberReviews": 2}, {"name": "Coco Ichibanya Tokushima Shimada", "type": "restaurant", "image": "https://dynamic-media-cdn.tripadvisor.com/media/photo-o/04/9f/ca/ab/coco-ichibanya-tokushima.jpg?w=1000&s=1", "address": "4-7-3 Nakashimadacho, Tokushima 770-0052 Qu\u00e2\u0323n Tokushima", "lat": 34.08104, "lng": 134.50876, "ref_id": 4896649, "rating": 4, "num_reviews": 0, "website": null, "contact_phone": "+81 88-634-0031", "contact_email": null, "status": 1, "source_type": 1, "numberReviews": 7}, {"name": "Masala", "type": "restaurant", "image": "https://dynamic-media-cdn.tripadvisor.com/media/photo-o/0e/bd/3d/2f/caption.jpg?w=1000&s=1", "address": "1-61 Terashimahoncho Nishi Tokushima Station Clement Plaza Restaurant-gai, Tokushima 770-0831 Qu\u00e2\u0323n Tokushima", "lat": 34.074898, "lng": 134.54997, "ref_id": 12195310, "rating": 3.5, "num_reviews": 0, "website": null, "contact_phone": "+81 88-654-7122", "contact_email": null, "status": 1, "source_type": 1, "numberReviews": 6}, {"name": "Waraya 88 Tokushima Ekimae", "type": "restaurant", "image": "https://dynamic-media-cdn.tripadvisor.com/media/photo-o/1c/5f/26/9c/caption.jpg?w=1000&s=1", "address": "3-30 Ichibancho 1F, Tokushima 770-0833 Qu\u00e2\u0323n Tokushima", "lat": 34.07298, "lng": 134.55186, "ref_id": 20809431, "rating": 5, "num_reviews": 0, "website": "http://n058041.gorp.jp/", "contact_phone": "+81 88-678-5733", "contact_email": "waraya88.tokushima@gmail.com", "status": 1, "source_type": 1, "numberReviews": 1}, {"name": "China", "type": "restaurant", "image": null, "address": "1-64-2 Okinohama Higashi, Tokushima Qu\u00e2\u0323n Tokushima", "lat": 34.053314, "lng": 134.55522, "ref_id": 7450960, "rating": 4.5, "num_reviews": 0, "website": null, "contact_phone": "+81 88-653-6433", "contact_email": null, "status": 1, "source_type": 1, "numberReviews": 2}, {"name": "Shofuku", "type": "restaurant", "image": "https://dynamic-media-cdn.tripadvisor.com/media/photo-o/0e/36/b5/83/caption.jpg?w=1000&s=1", "address": "2-5-2 Tomidamachi, Tokushima 770-0915 Qu\u00e2\u0323n Tokushima", "lat": 34.067665, "lng": 134.54912, "ref_id": 10651434, "rating": 4.5, "num_reviews": 0, "website": null, "contact_phone": "+81 88-623-4000", "contact_email": null, "status": 1, "source_type": 1, "numberReviews": 2}, {"name": "Cafe De Soie", "type": "restaurant", "image": "https://dynamic-media-cdn.tripadvisor.com/media/photo-o/04/a0/3a/32/cafe-de-soie.jpg?w=1000&s=1", "address": "12-3 Nakamura Kitajima-Cho, Kitajima-cho, Itano-gun 771-0203 Qu\u00e2\u0323n Tokushima", "lat": 34.130547, "lng": 134.54831, "ref_id": 4896341, "rating": -1, "num_reviews": 0, "website": null, "contact_phone": "+81 88-698-2306", "contact_email": null, "status": 1, "source_type": 1, "numberReviews": 0}, {"name": "Creer Naruto", "type": "restaurant", "image": null, "address": "112-1 Narutochotosadomariura  Takasago, Naruto 772-0053 Qu\u00e2\u0323n Tokushima", "lat": 34.19762, "lng": 134.62428, "ref_id": 13790687, "rating": -1, "num_reviews": 0, "website": null, "contact_phone": "+81 88-676-3301", "contact_email": null, "status": 1, "source_type": 1, "numberReviews": 0}, {"name": "Sumitomo Sengyo", "type": "restaurant", "image": null, "address": "470 Muyacho Kurosaki, Naruto 772-0001 Qu\u00e2\u0323n Tokushima", "lat": 34.189796, "lng": 134.59743, "ref_id": 14737022, "rating": -1, "num_reviews": 0, "website": null, "contact_phone": "+81 88-686-6979", "contact_email": null, "status": 1, "source_type": 1, "numberReviews": 0}, {"name": "Handmade Udon, Naka-Naka", "type": "restaurant", "image": null, "address": "705-10 Enokise, Kawauchicho, Tokushima 771-0144 Qu\u00e2\u0323n Tokushima", "lat": 34.105335, "lng": 134.55878, "ref_id": 9615311, "rating": -1, "num_reviews": 0, "website": null, "contact_phone": "+81 88-678-2822", "contact_email": null, "status": 1, "source_type": 1, "numberReviews": 0}, {"name": "A&C Caf\u00e9 & Gallery Florence", "type": "restaurant", "image": "https://dynamic-media-cdn.tripadvisor.com/media/photo-o/04/a0/4a/ea/a-c-cafe-gallery-florence.jpg?w=1000&s=1", "address": "26-7 Nakamura Kitajima-Cho, Kitajima-cho, Itano-gun 771-0203 Qu\u00e2\u0323n Tokushima", "lat": 34.125675, "lng": 134.54817, "ref_id": 4896205, "rating": -1, "num_reviews": 0, "website": null, "contact_phone": "+81 88-698-7606", "contact_email": null, "status": 1, "source_type": 1, "numberReviews": 0}, {"name": "Saigono $1", "type": "restaurant", "image": null, "address": "133-20 Shozui Character Saiwaito, Aizumi-cho, Itano-gun 771-1271 Qu\u00e2\u0323n Tokushima", "lat": 34.124332, "lng": 134.51892, "ref_id": 13266890, "rating": -1, "num_reviews": 0, "website": null, "contact_phone": "+81 88-641-3339", "contact_email": null, "status": 1, "source_type": 1, "numberReviews": 0}, {"name": "Farm to Table", "type": "restaurant", "image": null, "address": "125 Muyacho Kurosaki Matsushima The Naruto Base, Naruto 772-0001 Qu\u00e2\u0323n Tokushima", "lat": 34.18662, "lng": 134.59889, "ref_id": 14737025, "rating": -1, "num_reviews": 0, "website": null, "contact_phone": "+81 88-602-8882", "contact_email": null, "status": 1, "source_type": 1, "numberReviews": 0}, {"name": "Megumi Wafu Karaoke Dojo", "type": "restaurant", "image": null, "address": "4-6 Tainohama Character Nakasu, Kitajima-cho, Itano-gun 771-0204 Qu\u00e2\u0323n Tokushima", "lat": 34.11936, "lng": 134.55219, "ref_id": 13255441, "rating": -1, "num_reviews": 0, "website": null, "contact_phone": "+81 88-698-5163", "contact_email": null, "status": 1, "source_type": 1, "numberReviews": 0}, {"name": "Imai Dininig Room", "type": "restaurant", "image": null, "address": "62-1 Otsuchoyagura Character RokunoEtsu, Naruto 772-0035 Qu\u00e2\u0323n Tokushima", "lat": 34.15689, "lng": 134.5929, "ref_id": 13266847, "rating": -1, "num_reviews": 0, "website": null, "contact_phone": "+81 88-686-1328", "contact_email": null, "status": 1, "source_type": 1, "numberReviews": 0}, {"name": "Yoshida Shokudo", "type": "restaurant", "image": null, "address": "44-1 Minamihama Ebisumae Higashi Muyacho, Naruto Qu\u00e2\u0323n Tokushima", "lat": 34.175156, "lng": 134.60272, "ref_id": 7433278, "rating": -1, "num_reviews": 0, "website": null, "contact_phone": "+81 88-686-4030", "contact_email": null, "status": 1, "source_type": 1, "numberReviews": 0}, {"name": "Ushio Shokudo", "type": "restaurant", "image": null, "address": "105 Aza-Ozutsumi Muyacho Saita, Naruto Qu\u00e2\u0323n Tokushima", "lat": 34.17725, "lng": 134.60832, "ref_id": 7433303, "rating": -1, "num_reviews": 0, "website": null, "contact_phone": "+81 88-686-7265", "contact_email": null, "status": 1, "source_type": 1, "numberReviews": 0}, {"name": "Yakiniku Daimon Kuma No Dai", "type": "restaurant", "image": null, "address": "184-4 Kumanodai, Matsuyama 791-8016 Ehime Prefecture", "lat": 33.857876, "lng": 132.74838, "ref_id": 9614934, "rating": -1, "num_reviews": 0, "website": null, "contact_phone": "+81 89-923-1954", "contact_email": null, "status": 1, "source_type": 1, "numberReviews": 0}, {"name": "Dosanko Jr Matsuyama Ekimae", "type": "restaurant", "image": "https://dynamic-media-cdn.tripadvisor.com/media/photo-o/09/ce/f6/81/photo1jpg.jpg?w=1000&s=1", "address": "2-9-21 Otemachi, Matsuyama Ehime Prefecture", "lat": 33.840664, "lng": 132.75285, "ref_id": 7449686, "rating": 2, "num_reviews": 0, "website": null, "contact_phone": "+81 89-931-2834", "contact_email": null, "status": 1, "source_type": 1, "numberReviews": 4}, {"name": "Noodle Bar Kamogawa", "type": "restaurant", "image": "https://dynamic-media-cdn.tripadvisor.com/media/photo-o/19/50/1e/e1/contest-2300-japanese.jpg?w=1000&s=1", "address": "2-1-13 Kamogawa 1F Yamamoto Building, Matsuyama 791-8004 Ehime Prefecture", "lat": 33.856236, "lng": 132.75993, "ref_id": 13787633, "rating": -1, "num_reviews": 0, "website": "", "contact_phone": "+81 89-924-3833", "contact_email": null, "status": 1, "source_type": 1, "numberReviews": 0}, {"name": "Yakiniku Haramiya", "type": "restaurant", "image": null, "address": "8-15 Tsukiyamacho, Matsuyama 790-0864 Ehime Prefecture", "lat": 33.83799, "lng": 132.77843, "ref_id": 13086270, "rating": -1, "num_reviews": 0, "website": null, "contact_phone": "+81 89-968-1682", "contact_email": null, "status": 1, "source_type": 1, "numberReviews": 0}, {"name": "Japanese Restaurant Tokunaga", "type": "restaurant", "image": null, "address": "2-1-2 Nibancho Coronet Nibancho, Matsuyama 790-0002 Ehime Prefecture", "lat": 33.83907, "lng": 132.7715, "ref_id": 9614985, "rating": -1, "num_reviews": 0, "website": null, "contact_phone": "+81 89-987-4770", "contact_email": null, "status": 1, "source_type": 1, "numberReviews": 0}, {"name": "Karaoke Station Chika", "type": "restaurant", "image": null, "address": "2-20-35 Furumitsu, Matsuyama 791-8067 Ehime Prefecture", "lat": 33.861195, "lng": 132.72765, "ref_id": 14737371, "rating": -1, "num_reviews": 0, "website": null, "contact_phone": "+81 89-953-2250", "contact_email": null, "status": 1, "source_type": 1, "numberReviews": 0}, {"name": "Dog & Cafe Buddy", "type": "restaurant", "image": null, "address": "1-102 Tomidabashi Domudora 1F, Tokushima 770-0937 Qu\u00e2\u0323n Tokushima", "lat": 34.064552, "lng": 134.55238, "ref_id": 14736977, "rating": -1, "num_reviews": 0, "website": null, "contact_phone": "+81 88-635-2004", "contact_email": null, "status": 1, "source_type": 1, "numberReviews": 0}, {"name": "Jonetsu Ramen Jiyuken", "type": "restaurant", "image": null, "address": "1-7 Takajomachi, Tokushima Qu\u00e2\u0323n Tokushima", "lat": 34.066742, "lng": 134.5483, "ref_id": 7451168, "rating": -1, "num_reviews": 0, "website": null, "contact_phone": "+81 88-625-6606", "contact_email": null, "status": 1, "source_type": 1, "numberReviews": 0}, {"name": "Umaibo Kyota", "type": "restaurant", "image": null, "address": "2-20-3 Kuramotocho, Tokushima 770-0042 Qu\u00e2\u0323n Tokushima", "lat": 34.07766, "lng": 134.51886, "ref_id": 9673730, "rating": -1, "num_reviews": 0, "website": null, "contact_phone": "+81 88-678-9174", "contact_email": null, "status": 1, "source_type": 1, "numberReviews": 0}, {"name": "Takano", "type": "restaurant", "image": null, "address": "1-40 Akita-Machi, Tokushima 770-0934 Qu\u00e2\u0323n Tokushima", "lat": 34.065784, "lng": 134.54933, "ref_id": 13260814, "rating": -1, "num_reviews": 0, "website": null, "contact_phone": "+81 88-655-7785", "contact_email": null, "status": 1, "source_type": 1, "numberReviews": 0}, {"name": "Kakurean Mugen", "type": "restaurant", "image": null, "address": "1-33 Takajomachi Marutaira Building 2F, Tokushima 770-0922 Qu\u00e2\u0323n Tokushima", "lat": 34.06512, "lng": 134.54832, "ref_id": 14919957, "rating": -1, "num_reviews": 0, "website": null, "contact_phone": "+81 88-678-3553", "contact_email": null, "status": 1, "source_type": 1, "numberReviews": 0}, {"name": "Shimaya", "type": "restaurant", "image": null, "address": "8 Shimo Nakazu Nishizukacho, Tokushima 770-8024 Qu\u00e2\u0323n Tokushima", "lat": 34.02713, "lng": 134.55028, "ref_id": 10651431, "rating": -1, "num_reviews": 0, "website": null, "contact_phone": "+81 88-669-0806", "contact_email": null, "status": 1, "source_type": 1, "numberReviews": 0}, {"name": "Tofu Ya", "type": "restaurant", "image": null, "address": "1-22 Nakazucho, Tokushima 770-0856 Qu\u00e2\u0323n Tokushima", "lat": 34.06808, "lng": 134.55792, "ref_id": 13243536, "rating": -1, "num_reviews": 0, "website": null, "contact_phone": "+81 88-624-1028", "contact_email": null, "status": 1, "source_type": 1, "numberReviews": 0}, {"name": "Okinosu Karaoke Dojo", "type": "restaurant", "image": null, "address": "4-5-37 Kitaokinosu, Tokushima 770-0872 Qu\u00e2\u0323n Tokushima", "lat": 34.069565, "lng": 134.59465, "ref_id": 13255332, "rating": -1, "num_reviews": 0, "website": null, "contact_phone": "+81 88-664-0648", "contact_email": null, "status": 1, "source_type": 1, "numberReviews": 0}, {"name": "Dosanko Ramen Kawashima", "type": "restaurant", "image": null, "address": "167-16 Kawashimacho Kuwamura, Yoshinogawa Qu\u00e2\u0323n Tokushima", "lat": 34.065117, "lng": 134.32689, "ref_id": 7503922, "rating": -1, "num_reviews": 0, "website": null, "contact_phone": "+81 883-25-4200", "contact_email": null, "status": 1, "source_type": 1, "numberReviews": 0}, {"name": "Bar Hungloose", "type": "restaurant", "image": null, "address": "20-1 Ryogokubashi, Tokushima Qu\u00e2\u0323n Tokushima", "lat": 34.06715, "lng": 134.55003, "ref_id": 7450836, "rating": -1, "num_reviews": 0, "website": null, "contact_phone": "+81 88-623-3255", "contact_email": null, "status": 1, "source_type": 1, "numberReviews": 0}, {"name": "Peach Garden", "type": "restaurant", "image": null, "address": "116-2 Umagoe Kawabata P-chyna Cafe, Itano-cho, Itano-gun 779-0102 Qu\u00e2\u0323n Tokushima", "lat": 34.154724, "lng": 134.47888, "ref_id": 23020208, "rating": -1, "num_reviews": 0, "website": "http://peachgarden-momo.jimdofree.com/", "contact_phone": "+81 88-660-6499", "contact_email": null, "status": 1, "source_type": 1, "numberReviews": 0}, {"name": "Restaurant Juraku", "type": "restaurant", "image": null, "address": "3-55 Saiwaicho Hotel Senshukaku 10F, Tokushima 770-0847 Qu\u00e2\u0323n Tokushima", "lat": 34.069355, "lng": 134.55574, "ref_id": 10653177, "rating": -1, "num_reviews": 0, "website": null, "contact_phone": "+81 88-622-9121", "contact_email": null, "status": 1, "source_type": 1, "numberReviews": 0}, {"name": "Okonomiyaki Teppan", "type": "restaurant", "image": null, "address": "181-4 Otsubo, Hachimancho, Tokushima 770-8079 Qu\u00e2\u0323n Tokushima", "lat": 34.045647, "lng": 134.52953, "ref_id": 9650806, "rating": -1, "num_reviews": 0, "website": null, "contact_phone": "+81 88-668-5133", "contact_email": null, "status": 1, "source_type": 1, "numberReviews": 0}, {"name": "Kaechiya", "type": "restaurant", "image": null, "address": "20 Ginza, Tokushima Qu\u00e2\u0323n Tokushima", "lat": 34.06837, "lng": 134.54947, "ref_id": 7450894, "rating": -1, "num_reviews": 0, "website": null, "contact_phone": "+81 88-657-5057", "contact_email": null, "status": 1, "source_type": 1, "numberReviews": 0}, {"name": "Shiratama Saketen", "type": "restaurant", "image": null, "address": "1-12-4 Minamiyasocho, Tokushima 770-0005 Qu\u00e2\u0323n Tokushima", "lat": 34.082733, "lng": 134.53268, "ref_id": 14736897, "rating": -1, "num_reviews": 0, "website": null, "contact_phone": "+81 88-631-2893", "contact_email": null, "status": 1, "source_type": 1, "numberReviews": 0}, {"name": "Kushi Dentomita-Machi", "type": "restaurant", "image": null, "address": "2-34 Tomitacho, Tokushima Qu\u00e2\u0323n Tokushima", "lat": 34.067852, "lng": 134.54858, "ref_id": 7451144, "rating": -1, "num_reviews": 0, "website": null, "contact_phone": "+81 88-624-8933", "contact_email": null, "status": 1, "source_type": 1, "numberReviews": 0}, {"name": "Awakko", "type": "restaurant", "image": null, "address": "36-1 Higashi Nakatomi Mikazuki Hoji, Aizumi-cho, Itano-gun Qu\u00e2\u0323n Tokushima", "lat": 34.12796, "lng": 134.47748, "ref_id": 7482149, "rating": -1, "num_reviews": 0, "website": null, "contact_phone": "+81 88-692-5888", "contact_email": null, "status": 1, "source_type": 1, "numberReviews": 0}, {"name": "Izakaya Gen", "type": "restaurant", "image": null, "address": "153-8 Tainohama Aza Kaya, Kitajima-cho, Itano-gun Qu\u00e2\u0323n Tokushima", "lat": 34.116886, "lng": 134.54803, "ref_id": 7482075, "rating": -1, "num_reviews": 0, "website": null, "contact_phone": "+81 88-698-3870", "contact_email": null, "status": 1, "source_type": 1, "numberReviews": 0}, {"name": "Suzune", "type": "restaurant", "image": null, "address": "1-49-4 Sakaemachi, Tokushima 770-0921 Qu\u00e2\u0323n Tokushima", "lat": 34.065643, "lng": 134.54852, "ref_id": 9673757, "rating": -1, "num_reviews": 0, "website": null, "contact_phone": "+81 88-653-1881", "contact_email": null, "status": 1, "source_type": 1, "numberReviews": 0}, {"name": "Marusato  Taishiyu Dininig Room", "type": "restaurant", "image": null, "address": "280 Nakagirai Matsushige-Cho, Matsushige-cho, Itano-gun 771-0212 Qu\u00e2\u0323n Tokushima", "lat": 34.14409, "lng": 134.59349, "ref_id": 13246523, "rating": -1, "num_reviews": 0, "website": null, "contact_phone": "+81 88-699-2318", "contact_email": null, "status": 1, "source_type": 1, "numberReviews": 0}, {"name": "Mitsubachi", "type": "restaurant", "image": null, "address": "541-1 Hikita, Higashikagawa Kagawa Prefecture", "lat": 34.22391, "lng": 134.40413, "ref_id": 7534525, "rating": -1, "num_reviews": 0, "website": null, "contact_phone": "+81 879-33-6261", "contact_email": null, "status": 1, "source_type": 1, "numberReviews": 0}, {"name": "Kobayashi Sashiireya", "type": "restaurant", "image": null, "address": "231-6 Ohisa, Nyutacho, Tokushima 779-3133 Qu\u00e2\u0323n Tokushima", "lat": 34.043034, "lng": 134.4302, "ref_id": 9689999, "rating": -1, "num_reviews": 0, "website": null, "contact_phone": "+81 88-644-0857", "contact_email": null, "status": 1, "source_type": 1, "numberReviews": 0}, {"name": "Ippuku", "type": "restaurant", "image": null, "address": "87-2 Shimonakazu Nishizukacho, Tokushima Qu\u00e2\u0323n Tokushima", "lat": 34.033142, "lng": 134.5459, "ref_id": 7451067, "rating": -1, "num_reviews": 0, "website": null, "contact_phone": "+81 88-669-1664", "contact_email": null, "status": 1, "source_type": 1, "numberReviews": 0}, {"name": "Le Murray", "type": "restaurant", "image": null, "address": "136 Muyacho Tateiwa Shichimai, Naruto Qu\u00e2\u0323n Tokushima", "lat": 34.173073, "lng": 134.61427, "ref_id": 7433261, "rating": -1, "num_reviews": 0, "website": null, "contact_phone": "+81 88-685-7573", "contact_email": null, "status": 1, "source_type": 1, "numberReviews": 0}, {"name": "Izakaya Yasuragi", "type": "restaurant", "image": null, "address": "789-1 Minami Iwanobe, Kokufumachi, Tokushima 779-3120 Qu\u00e2\u0323n Tokushima", "lat": 34.072662, "lng": 134.49576, "ref_id": 9689995, "rating": -1, "num_reviews": 0, "website": null, "contact_phone": "+81 88-643-0213", "contact_email": null, "status": 1, "source_type": 1, "numberReviews": 0}, {"name": "Atariya", "type": "restaurant", "image": null, "address": "17 RokuBancho, Marugame 763-0026 Kagawa Prefecture", "lat": 34.28639, "lng": 133.79578, "ref_id": 15237733, "rating": -1, "num_reviews": 0, "website": null, "contact_phone": "+81 877-22-3663", "contact_email": null, "status": 1, "source_type": 1, "numberReviews": 0}, {"name": "Konserubo Takase", "type": "restaurant", "image": null, "address": "2486-1 Takasechoshimokatsuma, Mitoyo 767-0011 Kagawa Prefecture", "lat": 34.18156, "lng": 133.71678, "ref_id": 13038598, "rating": -1, "num_reviews": 0, "website": null, "contact_phone": "+81 875-73-6567", "contact_email": null, "status": 1, "source_type": 1, "numberReviews": 0}, {"name": "Yu Shokudo", "type": "restaurant", "image": null, "address": "2-367 Dokichohigashi, Marugame Kagawa Prefecture", "lat": 34.287315, "lng": 133.81377, "ref_id": 7534023, "rating": -1, "num_reviews": 0, "website": null, "contact_phone": "+81 877-24-4354", "contact_email": null, "status": 1, "source_type": 1, "numberReviews": 0}, {"name": "Hanamizuki", "type": "restaurant", "image": null, "address": "4-520 Dokichonishi, Marugame Kagawa Prefecture", "lat": 34.279404, "lng": 133.81519, "ref_id": 7534127, "rating": -1, "num_reviews": 0, "website": null, "contact_phone": "+81 877-25-3762", "contact_email": null, "status": 1, "source_type": 1, "numberReviews": 0}, {"name": "Matsumoto Shoyeido", "type": "restaurant", "image": null, "address": "2-5-32 Kyoumachi, Sakaide 762-0001 Kagawa Prefecture", "lat": 34.315315, "lng": 133.85886, "ref_id": 13038641, "rating": -1, "num_reviews": 0, "website": null, "contact_phone": "+81 877-46-2533", "contact_email": null, "status": 1, "source_type": 1, "numberReviews": 0}, {"name": "Donguri", "type": "restaurant", "image": null, "address": "3-1-4 Nakafucho, Marugame 763-0033 Kagawa Prefecture", "lat": 34.282227, "lng": 133.79637, "ref_id": 9644218, "rating": -1, "num_reviews": 0, "website": null, "contact_phone": "+81 877-24-3326", "contact_email": null, "status": 1, "source_type": 1, "numberReviews": 0}, {"name": "Fujimura Coffee Shop", "type": "restaurant", "image": null, "address": "1928-1 Hijidai Toyonakacho, Mitoyo Kagawa Prefecture", "lat": 34.16368, "lng": 133.69759, "ref_id": 7534682, "rating": -1, "num_reviews": 0, "website": null, "contact_phone": "+81 875-62-2988", "contact_email": null, "status": 1, "source_type": 1, "numberReviews": 0}, {"name": "Rakuraku", "type": "restaurant", "image": null, "address": "3-5-45 Muromachi, Sakaide Kagawa Prefecture", "lat": 34.317, "lng": 133.86118, "ref_id": 7534262, "rating": -1, "num_reviews": 0, "website": null, "contact_phone": "+81 877-46-7726", "contact_email": null, "status": 1, "source_type": 1, "numberReviews": 0}, {"name": "Deai", "type": "restaurant", "image": null, "address": "2-11-1 Honmachi, Sakaide 762-0044 Kagawa Prefecture", "lat": 34.316372, "lng": 133.85193, "ref_id": 13174900, "rating": -1, "num_reviews": 0, "website": null, "contact_phone": "+81 877-44-4749", "contact_email": null, "status": 1, "source_type": 1, "numberReviews": 0}, {"name": "Yamato Tourism Building", "type": "restaurant", "image": null, "address": "218, Kotohira-cho, Nakatado-gun 766-0002 Kagawa Prefecture", "lat": 34.187843, "lng": 133.82011, "ref_id": 13250028, "rating": -1, "num_reviews": 0, "website": null, "contact_phone": "+81 877-75-5357", "contact_email": null, "status": 1, "source_type": 1, "numberReviews": 0}, {"name": "Okachan", "type": "restaurant", "image": null, "address": "1351-1 Takuma Takumacho, Mitoyo Kagawa Prefecture", "lat": 34.219894, "lng": 133.6732, "ref_id": 7662211, "rating": -1, "num_reviews": 0, "website": null, "contact_phone": "+81 875-83-2702", "contact_email": null, "status": 1, "source_type": 1, "numberReviews": 0}, {"name": "Ikeguchi Shokudo", "type": "restaurant", "image": null, "address": "522-3 Kubaracho, Marugame Kagawa Prefecture", "lat": 34.27345, "lng": 133.80206, "ref_id": 7534097, "rating": -1, "num_reviews": 0, "website": null, "contact_phone": "+81 877-22-9150", "contact_email": null, "status": 1, "source_type": 1, "numberReviews": 0}, {"name": "Izakaya Yuho", "type": "restaurant", "image": null, "address": "79-27 Hama RokuBancho, Utazu-cho, Ayauta-gun Kagawa Prefecture", "lat": 34.30359, "lng": 133.81316, "ref_id": 7482353, "rating": -1, "num_reviews": 0, "website": null, "contact_phone": "+81 877-49-9888", "contact_email": null, "status": 1, "source_type": 1, "numberReviews": 0}, {"name": "Kitchen du", "type": "restaurant", "image": null, "address": "4-48 RokuBancho, Marugame 763-0026 Kagawa Prefecture", "lat": 34.28565, "lng": 133.7959, "ref_id": 13038567, "rating": -1, "num_reviews": 0, "website": null, "contact_phone": "+81 120-890-541", "contact_email": null, "status": 1, "source_type": 1, "numberReviews": 0}, {"name": "Kamakiri", "type": "restaurant", "image": "https://dynamic-media-cdn.tripadvisor.com/media/photo-o/1b/ec/3e/d1/caption.jpg?w=1000&s=1", "address": "Ko-46-3 Kunitacho, Kanonji 768-0040 Kagawa Prefecture", "lat": 34.112602, "lng": 133.6767, "ref_id": 7534719, "rating": 4, "num_reviews": 0, "website": "https://ja-jp.facebook.com/Kamakiri.udon/", "contact_phone": "+81 875-24-8288", "contact_email": null, "status": 1, "source_type": 1, "numberReviews": 16}, {"name": "Honba Kanakuma Mochi Fukuda", "type": "restaurant", "image": "https://dynamic-media-cdn.tripadvisor.com/media/photo-o/0b/84/07/ec/caption.jpg?w=1000&s=1", "address": "1436-2 Nagareokacho, Kanonji 768-0014 Kagawa Prefecture", "lat": 34.139038, "lng": 133.6727, "ref_id": 9620897, "rating": 4, "num_reviews": 0, "website": "http://www.kanakuma-fukuda.jp/", "contact_phone": "+81 875-25-3421", "contact_email": null, "status": 1, "source_type": 1, "numberReviews": 9}, {"name": "Teuchi Udon Umajika Toyohama Self", "type": "restaurant", "image": "https://dynamic-media-cdn.tripadvisor.com/media/photo-o/15/76/1e/1c/photo0jpg.jpg?w=1000&s=1", "address": "83-1 Toyohamacho Himehama, Kanonji 769-1601 Kagawa Prefecture", "lat": 34.084946, "lng": 133.64018, "ref_id": 6166370, "rating": 4, "num_reviews": 0, "website": "http://ja-jp.facebook.com/pages/%E6%9C%AC%E6%A0%BC%E6%89%8B%E6%89%93%E3%81%A1%E3%81%86%E3%81%A9%E3%82%93-%E3%81%86%E3%81%BE%E3%81%98%E5%AE%B6-%E8%B1%8A%E6%B5%9C%E3%82%BB%E3%83%AB%E3%83%95%E5%BA%97/337106573072291", "contact_phone": "+81 875-52-5835", "contact_email": null, "status": 1, "source_type": 1, "numberReviews": 14}, {"name": "Toyohama Service Area Outbound Food Court", "type": "restaurant", "image": "https://dynamic-media-cdn.tripadvisor.com/media/photo-o/0f/6f/9e/8d/caption.jpg?w=1000&s=1", "address": "1842-2 Minoura Toyohamacho, Kanonji 769-1600 Kagawa Prefecture", "lat": 34.053364, "lng": 133.63391, "ref_id": 9761817, "rating": 4, "num_reviews": 0, "website": "https://w-holdings.co.jp/sapa/2568.html", "contact_phone": "+81 875-52-3239", "contact_email": null, "status": 1, "source_type": 1, "numberReviews": 10}, {"name": "Gomitori", "type": "restaurant", "image": null, "address": "672-5 Matsubara, Higashikagawa Kagawa Prefecture", "lat": 34.24324, "lng": 134.36757, "ref_id": 7534540, "rating": -1, "num_reviews": 0, "website": null, "contact_phone": "+81 879-24-0558", "contact_email": null, "status": 1, "source_type": 1, "numberReviews": 0}, {"name": "Kanon", "type": "restaurant", "image": null, "address": "4268-1 Hikida, Higashikagawa 769-2901 Kagawa Prefecture", "lat": 34.2399, "lng": 134.39232, "ref_id": 9679099, "rating": -1, "num_reviews": 0, "website": null, "contact_phone": "+81 879-33-7250", "contact_email": null, "status": 1, "source_type": 1, "numberReviews": 0}, {"name": "Korean Restaurant Yakiniku Imone", "type": "restaurant", "image": null, "address": "1-63-1 Sakaemachi, Tokushima 770-0921 Qu\u00e2\u0323n Tokushima", "lat": 34.06653, "lng": 134.54654, "ref_id": 9673760, "rating": -1, "num_reviews": 0, "website": null, "contact_phone": "+81 88-624-5566", "contact_email": null, "status": 1, "source_type": 1, "numberReviews": 0}, {"name": "Kamehachi Yakitori", "type": "restaurant", "image": null, "address": "30 Aza Hirai Otera, Itano-cho, Itano-gun Qu\u00e2\u0323n Tokushima", "lat": 34.144386, "lng": 134.4661, "ref_id": 7482166, "rating": -1, "num_reviews": 0, "website": null, "contact_phone": "+81 88-672-0009", "contact_email": null, "status": 1, "source_type": 1, "numberReviews": 0}, {"name": "Nakamura Dining", "type": "restaurant", "image": null, "address": "21 Ryogokubashi Strong Bldg. 2F, Tokushima 770-0917 Qu\u00e2\u0323n Tokushima", "lat": 34.067078, "lng": 134.55003, "ref_id": 4897061, "rating": -1, "num_reviews": 0, "website": null, "contact_phone": "+81 88-626-0671", "contact_email": null, "status": 1, "source_type": 1, "numberReviews": 0}, {"name": "Takahashi Akita-Machi", "type": "restaurant", "image": null, "address": "1-48-1F Akita-Cho, Tokushima 770-0934 Qu\u00e2\u0323n Tokushima", "lat": 34.066425, "lng": 134.54942, "ref_id": 13243162, "rating": -1, "num_reviews": 0, "website": null, "contact_phone": "+81 88-622-3411", "contact_email": null, "status": 1, "source_type": 1, "numberReviews": 0}, {"name": "Ryuho", "type": "restaurant", "image": null, "address": "24-1 Uchihama, Hachimancho, Tokushima 770-8076 Qu\u00e2\u0323n Tokushima", "lat": 34.048748, "lng": 134.5429, "ref_id": 9673780, "rating": -1, "num_reviews": 0, "website": null, "contact_phone": "+81 88-668-6330", "contact_email": null, "status": 1, "source_type": 1, "numberReviews": 0}, {"name": "Aizumi Music Stage 22", "type": "restaurant", "image": null, "address": "167-14 Aza Nakano, Kasagi, Aizumicho, Aizumi-cho, Itano-gun 771-1262 Qu\u00e2\u0323n Tokushima", "lat": 34.134647, "lng": 134.50613, "ref_id": 10645522, "rating": -1, "num_reviews": 0, "website": null, "contact_phone": "+81 88-678-8901", "contact_email": null, "status": 1, "source_type": 1, "numberReviews": 0}, {"name": "Trinta", "type": "restaurant", "image": null, "address": "1-9-2 Sakaemachi, Tokushima 770-0921 Qu\u00e2\u0323n Tokushima", "lat": 34.06662, "lng": 134.54897, "ref_id": 9662934, "rating": -1, "num_reviews": 0, "website": null, "contact_phone": "+81 88-653-8508", "contact_email": null, "status": 1, "source_type": 1, "numberReviews": 0}, {"name": "Karaoke Sign Ishii", "type": "restaurant", "image": null, "address": "204 Shirotori Ishii, Ishii-cho, Myozai-gun 779-3234 Qu\u00e2\u0323n Tokushima", "lat": 34.07016, "lng": 134.45757, "ref_id": 13251859, "rating": -1, "num_reviews": 0, "website": null, "contact_phone": "+81 88-678-7481", "contact_email": null, "status": 1, "source_type": 1, "numberReviews": 0}, {"name": "Michkusa", "type": "restaurant", "image": null, "address": "620 Minamihama Higashihama, Muyacho, Naruto 772-0003 Qu\u00e2\u0323n Tokushima", "lat": 34.17623, "lng": 134.60852, "ref_id": 9626408, "rating": -1, "num_reviews": 0, "website": null, "contact_phone": "+81 88-686-4324", "contact_email": null, "status": 1, "source_type": 1, "numberReviews": 0}, {"name": "Tokushima Fresh Natsuku City", "type": "restaurant", "image": null, "address": "2-14 Higashiokisu Okisu Marine Terminal West, Tokushima 770-0873 Qu\u00e2\u0323n Tokushima", "lat": 34.05572, "lng": 134.59174, "ref_id": 19777814, "rating": -1, "num_reviews": 0, "website": null, "contact_phone": "+81 88-676-3335", "contact_email": null, "status": 1, "source_type": 1, "numberReviews": 0}, {"name": "Galantom", "type": "restaurant", "image": null, "address": "483 Muyacho Minamihama, Naruto 772-0003 Qu\u00e2\u0323n Tokushima", "lat": 34.174572, "lng": 134.60826, "ref_id": 4898972, "rating": -1, "num_reviews": 0, "website": null, "contact_phone": "+81 88-685-6600", "contact_email": null, "status": 1, "source_type": 1, "numberReviews": 0}, {"name": "Kono Chocolate Tokushima", "type": "restaurant", "image": null, "address": "175-1 Yakami Yasuto, Aizumi-cho, Itano-gun 771-1253 Qu\u00e2\u0323n Tokushima", "lat": 34.138027, "lng": 134.49588, "ref_id": 16887389, "rating": -1, "num_reviews": 0, "website": null, "contact_phone": "+81 88-637-3320", "contact_email": null, "status": 1, "source_type": 1, "numberReviews": 0}, {"name": "Tamaichi", "type": "restaurant", "image": null, "address": "14-1 Maehama Kokuwajima Muyacho, Naruto Qu\u00e2\u0323n Tokushima", "lat": 34.18063, "lng": 134.60767, "ref_id": 7672316, "rating": -1, "num_reviews": 0, "website": null, "contact_phone": "+81 88-684-0470", "contact_email": null, "status": 1, "source_type": 1, "numberReviews": 0}, {"name": "Matara", "type": "restaurant", "image": null, "address": "6-2-3 Sumiyoshi, Tokushima 770-0861 Qu\u00e2\u0323n Tokushima", "lat": 34.07584, "lng": 134.57799, "ref_id": 15239674, "rating": -1, "num_reviews": 0, "website": null, "contact_phone": "+81 88-676-3511", "contact_email": null, "status": 1, "source_type": 1, "numberReviews": 0}, {"name": "Umaimonya Tenho", "type": "restaurant", "image": null, "address": "21-4 Takafusa Aza Tsutsumishita Hikari BLD1F 5-Gou, Kitajima-cho, Itano-gun 771-0206 Qu\u00e2\u0323n Tokushima", "lat": 34.127422, "lng": 134.53246, "ref_id": 10008966, "rating": -1, "num_reviews": 0, "website": null, "contact_phone": "+81 88-698-8867", "contact_email": null, "status": 1, "source_type": 1, "numberReviews": 0}, {"name": "Pop R55", "type": "restaurant", "image": null, "address": "46-4 Sangenyacho Shimobun, Tokushima 770-8025 Qu\u00e2\u0323n Tokushima", "lat": 34.037308, "lng": 134.55223, "ref_id": 19273537, "rating": -1, "num_reviews": 0, "website": "https://www.facebook.com/POP-R55-733304786829626/", "contact_phone": "+81 70-3791-8811", "contact_email": null, "status": 1, "source_type": 1, "numberReviews": 0}, {"name": "Ma Belle", "type": "restaurant", "image": null, "address": "5-3 Konyamachi, Tokushima 770-0918 Qu\u00e2\u0323n Tokushima", "lat": 34.066696, "lng": 134.54945, "ref_id": 9662858, "rating": -1, "num_reviews": 0, "website": null, "contact_phone": "+81 88-655-6558", "contact_email": null, "status": 1, "source_type": 1, "numberReviews": 0}, {"name": "Senpuku", "type": "restaurant", "image": null, "address": "1-28 Takajomachi, Tokushima 770-0922 Qu\u00e2\u0323n Tokushima", "lat": 34.065514, "lng": 134.54834, "ref_id": 9615310, "rating": -1, "num_reviews": 0, "website": null, "contact_phone": "+81 88-623-5789", "contact_email": null, "status": 1, "source_type": 1, "numberReviews": 0}, {"name": "Karaoke Hiroba Korekara Toge", "type": "restaurant", "image": null, "address": "20 Todoroki Kushiki Kitanadacho, Naruto 771-0371 Qu\u00e2\u0323n Tokushima", "lat": 34.207737, "lng": 134.56358, "ref_id": 14736996, "rating": -1, "num_reviews": 0, "website": null, "contact_phone": "+81 88-688-2477", "contact_email": null, "status": 1, "source_type": 1, "numberReviews": 0}, {"name": "Tsurana", "type": "restaurant", "image": null, "address": "1-18 Higashisembacho, Tokushima 770-0911 Qu\u00e2\u0323n Tokushima", "lat": 34.07003, "lng": 134.54868, "ref_id": 14736997, "rating": -1, "num_reviews": 0, "website": null, "contact_phone": "+81 88-622-6785", "contact_email": null, "status": 1, "source_type": 1, "numberReviews": 0}, {"name": "Futaba", "type": "restaurant", "image": null, "address": "2-6-34 Jotocho, Tokushima 770-0862 Qu\u00e2\u0323n Tokushima", "lat": 34.074055, "lng": 134.57472, "ref_id": 20165847, "rating": -1, "num_reviews": 0, "website": null, "contact_phone": "+81 88-626-1086", "contact_email": null, "status": 1, "source_type": 1, "numberReviews": 0}, {"name": "Grill Yashiro", "type": "restaurant", "image": null, "address": "5-1 Sako Hacihbancho, Tokushima 770-0028 Qu\u00e2\u0323n Tokushima", "lat": 34.078133, "lng": 134.52287, "ref_id": 9650842, "rating": -1, "num_reviews": 0, "website": null, "contact_phone": "+81 88-652-4252", "contact_email": null, "status": 1, "source_type": 1, "numberReviews": 0}, {"name": "Tempura Tenhime", "type": "restaurant", "image": null, "address": "1-4-16 Nibancho, Matsuyama 790-0002 Ehime Prefecture", "lat": 33.839367, "lng": 132.77318, "ref_id": 17306230, "rating": -1, "num_reviews": 0, "website": null, "contact_phone": "+81 89-932-2505", "contact_email": null, "status": 1, "source_type": 1, "numberReviews": 0}, {"name": "Yakiniku Kuroushitei", "type": "restaurant", "image": null, "address": "3-4-14 Himebara Toiyacho bars, Matsuyama 791-8012 Ehime Prefecture", "lat": 33.86452, "lng": 132.75356, "ref_id": 23791347, "rating": -1, "num_reviews": 0, "website": "", "contact_phone": "+81 89-989-3666", "contact_email": null, "status": 1, "source_type": 1, "numberReviews": 0}, {"name": "Yumehime Shokudo", "type": "restaurant", "image": null, "address": "7-2-12 Sanbancho, Matsuyama Ehime Prefecture", "lat": 33.83844, "lng": 132.7573, "ref_id": 7449775, "rating": -1, "num_reviews": 0, "website": null, "contact_phone": "+81 89-932-8550", "contact_email": null, "status": 1, "source_type": 1, "numberReviews": 0}, {"name": "Himedori Izumi", "type": "restaurant", "image": null, "address": "2-11-15 Izumi Minami, Matsuyama Ehime Prefecture", "lat": 33.816998, "lng": 132.76105, "ref_id": 7449844, "rating": -1, "num_reviews": 0, "website": null, "contact_phone": "+81 89-960-0141", "contact_email": null, "status": 1, "source_type": 1, "numberReviews": 0}, {"name": "Yakyukyo No Uta Hirai", "type": "restaurant", "image": null, "address": "2272 Ko Hiraimachi, Matsuyama 791-0243 Ehime Prefecture", "lat": 33.81138, "lng": 132.8212, "ref_id": 9673394, "rating": -1, "num_reviews": 0, "website": null, "contact_phone": "+81 89-976-0223", "contact_email": null, "status": 1, "source_type": 1, "numberReviews": 0}, {"name": "Camellia", "type": "restaurant", "image": null, "address": "7-5 Minatomachi 1f, Matsuyama 790-0012 Ehime Prefecture", "lat": 33.83599, "lng": 132.75537, "ref_id": 13148381, "rating": -1, "num_reviews": 0, "website": null, "contact_phone": "+81 89-909-9339", "contact_email": null, "status": 1, "source_type": 1, "numberReviews": 0}, {"name": "Hazuki", "type": "restaurant", "image": null, "address": "1-7-1 NiBancho, Matsuyama Ehime Prefecture", "lat": 33.839836, "lng": 132.7748, "ref_id": 7449944, "rating": -1, "num_reviews": 0, "website": null, "contact_phone": "+81 89-945-3252", "contact_email": null, "status": 1, "source_type": 1, "numberReviews": 0}, {"name": "Ohisama Shokudo Ittekowai", "type": "restaurant", "image": null, "address": "9-23 Dogo Ichiman, Matsuyama 790-0844 Ehime Prefecture", "lat": 33.84916, "lng": 132.77657, "ref_id": 13787648, "rating": -1, "num_reviews": 0, "website": null, "contact_phone": "+81 89-924-5081", "contact_email": null, "status": 1, "source_type": 1, "numberReviews": 0}, {"name": "Lindsay's Dim-Sum & Cafe", "type": "restaurant", "image": null, "address": "454-22 Morimatsumachi, Matsuyama 791-1113 Ehime Prefecture", "lat": 33.788284, "lng": 132.78944, "ref_id": 4665574, "rating": -1, "num_reviews": 0, "website": null, "contact_phone": "+81 89-956-4545", "contact_email": null, "status": 1, "source_type": 1, "numberReviews": 0}, {"name": "Okonomiyaki Rokumonzen", "type": "restaurant", "image": null, "address": "6-9 Dogo Kitashiro, Matsuyama Ehime Prefecture", "lat": 33.852276, "lng": 132.77725, "ref_id": 7449604, "rating": -1, "num_reviews": 0, "website": null, "contact_phone": "+81 89-926-8864", "contact_email": null, "status": 1, "source_type": 1, "numberReviews": 0}, {"name": "Chihana", "type": "restaurant", "image": null, "address": "3-7-17 Nibancho Nibancho Complex Bldg. 2F, Matsuyama 790-0002 Ehime Prefecture", "lat": 33.83964, "lng": 132.7694, "ref_id": 13964798, "rating": -1, "num_reviews": 0, "website": null, "contact_phone": "+81 89-941-0622", "contact_email": null, "status": 1, "source_type": 1, "numberReviews": 0}, {"name": "Marimo", "type": "restaurant", "image": null, "address": "1958-1 Ushibuchi, Toon Ehime Prefecture", "lat": 33.797295, "lng": 132.84534, "ref_id": 7545883, "rating": -1, "num_reviews": 0, "website": null, "contact_phone": "+81 89-964-1415", "contact_email": null, "status": 1, "source_type": 1, "numberReviews": 0}, {"name": "Kawaguchi", "type": "restaurant", "image": null, "address": "6-2-34 Yogonaka, Matsuyama 790-0045 Ehime Prefecture", "lat": 33.81615, "lng": 132.73318, "ref_id": 9650233, "rating": -1, "num_reviews": 0, "website": null, "contact_phone": "+81 89-971-4406", "contact_email": null, "status": 1, "source_type": 1, "numberReviews": 0}, {"name": "Carpe Diem", "type": "restaurant", "image": null, "address": "346-1 Nishioka Ko, Toon 791-0205 Ehime Prefecture", "lat": 33.80202, "lng": 132.86172, "ref_id": 14737335, "rating": -1, "num_reviews": 0, "website": null, "contact_phone": "+81 89-948-4776", "contact_email": null, "status": 1, "source_type": 1, "numberReviews": 0}, {"name": "Seafood Pub Umemaru", "type": "restaurant", "image": null, "address": "2-1-8 Nibancho, Matsuyama 790-0002 Ehime Prefecture", "lat": 33.839058, "lng": 132.77185, "ref_id": 4670067, "rating": -1, "num_reviews": 0, "website": "http://umemaru.jp/", "contact_phone": "+81 89-945-7778", "contact_email": null, "status": 1, "source_type": 1, "numberReviews": 0}, {"name": "Ajian Cafe Lotus", "type": "restaurant", "image": null, "address": "4-984-1Iwaidani, Matsuyama 790-0833 Ehime Prefecture", "lat": 33.860596, "lng": 132.77673, "ref_id": 1680922, "rating": -1, "num_reviews": 0, "website": "", "contact_phone": "+81 89-911-5230", "contact_email": "", "status": 1, "source_type": 1, "numberReviews": 0}, {"name": "Hamachan", "type": "restaurant", "image": null, "address": "1-2-24 Kamogawa 1f, Matsuyama 791-8004 Ehime Prefecture", "lat": 33.87188, "lng": 132.75272, "ref_id": 9614977, "rating": -1, "num_reviews": 0, "website": null, "contact_phone": "+81 89-923-1119", "contact_email": null, "status": 1, "source_type": 1, "numberReviews": 0}, {"name": "Nipachi Okaido", "type": "restaurant", "image": "https://dynamic-media-cdn.tripadvisor.com/media/photo-o/1a/d2/0a/ac/caption.jpg?w=1000&s=1", "address": "2-1-8 Okaido 1F / 2F, Matsuyama 790-0004 Ehime Prefecture", "lat": 33.838825, "lng": 132.77017, "ref_id": 20045418, "rating": -1, "num_reviews": 0, "website": "https://yossix.co.jp/shop_search/shop/342?", "contact_phone": "+81 89-998-2289", "contact_email": null, "status": 1, "source_type": 1, "numberReviews": 0}, {"name": ".K", "type": "restaurant", "image": null, "address": "1-11-1 Nibancho Nick Nibancho Building 3F, Matsuyama 790-0002 Ehime Prefecture", "lat": 33.83959, "lng": 132.77325, "ref_id": 19930318, "rating": -1, "num_reviews": 0, "website": "", "contact_phone": "+81 89-948-8678", "contact_email": null, "status": 1, "source_type": 1, "numberReviews": 0}, {"name": "Ding Dong", "type": "restaurant", "image": null, "address": "3301-6 Kita Umemotomachi Ko, Matsuyama 791-0242 Ehime Prefecture", "lat": 33.79862, "lng": 132.84444, "ref_id": 10653897, "rating": -1, "num_reviews": 0, "website": null, "contact_phone": "+81 89-976-3077", "contact_email": null, "status": 1, "source_type": 1, "numberReviews": 0}, {"name": "Tabemono Ichiba Nagomi", "type": "restaurant", "image": null, "address": "503-1 Minamikumemachi, Matsuyama 790-0924 Ehime Prefecture", "lat": 33.81397, "lng": 132.7961, "ref_id": 9638224, "rating": -1, "num_reviews": 0, "website": null, "contact_phone": "+81 89-976-7007", "contact_email": null, "status": 1, "source_type": 1, "numberReviews": 0}, {"name": "Cafe & Dining CieL", "type": "restaurant", "image": null, "address": "6-9 Evangelical Town, Matsuyama 790-0921 Ehime Prefecture", "lat": 33.8202, "lng": 132.79625, "ref_id": 19777034, "rating": -1, "num_reviews": 0, "website": null, "contact_phone": "+81 89-909-9970", "contact_email": null, "status": 1, "source_type": 1, "numberReviews": 0}, {"name": "Kuroson", "type": "restaurant", "image": "https://dynamic-media-cdn.tripadvisor.com/media/photo-o/17/3b/a3/cb/caption.jpg?w=1000&s=1", "address": "3-4-18 Hommachi, Kochi Kochi Prefecture", "lat": 33.55842, "lng": 133.53624, "ref_id": 7674683, "rating": 4, "num_reviews": 0, "website": "http://www.kuroson.com", "contact_phone": "+81 88-873-2624", "contact_email": null, "status": 1, "source_type": 1, "numberReviews": 32}, {"name": "Nomikui Dokoro Fujinoya", "type": "restaurant", "image": "https://dynamic-media-cdn.tripadvisor.com/media/photo-o/0d/19/8e/4d/photo3jpg.jpg?w=1000&s=1", "address": "1-16-21 Minamiharimayacho, Kochi 780-0833 Kochi Prefecture", "lat": 33.558327, "lng": 133.54385, "ref_id": 4902336, "rating": 4.5, "num_reviews": 0, "website": null, "contact_phone": "+81 88-885-0015", "contact_email": null, "status": 1, "source_type": 1, "numberReviews": 18}, {"name": "Oshokujidokoro Aoki", "type": "restaurant", "image": "https://dynamic-media-cdn.tripadvisor.com/media/photo-o/1c/75/d8/ff/photo2jpg.jpg?w=1000&s=1", "address": "1-1-1 Kita Hommachi, Kochi Kochi Prefecture", "lat": 33.56482, "lng": 133.54285, "ref_id": 7450420, "rating": 4.5, "num_reviews": 0, "website": null, "contact_phone": "+81 88-875-4744", "contact_email": null, "status": 1, "source_type": 1, "numberReviews": 17}, {"name": "Uogasjhira Daikuma", "type": "restaurant", "image": "https://dynamic-media-cdn.tripadvisor.com/media/photo-o/08/64/c9/54/caption.jpg?w=1000&s=1", "address": "4-9 Nijudaimachi Metropolitan Bldg. 1 To 2F, Kochi 780-0843 Kochi Prefecture", "lat": 33.56283, "lng": 133.54019, "ref_id": 4903398, "rating": 4.5, "num_reviews": 0, "website": "http://daikuma.co.jp/kochi/p_004/", "contact_phone": "+81 88-802-2177", "contact_email": null, "status": 1, "source_type": 1, "numberReviews": 20}, {"name": "Imadoki Yasubee", "type": "restaurant", "image": "https://dynamic-media-cdn.tripadvisor.com/media/photo-o/1b/3e/48/4c/caption.jpg?w=1000&s=1", "address": "2-4-15 Harimayacho, Kochi 780-0822 Kochi Prefecture", "lat": 33.562042, "lng": 133.5439, "ref_id": 4897761, "rating": 4, "num_reviews": 0, "website": "http://mfc-group.jp/yasube/", "contact_phone": "+81 88-885-7762", "contact_email": null, "status": 1, "source_type": 1, "numberReviews": 24}, {"name": "Tosaichiba", "type": "restaurant", "image": "https://dynamic-media-cdn.tripadvisor.com/media/photo-o/0a/fc/48/c5/caption.jpg?w=1000&s=1", "address": "1-3-11 Harimayacho, Kochi 780-0822 Kochi Prefecture", "lat": 33.560974, "lng": 133.54239, "ref_id": 4900126, "rating": 3.5, "num_reviews": 0, "website": "http://www7a.biglobe.ne.jp/~hayakawa_c/tosaichi.htm", "contact_phone": "+81 88-872-0039", "contact_email": null, "status": 1, "source_type": 1, "numberReviews": 38}, {"name": "Wasan Obiya Kansuke", "type": "restaurant", "image": "https://dynamic-media-cdn.tripadvisor.com/media/photo-o/0b/bf/81/42/caption.jpg?w=1000&s=1", "address": "2-2-15 Obiyamachi, Kochi 780-0841 Kochi Prefecture", "lat": 33.560368, "lng": 133.53651, "ref_id": 1951065, "rating": 4, "num_reviews": 0, "website": null, "contact_phone": "+81 88-823-4180", "contact_email": "", "status": 1, "source_type": 1, "numberReviews": 18}, {"name": "Robatayaki Senju", "type": "restaurant", "image": "https://dynamic-media-cdn.tripadvisor.com/media/photo-o/12/99/d2/80/robatayaki-senju.jpg?w=1000&s=1", "address": "1-3-47 Okawasuji, Kochi 780-0052 Kochi Prefecture", "lat": 33.56423, "lng": 133.54121, "ref_id": 7376864, "rating": 4, "num_reviews": 0, "website": null, "contact_phone": "+81 88-823-7769", "contact_email": null, "status": 1, "source_type": 1, "numberReviews": 19}, {"name": "Orankuya Honten", "type": "restaurant", "image": "https://dynamic-media-cdn.tripadvisor.com/media/photo-o/1c/99/b1/1d/2002.jpg?w=1000&s=1", "address": "2-1-8 Harimayacho, Kochi 780-0822 Kochi Prefecture", "lat": 33.56136, "lng": 133.54257, "ref_id": 4898074, "rating": 4, "num_reviews": 0, "website": "http://orankuya.jp/honten/", "contact_phone": "+81 88-822-4334", "contact_email": null, "status": 1, "source_type": 1, "numberReviews": 42}, {"name": "Sushidokoro Sugoroku", "type": "restaurant", "image": "https://dynamic-media-cdn.tripadvisor.com/media/photo-o/18/c3/1a/29/photo0jpg.jpg?w=1000&s=1", "address": "2-4-11 Harimayacho, Kochi 780-0822 Kochi Prefecture", "lat": 33.56155, "lng": 133.54353, "ref_id": 4907903, "rating": 5, "num_reviews": 0, "website": "http://www.facebook.com/ShouSiChusugoroku", "contact_phone": "+81 88-884-4569", "contact_email": null, "status": 1, "source_type": 1, "numberReviews": 10}, {"name": "Tosa No Igosso Kameji", "type": "restaurant", "image": "https://dynamic-media-cdn.tripadvisor.com/media/photo-o/1a/64/cf/ce/caption.jpg?w=1000&s=1", "address": "2-1-13 Obiya-Machi, Kochi Kochi Prefecture", "lat": 33.55961, "lng": 133.53679, "ref_id": 7450630, "rating": 4, "num_reviews": 0, "website": "http://myojinmaru.jp/", "contact_phone": "+81 88-821-9814", "contact_email": null, "status": 1, "source_type": 1, "numberReviews": 27}, {"name": "Baffone", "type": "restaurant", "image": "https://dynamic-media-cdn.tripadvisor.com/media/photo-o/15/0d/6d/b4/img-20181015-1659231.jpg?w=1000&s=1", "address": "1-2-10 Obiyamachi Sansui Bldg., Kochi 780-0841 Kochi Prefecture", "lat": 33.56151, "lng": 133.542, "ref_id": 6599044, "rating": 4.5, "num_reviews": 0, "website": "https://www.facebook.com/BarBaffone/", "contact_phone": "+81 88-822-3884", "contact_email": null, "status": 1, "source_type": 1, "numberReviews": 14}, {"name": "Tosaryori Tatakitei", "type": "restaurant", "image": "https://dynamic-media-cdn.tripadvisor.com/media/photo-o/13/54/ac/e0/photo2jpg.jpg?w=1000&s=1", "address": "3-1-12 Harimayacho 1F Rock Building, Kochi 780-0822 Kochi Prefecture", "lat": 33.562935, "lng": 133.54276, "ref_id": 4699741, "rating": 4, "num_reviews": 0, "website": "http://tatakiya.jp/", "contact_phone": "+81 88-824-0018", "contact_email": null, "status": 1, "source_type": 1, "numberReviews": 18}, {"name": "Choshokabe Shikoku", "type": "restaurant", "image": "https://dynamic-media-cdn.tripadvisor.com/media/photo-o/15/7c/e8/c5/20181124-145113-largejpg.jpg?w=1000&s=1", "address": "1-13-17 Obiyamachi, Kochi 780-0841 Kochi Prefecture", "lat": 33.560406, "lng": 133.53801, "ref_id": 4904441, "rating": 4, "num_reviews": 0, "website": "http://chousokabe.owst.jp/", "contact_phone": "+81 88-855-3557", "contact_email": null, "status": 1, "source_type": 1, "numberReviews": 30}, {"name": "Irish Pub Amontillado", "type": "restaurant", "image": "https://dynamic-media-cdn.tripadvisor.com/media/photo-o/11/10/90/99/photo0jpg.jpg?w=1000&s=1", "address": "1-5-2 Obiyamachi 1f, 2F, Kochi 780-0841 Kochi Prefecture", "lat": 33.56106, "lng": 133.54146, "ref_id": 4897551, "rating": 4.5, "num_reviews": 0, "website": "https://ja-jp.facebook.com/IrishpubAmo/", "contact_phone": "+81 88-875-0599", "contact_email": "irishpub-amo@snow.ocn.ne.jp", "status": 1, "source_type": 1, "numberReviews": 13}, {"name": "5019 Premium Factory", "type": "restaurant", "image": "https://dynamic-media-cdn.tripadvisor.com/media/photo-o/1a/55/99/62/caption.jpg?w=1000&s=1", "address": "Obiyamachi 1-10-21, Kochi 780-0841 Kochi Prefecture", "lat": 33.56065, "lng": 133.54042, "ref_id": 3322392, "rating": 4, "num_reviews": 0, "website": "http://5019-premium.site/", "contact_phone": "+81 88-872-5019", "contact_email": null, "status": 1, "source_type": 1, "numberReviews": 26}, {"name": "Tosashu Bar", "type": "restaurant", "image": "https://dynamic-media-cdn.tripadvisor.com/media/photo-o/16/42/55/a2/photo3jpg.jpg?w=1000&s=1", "address": "1-9-5 Otesuji 1F Jiyuken Bar, Kochi 780-0842 Kochi Prefecture", "lat": 33.56111, "lng": 133.53867, "ref_id": 7717779, "rating": 4, "num_reviews": 0, "website": null, "contact_phone": "+81 88-823-3316", "contact_email": null, "status": 1, "source_type": 1, "numberReviews": 13}, {"name": "Restaurant Arbre", "type": "restaurant", "image": "https://dynamic-media-cdn.tripadvisor.com/media/photo-o/09/3e/18/10/caption.jpg?w=1000&s=1", "address": "4200-6 Godaisan, Kochi Kochi Prefecture", "lat": 33.549, "lng": 133.57866, "ref_id": 7635085, "rating": 4.5, "num_reviews": 0, "website": "http://www.makino.or.jp/", "contact_phone": "+81 88-882-0410", "contact_email": null, "status": 1, "source_type": 1, "numberReviews": 10}, {"name": "Coqd'Or", "type": "restaurant", "image": "https://dynamic-media-cdn.tripadvisor.com/media/photo-o/16/d6/25/1e/caption.jpg?w=1000&s=1", "address": "1-13-13 Obiyamachi, Kochi Kochi Prefecture", "lat": 33.560024, "lng": 133.53818, "ref_id": 7450467, "rating": 4.5, "num_reviews": 0, "website": null, "contact_phone": "+81 88-872-0745", "contact_email": null, "status": 1, "source_type": 1, "numberReviews": 10}, {"name": "Tosa No Ippu", "type": "restaurant", "image": "https://dynamic-media-cdn.tripadvisor.com/media/photo-o/19/eb/72/ac/caption.jpg?w=1000&s=1", "address": "1-6-1 Harimayacho, Kochi 780-0822 Kochi Prefecture", "lat": 33.560265, "lng": 133.5438, "ref_id": 6226538, "rating": 4, "num_reviews": 0, "website": "http://www.ipphu.com/", "contact_phone": "+81 88-885-9640", "contact_email": null, "status": 1, "source_type": 1, "numberReviews": 17}, {"name": "Nonbee Yatai", "type": "restaurant", "image": "https://dynamic-media-cdn.tripadvisor.com/media/photo-o/0f/b9/43/ed/photo0jpg.jpg?w=1000&s=1", "address": "1-8-14 Obiya-Machi, Kochi Kochi Prefecture", "lat": 33.561466, "lng": 133.5407, "ref_id": 7450614, "rating": 4, "num_reviews": 0, "website": null, "contact_phone": "+81 88-875-1716", "contact_email": null, "status": 1, "source_type": 1, "numberReviews": 20}, {"name": "Murotoya Jiro", "type": "restaurant", "image": "https://dynamic-media-cdn.tripadvisor.com/media/photo-o/19/e3/21/3f/photo0jpg.jpg?w=1000&s=1", "address": "1-13-24 Obiyamachi, Kochi 780-0841 Kochi Prefecture", "lat": 33.56047, "lng": 133.53886, "ref_id": 17359105, "rating": 4.5, "num_reviews": 0, "website": null, "contact_phone": "+81 88-855-5588", "contact_email": null, "status": 1, "source_type": 1, "numberReviews": 8}, {"name": "Shidashi no Ando Hirome Market", "type": "restaurant", "image": "https://dynamic-media-cdn.tripadvisor.com/media/photo-o/10/af/44/3a/caption.jpg?w=1000&s=1", "address": "2-3-1 Obiyamachi Hirome Market, Kochi 780-0841 Kochi Prefecture", "lat": 33.56027, "lng": 133.53622, "ref_id": 8317897, "rating": 4, "num_reviews": 0, "website": null, "contact_phone": "+81 88-883-1000", "contact_email": null, "status": 1, "source_type": 1, "numberReviews": 13}, {"name": "Shoya Jr Kochi Eki", "type": "restaurant", "image": "https://dynamic-media-cdn.tripadvisor.com/media/photo-o/19/4d/51/ff/photo0jpg.jpg?w=1000&s=1", "address": "2-1-10 Sakaedacho 1F, Kochi 780-0061 Kochi Prefecture", "lat": 33.566998, "lng": 133.54318, "ref_id": 7450656, "rating": 3.5, "num_reviews": 0, "website": null, "contact_phone": "+81 88-823-5671", "contact_email": null, "status": 1, "source_type": 1, "numberReviews": 27}, {"name": "Queue de Baleine", "type": "restaurant", "image": "https://dynamic-media-cdn.tripadvisor.com/media/photo-o/07/f2/90/24/queue-de-baleine.jpg?w=1000&s=1", "address": "2-3-5 Harimayacho, Kochi Kochi Prefecture", "lat": 33.5621, "lng": 133.54355, "ref_id": 7450440, "rating": 4.5, "num_reviews": 0, "website": null, "contact_phone": "+81 88-885-9119", "contact_email": null, "status": 1, "source_type": 1, "numberReviews": 10}, {"name": "Rinrin Suzunoya", "type": "restaurant", "image": "https://dynamic-media-cdn.tripadvisor.com/media/photo-o/16/22/b2/e6/photo1jpg.jpg?w=1000&s=1", "address": "3-13-13 Harimayacho Hirose Building 1F, Kochi 780-0822 Kochi Prefecture", "lat": 33.563038, "lng": 133.5459, "ref_id": 4907686, "rating": 4.5, "num_reviews": 0, "website": null, "contact_phone": "+81 88-861-0650", "contact_email": null, "status": 1, "source_type": 1, "numberReviews": 9}, {"name": "Matchan", "type": "restaurant", "image": "https://dynamic-media-cdn.tripadvisor.com/media/photo-o/17/7f/d4/ab/photo2jpg.jpg?w=1000&s=1", "address": "6-27 Nijudaimachi, Kochi 780-0843 Kochi Prefecture", "lat": 33.562378, "lng": 133.53938, "ref_id": 15019583, "rating": 4.5, "num_reviews": 0, "website": null, "contact_phone": null, "contact_email": null, "status": 1, "source_type": 1, "numberReviews": 7}, {"name": "Tosayama Danshaku", "type": "restaurant", "image": "https://dynamic-media-cdn.tripadvisor.com/media/photo-o/15/22/51/1d/photo0jpg.jpg?w=1000&s=1", "address": "2-3-1 Obiyamachi Hirome Market, Kochi 780-0841 Kochi Prefecture", "lat": 33.56093, "lng": 133.5358, "ref_id": 15132916, "rating": 4, "num_reviews": 0, "website": "http://hirome.co.jp/?p=3110", "contact_phone": "+81 80-1993-1168", "contact_email": "info@yumesanchi.net", "status": 1, "source_type": 1, "numberReviews": 16}, {"name": "Ritashokudo", "type": "restaurant", "image": "https://dynamic-media-cdn.tripadvisor.com/media/photo-o/19/5f/d1/72/photo3jpg.jpg?w=1000&s=1", "address": "2-20 Aioicho, Kochi 780-0054 Kochi Prefecture", "lat": 33.564907, "lng": 133.54611, "ref_id": 5125198, "rating": 4, "num_reviews": 0, "website": "http://www.ritasyokudou.com", "contact_phone": "+81 88-885-6983", "contact_email": null, "status": 1, "source_type": 1, "numberReviews": 13}, {"name": "Izakaya Mugen", "type": "restaurant", "image": null, "address": "194 Aza Kitahama Saita Muyacho, Naruto Qu\u00e2\u0323n Tokushima", "lat": 34.182957, "lng": 134.60101, "ref_id": 7433284, "rating": 3, "num_reviews": 0, "website": null, "contact_phone": "+81 88-685-7430", "contact_email": null, "status": 1, "source_type": 1, "numberReviews": 1}, {"name": "Homba Nagasaki-Tei", "type": "restaurant", "image": "https://dynamic-media-cdn.tripadvisor.com/media/photo-o/0a/dc/ec/ad/caption.jpg?w=1000&s=1", "address": "1-28-2 Okihama Higashi, Tokushima 770-8053 Qu\u00e2\u0323n Tokushima", "lat": 34.054707, "lng": 134.55482, "ref_id": 9615334, "rating": 3, "num_reviews": 0, "website": null, "contact_phone": "+81 88-652-8799", "contact_email": null, "status": 1, "source_type": 1, "numberReviews": 1}, {"name": "Yakitori Izakaya Hyotan", "type": "restaurant", "image": null, "address": "129-2 Obaracho, Tokushima 770-8012 Qu\u00e2\u0323n Tokushima", "lat": 34.02689, "lng": 134.56621, "ref_id": 4901609, "rating": 3, "num_reviews": 0, "website": null, "contact_phone": "+81 88-662-5610", "contact_email": null, "status": 1, "source_type": 1, "numberReviews": 1}, {"name": "Golden Hamburger", "type": "restaurant", "image": null, "address": "4-1 Mimamisuehitocho, Tokushima 770-0865 Qu\u00e2\u0323n Tokushima", "lat": 34.062798, "lng": 134.57404, "ref_id": 13790670, "rating": 3, "num_reviews": 0, "website": null, "contact_phone": "+81 88-655-9993", "contact_email": null, "status": 1, "source_type": 1, "numberReviews": 1}, {"name": "Delicious Homemade Cuisine", "type": "restaurant", "image": "https://dynamic-media-cdn.tripadvisor.com/media/photo-o/04/9f/f0/c3/delicious-homemade-cuisine.jpg?w=1000&s=1", "address": "2-7-12 Jotocho Shinkyo Building 105, Tokushima 770-0862 Qu\u00e2\u0323n Tokushima", "lat": 34.07293, "lng": 134.57426, "ref_id": 4904248, "rating": 3, "num_reviews": 0, "website": null, "contact_phone": "+81 88-622-7876", "contact_email": null, "status": 1, "source_type": 1, "numberReviews": 1}, {"name": "Taizan", "type": "restaurant", "image": null, "address": "77-3 Kitanohama Okuwajima Muyacho, Naruto Qu\u00e2\u0323n Tokushima", "lat": 34.189175, "lng": 134.60312, "ref_id": 7433297, "rating": 3, "num_reviews": 0, "website": null, "contact_phone": "+81 88-685-5875", "contact_email": null, "status": 1, "source_type": 1, "numberReviews": 1}, {"name": "Yuya", "type": "restaurant", "image": null, "address": "2-10-10 Sanbancho Sky Tower Bldg. 1F, Matsuyama 790-0003 Ehime Prefecture", "lat": 33.839, "lng": 132.77122, "ref_id": 23712067, "rating": -1, "num_reviews": 0, "website": "", "contact_phone": "+81 89-993-7929", "contact_email": null, "status": 1, "source_type": 1, "numberReviews": 0}, {"name": "Teppan Dining Kotaro", "type": "restaurant", "image": "https://dynamic-media-cdn.tripadvisor.com/media/photo-o/22/43/f4/28/caption.jpg?w=1000&s=1", "address": "3-5-11 Nibancho Amare Bldg. 1F, Matsuyama 790-0002 Ehime Prefecture", "lat": 33.839417, "lng": 132.7689, "ref_id": 23916104, "rating": -1, "num_reviews": 0, "website": null, "contact_phone": "+81 70-4340-6137", "contact_email": null, "status": 1, "source_type": 1, "numberReviews": 0}, {"name": "Seafood Monjutei Kamogawa", "type": "restaurant", "image": null, "address": "1-1-9 Kamogawa, Matsuyama 791-8004 Ehime Prefecture", "lat": 33.870914, "lng": 132.75368, "ref_id": 13787626, "rating": -1, "num_reviews": 0, "website": null, "contact_phone": "+81 89-926-1129", "contact_email": null, "status": 1, "source_type": 1, "numberReviews": 0}, {"name": "Ishan", "type": "restaurant", "image": null, "address": "5-1-3 Heiwadori, Matsuyama 790-0807 Ehime Prefecture", "lat": 33.847412, "lng": 132.76094, "ref_id": 13027828, "rating": -1, "num_reviews": 0, "website": null, "contact_phone": "+81 89-946-0200", "contact_email": null, "status": 1, "source_type": 1, "numberReviews": 0}, {"name": "Casablanca", "type": "restaurant", "image": null, "address": "1-10-6 Sambancho 3fd, Matsuyama 790-0003 Ehime Prefecture", "lat": 33.83837, "lng": 132.7727, "ref_id": 9650329, "rating": -1, "num_reviews": 0, "website": null, "contact_phone": "+81 89-945-7970", "contact_email": null, "status": 1, "source_type": 1, "numberReviews": 0}, {"name": "Toriya Shuden", "type": "restaurant", "image": null, "address": "5-22 Giommahci, Matsuyama 790-0965 Ehime Prefecture", "lat": 33.829952, "lng": 132.7744, "ref_id": 14737328, "rating": -1, "num_reviews": 0, "website": null, "contact_phone": "+81 89-968-1213", "contact_email": null, "status": 1, "source_type": 1, "numberReviews": 0}, {"name": "Chiritori Nabe Izakaya Kiwami", "type": "restaurant", "image": null, "address": "489-1 Idomachi, Matsuyama Ehime Prefecture", "lat": 33.80089, "lng": 132.78354, "ref_id": 7449680, "rating": -1, "num_reviews": 0, "website": null, "contact_phone": "+81 89-905-0005", "contact_email": null, "status": 1, "source_type": 1, "numberReviews": 0}, {"name": "Santo Kiki", "type": "restaurant", "image": null, "address": "2-12-24 Tsukamoto, Matsuyama Ehime Prefecture", "lat": 33.829758, "lng": 132.78714, "ref_id": 7449649, "rating": -1, "num_reviews": 0, "website": null, "contact_phone": "+81 89-921-0234", "contact_email": null, "status": 1, "source_type": 1, "numberReviews": 0}, {"name": "Dinghy", "type": "restaurant", "image": null, "address": "2-7-18 Nibancho Core Nibancho Building 5F, Matsuyama 790-0002 Ehime Prefecture", "lat": 33.8397, "lng": 132.77196, "ref_id": 9638372, "rating": -1, "num_reviews": 0, "website": null, "contact_phone": "+81 89-947-8506", "contact_email": null, "status": 1, "source_type": 1, "numberReviews": 0}, {"name": "Chuko Johoku", "type": "restaurant", "image": null, "address": "3-6-7 Kiyacho, Matsuyama 790-0821 Ehime Prefecture", "lat": 33.85207, "lng": 132.7606, "ref_id": 9614844, "rating": -1, "num_reviews": 0, "website": null, "contact_phone": "+81 89-927-0072", "contact_email": null, "status": 1, "source_type": 1, "numberReviews": 0}, {"name": "Pecori Cafe", "type": "restaurant", "image": null, "address": "3-1-11 Minatomachi Nomoto Bldg. 2F, Matsuyama 790-0012 Ehime Prefecture", "lat": 33.8358, "lng": 132.76993, "ref_id": 6060347, "rating": -1, "num_reviews": 0, "website": null, "contact_phone": "+81 89-933-2508", "contact_email": null, "status": 1, "source_type": 1, "numberReviews": 0}, {"name": "Hibari", "type": "restaurant", "image": null, "address": "1-8-14 3bancho, Matsuyama 790-0003 Ehime Prefecture", "lat": 33.837967, "lng": 132.77377, "ref_id": 13027712, "rating": -1, "num_reviews": 0, "website": null, "contact_phone": "+81 89-943-4658", "contact_email": null, "status": 1, "source_type": 1, "numberReviews": 0}, {"name": "Karaoke Station Kamogawa", "type": "restaurant", "image": null, "address": "2-1-23 Kamogawa, Matsuyama 791-8004 Ehime Prefecture", "lat": 33.872334, "lng": 132.75209, "ref_id": 14737354, "rating": -1, "num_reviews": 0, "website": null, "contact_phone": "+81 89-924-0012", "contact_email": null, "status": 1, "source_type": 1, "numberReviews": 0}, {"name": "Teiregi Club", "type": "restaurant", "image": null, "address": "1-16-24 Furukawa Minami, Matsuyama 790-0943 Ehime Prefecture", "lat": 33.808556, "lng": 132.76393, "ref_id": 13028336, "rating": -1, "num_reviews": 0, "website": null, "contact_phone": "+81 89-958-2266", "contact_email": null, "status": 1, "source_type": 1, "numberReviews": 0}, {"name": "Kiyoshi", "type": "restaurant", "image": null, "address": "8-10-11 Sanbancho pace1F, Matsuyama 790-0003 Ehime Prefecture", "lat": 33.838516, "lng": 132.7542, "ref_id": 23533910, "rating": -1, "num_reviews": 0, "website": "http://s519600.gorp.jp/", "contact_phone": "+81 89-916-9019", "contact_email": null, "status": 1, "source_type": 1, "numberReviews": 0}, {"name": "Katchan", "type": "restaurant", "image": null, "address": "7-3-10 Chifunemachi, Matsuyama 790-0011 Ehime Prefecture", "lat": 33.836708, "lng": 132.75685, "ref_id": 10655427, "rating": -1, "num_reviews": 0, "website": null, "contact_phone": "+81 89-943-5671", "contact_email": null, "status": 1, "source_type": 1, "numberReviews": 0}, {"name": "Kamadoya Mizuno", "type": "restaurant", "image": null, "address": "1-25-22 Furumitsu, Matsuyama 791-8067 Ehime Prefecture", "lat": 33.86159, "lng": 132.72516, "ref_id": 13027866, "rating": -1, "num_reviews": 0, "website": null, "contact_phone": "+81 89-952-6564", "contact_email": null, "status": 1, "source_type": 1, "numberReviews": 0}, {"name": "Yuzuyuzu Matsuyamaokaido", "type": "restaurant", "image": null, "address": "2-3-5 Okaido, Matsuyama Ehime Prefecture", "lat": 33.83943, "lng": 132.76997, "ref_id": 7449924, "rating": -1, "num_reviews": 0, "website": null, "contact_phone": "+81 89-933-6916", "contact_email": null, "status": 1, "source_type": 1, "numberReviews": 0}, {"name": "Charcoal-Grilled Toriton", "type": "restaurant", "image": null, "address": "135-1 Kumanodai Otsu, Matsuyama 791-8016 Ehime Prefecture", "lat": 33.856346, "lng": 132.73619, "ref_id": 13027575, "rating": -1, "num_reviews": 0, "website": null, "contact_phone": "+81 89-924-8539", "contact_email": null, "status": 1, "source_type": 1, "numberReviews": 0}, {"name": "Wa Dining Sakuranbo", "type": "restaurant", "image": null, "address": "1-11-13 Sanbancho East Bldg. 1F, Matsuyama 790-0003 Ehime Prefecture", "lat": 33.838486, "lng": 132.77332, "ref_id": 9690241, "rating": -1, "num_reviews": 0, "website": null, "contact_phone": "+81 89-931-9133", "contact_email": null, "status": 1, "source_type": 1, "numberReviews": 0}, {"name": "Sushi Souichiro", "type": "restaurant", "image": null, "address": "1-3-7 Ichibancho, Matsuyama 790-0001 Ehime Prefecture", "lat": 33.840275, "lng": 132.77264, "ref_id": 12093451, "rating": -1, "num_reviews": 0, "website": "http://ja-jp.facebook.com/souichirou.sushi/", "contact_phone": "+81 89-913-5588", "contact_email": null, "status": 1, "source_type": 1, "numberReviews": 0}, {"name": "Uchi Cafe Mike", "type": "restaurant", "image": null, "address": "2-5-28 Shoenji, Matsuyama 790-0904 Ehime Prefecture", "lat": 33.839344, "lng": 132.79637, "ref_id": 14737305, "rating": -1, "num_reviews": 0, "website": null, "contact_phone": "+81 89-977-9383", "contact_email": null, "status": 1, "source_type": 1, "numberReviews": 0}, {"name": "Botchan", "type": "restaurant", "image": null, "address": "3-6-4 Kiyacho, Matsuyama 790-0821 Ehime Prefecture", "lat": 33.851906, "lng": 132.7606, "ref_id": 9690280, "rating": -1, "num_reviews": 0, "website": null, "contact_phone": "+81 89-925-2650", "contact_email": null, "status": 1, "source_type": 1, "numberReviews": 0}, {"name": "Matsuyama Chika Yatai", "type": "restaurant", "image": null, "address": "2-8-19 Sanbancho Three Bldg. 1F, Matsuyama 790-0003 Ehime Prefecture", "lat": 33.838345, "lng": 132.77061, "ref_id": 23577527, "rating": -1, "num_reviews": 0, "website": "", "contact_phone": "+81 89-909-9363", "contact_email": null, "status": 1, "source_type": 1, "numberReviews": 0}, {"name": "Sport", "type": "restaurant", "image": null, "address": "1-5-5 Nibancho M Tower Building 5F, Matsuyama 790-0002 Ehime Prefecture", "lat": 33.83924, "lng": 132.77376, "ref_id": 9638391, "rating": -1, "num_reviews": 0, "website": null, "contact_phone": "+81 89-934-2643", "contact_email": null, "status": 1, "source_type": 1, "numberReviews": 0}, {"name": "Teki, Osaka Kushikatsu & Motsunabe", "type": "restaurant", "image": null, "address": "2-5-2 Sambancho Sanei Bldg. 1F, Matsuyama 790-0003 Ehime Prefecture", "lat": 33.838013, "lng": 132.77182, "ref_id": 4668845, "rating": -1, "num_reviews": 0, "website": null, "contact_phone": "+81 89-935-5383", "contact_email": null, "status": 1, "source_type": 1, "numberReviews": 5}, {"name": "Shirakata Coffee Shiro Cafe", "type": "restaurant", "image": null, "address": "5-8-29 Asakutacho, Matsuyama 790-0952 Ehime Prefecture", "lat": 33.82026, "lng": 132.77226, "ref_id": 20164528, "rating": -1, "num_reviews": 0, "website": null, "contact_phone": "+81 89-968-2330", "contact_email": null, "status": 1, "source_type": 1, "numberReviews": 0}, {"name": "Japanese Space Tsubaki no En", "type": "restaurant", "image": null, "address": "2-2-12 Iai, Matsuyama 790-0934 Ehime Prefecture", "lat": 33.80934, "lng": 132.77107, "ref_id": 14966249, "rating": -1, "num_reviews": 0, "website": null, "contact_phone": "+81 89-909-5671", "contact_email": null, "status": 1, "source_type": 1, "numberReviews": 0}, {"name": "Marufuji Diner", "type": "restaurant", "image": null, "address": "2-7-22 Kiyamachi, Matsuyama 790-0821 Ehime Prefecture", "lat": 33.850918, "lng": 132.76038, "ref_id": 9638353, "rating": -1, "num_reviews": 0, "website": null, "contact_phone": "+81 89-924-2616", "contact_email": null, "status": 1, "source_type": 1, "numberReviews": 0}, {"name": "Yakitori Yotsubaya", "type": "restaurant", "image": null, "address": "Minatomachi 6-4-16, Matsuyama 790-0012 Ehime Prefecture", "lat": 33.836143, "lng": 132.76093, "ref_id": 9614925, "rating": -1, "num_reviews": 0, "website": null, "contact_phone": "+81 89-945-0009", "contact_email": null, "status": 1, "source_type": 1, "numberReviews": 0}, {"name": "Kyukamura Minami Awaji", "type": "restaurant", "image": "https://dynamic-media-cdn.tripadvisor.com/media/photo-o/13/dd/34/7b/caption.jpg?w=1000&s=1", "address": "870-1 Fukurahei, Minamiawaji Qu\u00e2\u0323n Hyogo", "lat": 34.25189, "lng": 134.68433, "ref_id": 7529712, "rating": 4.5, "num_reviews": 0, "website": "http://www.qkamura.or.jp/awaji/", "contact_phone": "+81 799-52-0291", "contact_email": null, "status": 1, "source_type": 1, "numberReviews": 10}, {"name": "Cafe Vincent", "type": "restaurant", "image": "https://dynamic-media-cdn.tripadvisor.com/media/photo-o/1c/5c/5f/e3/20201126-130347-largejpg.jpg?w=1000&s=1", "address": "65-1 Tosadomariura Narutocho Otsuka Kokusai Museum B3, Naruto 772-0053 Qu\u00e2\u0323n Tokushima", "lat": 34.2325, "lng": 134.63771, "ref_id": 16932689, "rating": 4, "num_reviews": 0, "website": "http://o-museum.or.jp/", "contact_phone": "+81 88-687-3737", "contact_email": null, "status": 1, "source_type": 1, "numberReviews": 10}, {"name": "Taimaru Kaigetsu", "type": "restaurant", "image": "https://dynamic-media-cdn.tripadvisor.com/media/photo-o/19/d4/d1/57/img-20191025-195525-6.jpg?w=1000&s=1", "address": "15-33 Fukuike Narutocho Tosadomariura, Naruto 772-0053 Qu\u00e2\u0323n Tokushima", "lat": 34.228928, "lng": 134.63658, "ref_id": 14737040, "rating": 4, "num_reviews": 0, "website": "http://taimaru-kaigetsu.com/%e9%a3%9f%e4%ba%8b/", "contact_phone": "+81 88-687-1001", "contact_email": null, "status": 1, "source_type": 1, "numberReviews": 9}, {"name": "Yamatake Suisan", "type": "restaurant", "image": "https://dynamic-media-cdn.tripadvisor.com/media/photo-o/1c/c1/e8/f4/photo0jpg.jpg?w=1000&s=1", "address": "1528-4 Fukurako, Minamiawaji 656-0501 Qu\u00e2\u0323n Hyogo", "lat": 34.25581, "lng": 134.71924, "ref_id": 6931499, "rating": 4, "num_reviews": 0, "website": null, "contact_phone": "+81 799-52-2417", "contact_email": null, "status": 1, "source_type": 1, "numberReviews": 15}, {"name": "Awajishima Onion Kitchen Uzunooka", "type": "restaurant", "image": "https://dynamic-media-cdn.tripadvisor.com/media/photo-o/17/75/f0/79/p-20190502-132405-vhdr.jpg?w=1000&s=1", "address": "936-3 Fukurahei Uzunooka Onarutokyo Memorial Hall, Awaji 656-0503 Qu\u00e2\u0323n Hyogo", "lat": 34.254845, "lng": 134.68484, "ref_id": 17427275, "rating": 4, "num_reviews": 0, "website": "http://eki.uzunokuni.com/etc/hamburger.html", "contact_phone": "+81 799-52-2888", "contact_email": null, "status": 1, "source_type": 1, "numberReviews": 8}, {"name": "Tossaka Udon", "type": "restaurant", "image": null, "address": "2551-1 Yoshiwaracho, Zentsuji 765-0061 Kagawa Prefecture", "lat": 34.230297, "lng": 133.74644, "ref_id": 6224258, "rating": -1, "num_reviews": 0, "website": null, "contact_phone": "+81 877-62-7134", "contact_email": null, "status": 1, "source_type": 1, "numberReviews": 0}, {"name": "Crocchio", "type": "restaurant", "image": "https://dynamic-media-cdn.tripadvisor.com/media/photo-o/18/ab/9a/40/photo0jpg.jpg?w=1000&s=1", "address": "3-1-8 Sambancho, Matsuyama 790-0003 Ehime Prefecture", "lat": 33.83764, "lng": 132.7696, "ref_id": 10656909, "rating": 5, "num_reviews": 0, "website": null, "contact_phone": "+81 89-947-4114", "contact_email": null, "status": 1, "source_type": 1, "numberReviews": 2}, {"name": "Pizzeria Girasole", "type": "restaurant", "image": null, "address": "820-1 Tsuruyoshi, Masaki-cho, Iyo-gun Ehime Prefecture", "lat": 33.785076, "lng": 132.73463, "ref_id": 7482554, "rating": 5, "num_reviews": 0, "website": null, "contact_phone": "+81 89-994-5298", "contact_email": null, "status": 1, "source_type": 1, "numberReviews": 2}, {"name": "Udon Tyaya Hokuto, Shigenobu", "type": "restaurant", "image": null, "address": "1421-1 Hinokuchi, Toon 791-0202 Ehime Prefecture", "lat": 33.8046, "lng": 132.88034, "ref_id": 4672080, "rating": 4, "num_reviews": 0, "website": "http://www.16hokuto.com/page0114.html", "contact_phone": "+81 89-964-7377", "contact_email": null, "status": 1, "source_type": 1, "numberReviews": 6}, {"name": "Yayoiken  Matsuyama Fukuonji", "type": "restaurant", "image": "https://dynamic-media-cdn.tripadvisor.com/media/photo-o/0c/e4/da/ff/caption.jpg?w=1000&s=1", "address": "482-1 Fukuonjimachi, Matsuyama 790-0921 Ehime Prefecture", "lat": 33.821423, "lng": 132.7877, "ref_id": 9650264, "rating": 3.5, "num_reviews": 0, "website": "http://www.yayoiken.com/", "contact_phone": "+81 89-913-1553", "contact_email": null, "status": 1, "source_type": 1, "numberReviews": 12}, {"name": "Chargrilled Butadon Kashiwaya", "type": "restaurant", "image": "https://dynamic-media-cdn.tripadvisor.com/media/photo-o/19/e2/ea/f9/photo0jpg.jpg?w=1000&s=1", "address": "949 Minami Yoshidamachi, Matsuyama 791-8042 Ehime Prefecture", "lat": 33.824974, "lng": 132.71303, "ref_id": 9614919, "rating": 4, "num_reviews": 0, "website": null, "contact_phone": "+81 89-973-0882", "contact_email": null, "status": 1, "source_type": 1, "numberReviews": 4}, {"name": "Yuzukiya", "type": "restaurant", "image": "https://dynamic-media-cdn.tripadvisor.com/media/photo-o/0a/15/50/ee/caption.jpg?w=1000&s=1", "address": "15-1 Dogo Yunomachi, Matsuyama 790-0842 Ehime Prefecture", "lat": 33.85148, "lng": 132.78435, "ref_id": 9614907, "rating": 4, "num_reviews": 0, "website": null, "contact_phone": "+81 89-907-5586", "contact_email": null, "status": 1, "source_type": 1, "numberReviews": 6}, {"name": "Gyoza Bar Harupin No. 2", "type": "restaurant", "image": null, "address": "5-1-1 Minatomachi Iyotetsu Takashimaya 9F, Matsuyama 790-0012 Ehime Prefecture", "lat": 33.835632, "lng": 132.76317, "ref_id": 12816983, "rating": 4.5, "num_reviews": 0, "website": null, "contact_phone": "+81 89-948-7040", "contact_email": null, "status": 1, "source_type": 1, "numberReviews": 3}, {"name": "Okonomiyaki Nomura", "type": "restaurant", "image": "https://dynamic-media-cdn.tripadvisor.com/media/photo-o/0e/3e/18/56/photo0jpg.jpg?w=1000&s=1", "address": "475-6 Higashikoizumi, Masaki-cho, Iyo-gun 791-3151 Ehime Prefecture", "lat": 33.78677, "lng": 132.72182, "ref_id": 4665454, "rating": 4.5, "num_reviews": 0, "website": "http://nom0938.exblog.jp/", "contact_phone": "+81 89-984-6114", "contact_email": null, "status": 1, "source_type": 1, "numberReviews": 6}, {"name": "Strawberry Candle", "type": "restaurant", "image": "https://dynamic-media-cdn.tripadvisor.com/media/photo-o/11/5b/a5/e7/photo3jpg.jpg?w=1000&s=1", "address": "3-1-19 Tachibana, Matsuyama 790-0966 Ehime Prefecture", "lat": 33.82609, "lng": 132.77441, "ref_id": 9650318, "rating": 4.5, "num_reviews": 0, "website": null, "contact_phone": "+81 89-933-8914", "contact_email": null, "status": 1, "source_type": 1, "numberReviews": 3}, {"name": "Matsuya Kuko Dori", "type": "restaurant", "image": "https://dynamic-media-cdn.tripadvisor.com/media/photo-o/0e/56/ce/73/caption.jpg?w=1000&s=1", "address": "4-4-10 Kukodori, Matsuyama 791-0054 Ehime Prefecture", "lat": 33.82805, "lng": 132.7366, "ref_id": 9638345, "rating": 4.5, "num_reviews": 0, "website": null, "contact_phone": "+81 89-971-4607", "contact_email": null, "status": 1, "source_type": 1, "numberReviews": 3}, {"name": "Fukushige", "type": "restaurant", "image": "https://dynamic-media-cdn.tripadvisor.com/media/photo-o/0c/9f/e4/16/photo0jpg.jpg?w=1000&s=1", "address": "3-3-1 Nakamura, Matsuyama 790-0964 Ehime Prefecture", "lat": 33.829952, "lng": 132.77702, "ref_id": 10659851, "rating": 4.5, "num_reviews": 0, "website": null, "contact_phone": "+81 89-933-2500", "contact_email": null, "status": 1, "source_type": 1, "numberReviews": 3}, {"name": "Mos Burger Iyo Masaki", "type": "restaurant", "image": null, "address": "850 Tsutsui, Masaki-cho, Iyo-gun Ehime Prefecture", "lat": 33.79067, "lng": 132.71413, "ref_id": 7667196, "rating": 3.5, "num_reviews": 0, "website": null, "contact_phone": "+81 89-985-0021", "contact_email": null, "status": 1, "source_type": 1, "numberReviews": 7},