[{"name": "Le Romarin", "type": "restaurant", "image": "https://dynamic-media-cdn.tripadvisor.com/media/photo-o/2a/9e/22/e2/filet-de-beouf-100-francais.jpg?w=1000&s=1", "address": "1260 Route de Cagnes, 06480 La Colle sur Loup France", "lat": 43.67485, "lng": 7.119093, "ref_id": 23944018, "rating": 5, "num_reviews": 0, "website": "http://www.restaurant-leromarin.fr", "contact_phone": "+33 4 93 22 51 20", "contact_email": "contact@restaurant-leromarin.fr", "status": 1, "source_type": 1, "numberReviews": 63}, {"name": "Aux Planches", "type": "restaurant", "image": "https://dynamic-media-cdn.tripadvisor.com/media/photo-o/0c/16/2b/86/la-vue.jpg?w=1000&s=1", "address": "3 Promenade de la Plage, 06800 Cagnes-sur-Mer France", "lat": 43.651802, "lng": 7.153307, "ref_id": 10549208, "rating": 4.5, "num_reviews": 0, "website": "http://restaurant-auxplanches.com", "contact_phone": "+33 4 93 20 23 02", "contact_email": "info@restaurant-auxplanches.com", "status": 1, "source_type": 1, "numberReviews": 524}, {"name": "La Onda", "type": "restaurant", "image": "https://dynamic-media-cdn.tripadvisor.com/media/photo-o/08/20/5f/00/la-onda.jpg?w=1000&s=1", "address": "1 Place du Peyra, 06140 Vence France", "lat": 43.723038, "lng": 7.113264, "ref_id": 7714353, "rating": 4.5, "num_reviews": 0, "website": "http://www.la-onda.fr/", "contact_phone": "+33 4 93 32 90 97", "contact_email": "valerie.sabini@gmail.com", "status": 1, "source_type": 1, "numberReviews": 459}, {"name": "Franchin", "type": "restaurant", "image": "https://dynamic-media-cdn.tripadvisor.com/media/photo-o/0b/47/c1/be/franchin.jpg?w=1000&s=1", "address": "10 rue Massenet Zone Pietonne, 06000 Nice France", "lat": 43.696438, "lng": 7.264138, "ref_id": 1326341, "rating": 4.5, "num_reviews": 0, "website": "https://www.facebook.com/912866295398122", "contact_phone": "+33 4 93 87 15 74", "contact_email": "franchin.nice@gmail.com", "status": 1, "source_type": 1, "numberReviews": 996}, {"name": "Entre 2 Vins", "type": "restaurant", "image": "https://dynamic-media-cdn.tripadvisor.com/media/photo-o/15/95/ca/af/photo2jpg.jpg?w=1000&s=1", "address": "2 rue James Close, 06600, Antibes France", "lat": 43.580276, "lng": 7.125528, "ref_id": 2032360, "rating": 4.5, "num_reviews": 0, "website": "https://www.facebook.com/Entre2Vins", "contact_phone": "+33 4 93 34 46 93", "contact_email": "", "status": 1, "source_type": 1, "numberReviews": 241}, {"name": "Le Bistro Dalpozzo", "type": "restaurant", "image": "https://dynamic-media-cdn.tripadvisor.com/media/photo-o/28/09/fe/41/dp-bistro.jpg?w=1000&s=1", "address": "10 Rue Dalpozzo, 06000 Nice France", "lat": 43.6968, "lng": 7.261675, "ref_id": 10172579, "rating": 4.5, "num_reviews": 0, "website": "https://restaurant-le-bistro-dalpozzo-nice.fr/fr", "contact_phone": "+33 6 66 08 83 07", "contact_email": "bistrodalpozzo@gmail.com", "status": 1, "source_type": 1, "numberReviews": 463}, {"name": "Le Jardin Gourmand", "type": "restaurant", "image": "https://dynamic-media-cdn.tripadvisor.com/media/photo-o/1d/85/74/b7/le-jardin-gourmand-vue.jpg?w=1000&s=1", "address": "22 Promenade de la Plage, 06800 Cagnes-sur-Mer France", "lat": 43.654377, "lng": 7.15729, "ref_id": 23423975, "rating": 4, "num_reviews": 0, "website": "https://le-jardin-gourmand-cagnes-sur-mer.fr/fr", "contact_phone": "+33 4 93 08 07 26", "contact_email": "restaurantmanager@hotelroyalmar.com", "status": 1, "source_type": 1, "numberReviews": 113}, {"name": "Cr\u00eaperie Le Trimaran", "type": "restaurant", "image": "https://dynamic-media-cdn.tripadvisor.com/media/photo-o/01/b9/33/15/galette-pure-sarrazzin.jpg?w=1000&s=1", "address": "13 Place St Francois, 06300 Nice France", "lat": 43.698673, "lng": 7.278292, "ref_id": 1209055, "rating": 4.5, "num_reviews": 0, "website": "http://www.facebook.com/CREPERIE-LE-TRIMARAN-263163719082", "contact_phone": "+33 4 93 80 09 35", "contact_email": null, "status": 1, "source_type": 1, "numberReviews": 515}, {"name": "La Tomate Volante", "type": "restaurant", "image": "https://dynamic-media-cdn.tripadvisor.com/media/photo-o/16/d4/c3/fd/la-tomate-volante.jpg?w=1000&s=1", "address": "474 rue Saint Sauveur, 06110 Le Cannet France", "lat": 43.577084, "lng": 7.017524, "ref_id": 13738117, "rating": 5, "num_reviews": 0, "website": "http://www.la-tomate-volante.fr", "contact_phone": "+33 6 95 08 89 25", "contact_email": "restaurantlatomatevolante@gmail.com", "status": 1, "source_type": 1, "numberReviews": 138}, {"name": "Lou Poumpouille", "type": "restaurant", "image": "https://dynamic-media-cdn.tripadvisor.com/media/photo-o/03/c1/7f/53/lou-poumpouille.jpg?w=1000&s=1", "address": "Place Augustin Capel, 06510 Carros France", "lat": 43.79209, "lng": 7.187731, "ref_id": 3235923, "rating": 4.5, "num_reviews": 0, "website": "http://www.loupoumpouille.fr/", "contact_phone": "+33 4 92 02 08 59", "contact_email": null, "status": 1, "source_type": 1, "numberReviews": 210}, {"name": "Restaurant L'Instant", "type": "restaurant", "image": "https://dynamic-media-cdn.tripadvisor.com/media/photo-o/24/09/71/82/la-salade-seguin.jpg?w=1000&s=1", "address": "9 Rue Clement Roassal, 06000 Nice France", "lat": 43.70862, "lng": 7.261931, "ref_id": 2098012, "rating": 4.5, "num_reviews": 0, "website": "http://www.linstant-nice.com/", "contact_phone": "+33 4 93 88 14 19", "contact_email": "restaurantlinstant06@gmail.com", "status": 1, "source_type": 1, "numberReviews": 516}, {"name": "Le Voyageur Nissart", "type": "restaurant", "image": "https://dynamic-media-cdn.tripadvisor.com/media/photo-o/17/c2/bd/2e/img-20190601-221207-largejpg.jpg?w=1000&s=1", "address": "19 rue d Alsace Lorraine, 06000 Nice France", "lat": 43.703884, "lng": 7.263193, "ref_id": 1465255, "rating": 4.5, "num_reviews": 0, "website": "http://www.voyageurnissart.com/home.php", "contact_phone": "+33 4 93 82 19 60", "contact_email": "m.devaere@voyageurnissart.com", "status": 1, "source_type": 1, "numberReviews": 1097}, {"name": "Cucina vera", "type": "restaurant", "image": "https://dynamic-media-cdn.tripadvisor.com/media/photo-o/19/5d/b6/68/terrasse-panoramique.jpg?w=1000&s=1", "address": "44 impasse Saint Sebastien, 06410 Biot France", "lat": 43.628242, "lng": 7.097084, "ref_id": 1337517, "rating": 4.5, "num_reviews": 0, "website": "http://www.facebook.com/pages/Cucina-Vera-Biot-Village/1627831060761736", "contact_phone": "+33 4 92 91 06 44", "contact_email": "", "status": 1, "source_type": 1, "numberReviews": 564}, {"name": "Chez David", "type": "restaurant", "image": "https://dynamic-media-cdn.tripadvisor.com/media/photo-o/05/11/36/5a/chez-david.jpg?w=1000&s=1", "address": "6 rue du General Berenger, 06800 Cagnes-sur-Mer France", "lat": 43.663, "lng": 7.1494, "ref_id": 3484045, "rating": 4.5, "num_reviews": 0, "website": "http://chezdavid-cagnes.fr/fr", "contact_phone": "+33 4 97 02 11 72", "contact_email": "david.montiel0510@gmail.com", "status": 1, "source_type": 1, "numberReviews": 822}, {"name": "Chez Mireille", "type": "restaurant", "image": "https://dynamic-media-cdn.tripadvisor.com/media/photo-o/1a/d7/99/e1/15-paella.jpg?w=1000&s=1", "address": "19 boulevard Raimbaldi, 06000 Nice France", "lat": 43.706497, "lng": 7.266983, "ref_id": 1322108, "rating": 4.5, "num_reviews": 0, "website": "http://www.lafourchette.com", "contact_phone": "+33 4 93 85 27 23", "contact_email": "restaurantchezmireille@gmail.com", "status": 1, "source_type": 1, "numberReviews": 582}, {"name": "Restaurant Le Perousin", "type": "restaurant", "image": "https://dynamic-media-cdn.tripadvisor.com/media/photo-o/06/f1/66/f3/le-perousin.jpg?w=1000&s=1", "address": "4 rue Hippolyte Guis, 06800 Cagnes-sur-Mer France", "lat": 43.66595, "lng": 7.146258, "ref_id": 3347246, "rating": 4.5, "num_reviews": 0, "website": "http://www.facebook.com/leperousin", "contact_phone": "+33 9 53 55 61 92", "contact_email": "restaurantleperousin@free.fr", "status": 1, "source_type": 1, "numberReviews": 237}, {"name": "Le Comptoir du March\u00e9", "type": "restaurant", "image": "https://dynamic-media-cdn.tripadvisor.com/media/photo-o/06/4b/4c/1a/interieur.jpg?w=1000&s=1", "address": "8, rue du March\u00e9, 06300 Nice France", "lat": 43.69749, "lng": 7.274968, "ref_id": 2489570, "rating": 4.5, "num_reviews": 0, "website": "http://www.comptoirdumarche.fr", "contact_phone": "+33 4 93 13 45 01", "contact_email": "", "status": 1, "source_type": 1, "numberReviews": 1478}, {"name": "L'arazur", "type": "restaurant", "image": "https://dynamic-media-cdn.tripadvisor.com/media/photo-o/14/50/5f/99/photo6jpg.jpg?w=1000&s=1", "address": "8 Rue des Palmiers, 06600, Antibes France", "lat": 43.581905, "lng": 7.127438, "ref_id": 1479349, "rating": 4.5, "num_reviews": 0, "website": "http://www.larazur.fr", "contact_phone": "+33 4 93 34 75 60", "contact_email": "restaurant@larazur.fr", "status": 1, "source_type": 1, "numberReviews": 558}, {"name": "Restaurant La Verri\u00e8re", "type": "restaurant", "image": "https://dynamic-media-cdn.tripadvisor.com/media/photo-o/29/de/a6/6d/tablee-a-la-verriere.jpg?w=1000&s=1", "address": "17 Avenue Malaussena H\u00f4tel Monsigny, 06000 Nice France", "lat": 43.70783, "lng": 7.263052, "ref_id": 23809937, "rating": 5, "num_reviews": 0, "website": "https://www.hotelmonsignynice.com/fr/page/hotel-restaurant-nice.11027.html", "contact_phone": "+33 4 89 74 91 58", "contact_email": "reservation@restaurantlaverrierenice.com", "status": 1, "source_type": 1, "numberReviews": 131}, {"name": "Hacienda bar y cocina", "type": "restaurant", "image": "https://dynamic-media-cdn.tripadvisor.com/media/photo-o/2c/0b/89/11/caption.jpg?w=1000&s=1", "address": "11 rue Delille, 06000 Nice France", "lat": 43.701824, "lng": 7.275805, "ref_id": 24010199, "rating": 5, "num_reviews": 0, "website": "http://www.haciendabarycocina.com/", "contact_phone": "+33 7 69 76 82 02", "contact_email": "Haciendabodega@yahoo.com", "status": 1, "source_type": 1, "numberReviews": 73}, {"name": "Choopy's Cupcakes & Coffee-shop", "type": "restaurant", "image": "https://dynamic-media-cdn.tripadvisor.com/media/photo-o/23/41/19/60/choopy-s.jpg?w=1000&s=1", "address": "16 rue Vial, 06600, Antibes France", "lat": 43.58086, "lng": 7.124434, "ref_id": 2649865, "rating": 4.5, "num_reviews": 0, "website": "http://choopys.com/", "contact_phone": "+33 4 93 64 90 68", "contact_email": "choopyscoffeeshop@gmail.com", "status": 1, "source_type": 1, "numberReviews": 690}, {"name": "Le Frog", "type": "restaurant", "image": "https://dynamic-media-cdn.tripadvisor.com/media/photo-o/13/ab/3d/b3/le-frog.jpg?w=1000&s=1", "address": "3 Rue Milton Robbins, 06300 Nice France", "lat": 43.695415, "lng": 7.272166, "ref_id": 1051138, "rating": 4.5, "num_reviews": 0, "website": "http://www.le-frog-restaurant-nice.com/", "contact_phone": "+33 4 93 85 85 65", "contact_email": "restaurantlefrog@orange.fr", "status": 1, "source_type": 1, "numberReviews": 1566}, {"name": "Restaurant Papa", "type": "restaurant", "image": "https://dynamic-media-cdn.tripadvisor.com/media/photo-o/23/f2/41/45/coquillettes-jambon-truffe.jpg?w=1000&s=1", "address": "9 Rue Bonaparte, 06300 Nice France", "lat": 43.700848, "lng": 7.282334, "ref_id": 10382468, "rating": 4.5, "num_reviews": 0, "website": "https://www.facebook.com/619442854886779", "contact_phone": "+33 7 71 35 32 71", "contact_email": null, "status": 1, "source_type": 1, "numberReviews": 731}, {"name": "Trattoria Quattro", "type": "restaurant", "image": "https://dynamic-media-cdn.tripadvisor.com/media/photo-o/0f/c7/53/3d/img-20170705-wa0000-largejpg.jpg?w=1000&s=1", "address": "1288 Route De Cannes, 06560 Valbonne France", "lat": 43.629574, "lng": 6.998179, "ref_id": 12557870, "rating": 4.5, "num_reviews": 0, "website": "https://www.facebook.com/trattoria.quattro/", "contact_phone": "+33 4 93 75 12 56", "contact_email": "contact@trattoriaquattro.com", "status": 1, "source_type": 1, "numberReviews": 818}, {"name": "La Langouste", "type": "restaurant", "image": "https://dynamic-media-cdn.tripadvisor.com/media/photo-o/10/30/bd/1d/veranda.jpg?w=1000&s=1", "address": "7 Avenue Georges Clemenceau, 06000 Nice France", "lat": 43.702034, "lng": 7.265502, "ref_id": 10750652, "rating": 4.5, "num_reviews": 0, "website": "http://www.lalangouste.fr", "contact_phone": "+33 4 93 88 79 23", "contact_email": "contact@lalangouste.fr", "status": 1, "source_type": 1, "numberReviews": 722}, {"name": "Cinq", "type": "restaurant", "image": "https://dynamic-media-cdn.tripadvisor.com/media/photo-o/13/92/e5/f1/photo1jpg.jpg?w=1000&s=1", "address": "5 Rue de la Bourgade, 06140 Tourrettes-sur-Loup France", "lat": 43.716965, "lng": 7.059452, "ref_id": 10449849, "rating": 4.5, "num_reviews": 0, "website": "http://www.facebook.com/Cinq5/#=", "contact_phone": "+33 9 81 89 25 69", "contact_email": null, "status": 1, "source_type": 1, "numberReviews": 247}, {"name": "La Table De Nathalie", "type": "restaurant", "image": "https://dynamic-media-cdn.tripadvisor.com/media/photo-o/2c/24/db/1e/caption.jpg?w=1000&s=1", "address": "6 Rue Massenet, 06000 Nice France", "lat": 43.6956, "lng": 7.264385, "ref_id": 27726217, "rating": 5, "num_reviews": 0, "website": null, "contact_phone": "+33 6 11 23 92 89", "contact_email": "natclubing@yahoo.com", "status": 1, "source_type": 1, "numberReviews": 52}, {"name": "Leedy's", "type": "restaurant", "image": "https://dynamic-media-cdn.tripadvisor.com/media/photo-o/12/09/36/d4/exterieur-leedy-s.jpg?w=1000&s=1", "address": "50 quai la Perouse Port de Saint Laurent du Var, 06700 St-Laurent du Var France", "lat": 43.65702, "lng": 7.182778, "ref_id": 13110707, "rating": 4.5, "num_reviews": 0, "website": "https://www.facebook.com/leedysrestaurant/", "contact_phone": "+33 4 93 89 64 81", "contact_email": "oasisdomaine@wanadoo.fr", "status": 1, "source_type": 1, "numberReviews": 319}, {"name": "Le Comptoir de la Tourraque", "type": "restaurant", "image": "https://dynamic-media-cdn.tripadvisor.com/media/photo-o/1b/ce/58/94/photo0jpg.jpg?w=1000&s=1", "address": "1 rue de la Tourraque, 06600, Antibes France", "lat": 43.579712, "lng": 7.127017, "ref_id": 786045, "rating": 4.5, "num_reviews": 0, "website": "https://www.facebook.com/160399843991093", "contact_phone": "+3393952486", "contact_email": "", "status": 1, "source_type": 1, "numberReviews": 488}, {"name": "Cararocca", "type": "restaurant", "image": "https://dynamic-media-cdn.tripadvisor.com/media/photo-o/0d/fb/f8/5b/face-a-la-mer.jpg?w=1000&s=1", "address": "92 Promenade de la Plage, 06800 Cagnes-sur-Mer France", "lat": 43.65774, "lng": 7.167136, "ref_id": 10359778, "rating": 4.5, "num_reviews": 0, "website": "https://www.facebook.com/profile.php?id=100094769593765", "contact_phone": "+33 4 93 31 26 25", "contact_email": null, "status": 1, "source_type": 1, "numberReviews": 776}, {"name": "La Table Alziari", "type": "restaurant", "image": "https://dynamic-media-cdn.tripadvisor.com/media/photo-o/04/4e/19/be/la-salle-de-l-entree.jpg?w=1000&s=1", "address": "4 rue Francois Zanin, 06300 Nice France", "lat": 43.699436, "lng": 7.279154, "ref_id": 1048409, "rating": 4.5, "num_reviews": 0, "website": "https://www.facebook.com/pages/category/French-Restaurant/La-Table-Alziari-52061641379/", "contact_phone": "+33 4 93 80 34 03", "contact_email": "", "status": 1, "source_type": 1, "numberReviews": 573}, {"name": "L'horizon", "type": "restaurant", "image": "https://dynamic-media-cdn.tripadvisor.com/media/photo-o/1d/7c/f3/6d/notre-restaurant.jpg?w=1000&s=1", "address": "37 B boulevard Charles Guillaumont 37 Bis Bd. Guillaumont, 06160 Juan-les-Pins, Antibes France", "lat": 43.56989, "lng": 7.106271, "ref_id": 1514802, "rating": 4.5, "num_reviews": 0, "website": "http://www.restaurantlhorizon.fr", "contact_phone": "+33 4 93 67 23 11", "contact_email": "", "status": 1, "source_type": 1, "numberReviews": 731}, {"name": "Meat & Wine", "type": "restaurant", "image": "https://dynamic-media-cdn.tripadvisor.com/media/photo-o/1d/95/ce/3f/todays.jpg?w=1000&s=1", "address": "3 rue Grande, 06560 Valbonne France", "lat": 43.64209, "lng": 7.00896, "ref_id": 21044620, "rating": 4.5, "num_reviews": 0, "website": "http://www.facebook.com/meatandwinevalbonne/", "contact_phone": "+33 4 22 10 22 18", "contact_email": "contact@meat-wine.fr", "status": 1, "source_type": 1, "numberReviews": 54}, {"name": "Rdv Gourmand", "type": "restaurant", "image": "https://dynamic-media-cdn.tripadvisor.com/media/photo-o/1b/ca/01/b4/planche-aperitive.jpg?w=1000&s=1", "address": "1001 avenue de la Batterie, 06270 Villeneuve-Loubet France", "lat": 43.636166, "lng": 7.138284, "ref_id": 8852787, "rating": 4.5, "num_reviews": 0, "website": "http://lerdvgourmand.fr/", "contact_phone": "+33 9 73 11 63 56", "contact_email": "rdvgourmand@outlook.fr", "status": 1, "source_type": 1, "numberReviews": 96}, {"name": "Boh\u00e8me - Mougins", "type": "restaurant", "image": "https://dynamic-media-cdn.tripadvisor.com/media/photo-o/2b/26/91/58/caption.jpg?w=1000&s=1", "address": "Restaurant 47 Av Moulin De La Croix B\u00e2t Paloma, 06250 Mougins France", "lat": 43.601162, "lng": 6.996659, "ref_id": 24976826, "rating": 4.5, "num_reviews": 0, "website": "http://www.facebook.com/boheme.mougins", "contact_phone": "+33 6 76 98 05 15", "contact_email": null, "status": 1, "source_type": 1, "numberReviews": 30}, {"name": "Le 86", "type": "restaurant", "image": "https://dynamic-media-cdn.tripadvisor.com/media/photo-o/0c/b7/fd/9b/photo0jpg.jpg?w=1000&s=1", "address": "86 Promenade De La Plage, 06800 Cagnes-sur-Mer France", "lat": 43.657436, "lng": 7.16656, "ref_id": 1329456, "rating": 4.5, "num_reviews": 0, "website": "https://www.facebook.com/Le-86-597626110286708/?ref=page_internal", "contact_phone": "+33 4 93 31 04 53", "contact_email": "isachris06@hotmail.fr", "status": 1, "source_type": 1, "numberReviews": 176}, {"name": "Espuma", "type": "restaurant", "image": "https://dynamic-media-cdn.tripadvisor.com/media/photo-o/1a/61/45/56/espuma-a-villefranche.jpg?w=1000&s=1", "address": "17 Promenade des Marinieres, 06230 Villefranche-sur-Mer France", "lat": 43.706596, "lng": 7.313706, "ref_id": 19355456, "rating": 4, "num_reviews": 0, "website": "http://www.restaurantespuma.com/", "contact_phone": "+33 4 93 88 05 25", "contact_email": null, "status": 1, "source_type": 1, "numberReviews": 105}, {"name": "Fish Bar2.0", "type": "restaurant", "image": "https://dynamic-media-cdn.tripadvisor.com/media/photo-o/28/e6/1c/3b/sardine-end-tapas-juste.jpg?w=1000&s=1", "address": "17 rue Benoit bunico, 06300 Nice France", "lat": 43.700638, "lng": 7.276729, "ref_id": 25390011, "rating": 5, "num_reviews": 0, "website": "http://www.fishbarnice.com", "contact_phone": "+33 6 58 07 25 27", "contact_email": "fishbar23@gmail.com", "status": 1, "source_type": 1, "numberReviews": 24}, {"name": "O Corcovado", "type": "restaurant", "image": "https://dynamic-media-cdn.tripadvisor.com/media/photo-o/2b/52/72/e9/bresil.jpg?w=1000&s=1", "address": "10 Rue Meyerbeer, 06000 Nice France", "lat": 43.696102, "lng": 7.260882, "ref_id": 26139275, "rating": 5, "num_reviews": 0, "website": "http://www.ocorcovado.fr", "contact_phone": "+33 6 60 40 08 58", "contact_email": "info@ocorcovado.fr", "status": 1, "source_type": 1, "numberReviews": 23}, {"name": "Le p'tit resto", "type": "restaurant", "image": "https://dynamic-media-cdn.tripadvisor.com/media/photo-o/0e/af/42/15/le-p-tit-resto.jpg?w=1000&s=1", "address": "2 Place Vieille, 06300 Nice France", "lat": 43.69659, "lng": 7.276466, "ref_id": 10158384, "rating": 4, "num_reviews": 0, "website": "http://www.ptitresto.fr/", "contact_phone": "+33 9 72 83 41 58", "contact_email": "contact@ptitresto.fr", "status": 1, "source_type": 1, "numberReviews": 234}, {"name": "Chez Lolette", "type": "restaurant", "image": "https://dynamic-media-cdn.tripadvisor.com/media/photo-o/2b/f8/cf/d8/caption.jpg?w=1000&s=1", "address": "7a Rue De La Mairie, 06560 Valbonne France", "lat": 43.64183, "lng": 7.00914, "ref_id": 27371664, "rating": 5, "num_reviews": 0, "website": null, "contact_phone": "+10493120366", "contact_email": "chezlolette23@gmail.com", "status": 1, "source_type": 1, "numberReviews": 20}, {"name": "Sol Maior", "type": "restaurant", "image": "https://dynamic-media-cdn.tripadvisor.com/media/photo-o/0f/58/8e/1e/le-sortido-prato-assortiment.jpg?w=1000&s=1", "address": "10 Meyerbeer street angle avec la Rue de France, 06000 Nice France", "lat": 43.696007, "lng": 7.260764, "ref_id": 6920239, "rating": 4.5, "num_reviews": 0, "website": "http://www.sol-maior-restaurant-nice.com/", "contact_phone": "+33 4 93 62 29 49", "contact_email": "Mariepierre.rueda@gmail.com", "status": 1, "source_type": 1, "numberReviews": 172}, {"name": "La Bodega", "type": "restaurant", "image": "https://dynamic-media-cdn.tripadvisor.com/media/photo-o/05/2c/c7/a7/la-bodega.jpg?w=1000&s=1", "address": "16 avenue Docteur Dautheville, 06160 Juan-les-Pins, Antibes France", "lat": 43.56822, "lng": 7.113513, "ref_id": 2214241, "rating": 3.5, "num_reviews": 0, "website": "http://www.restaurant-bodega.fr", "contact_phone": "+33 4 97 04 67 41", "contact_email": "labodegaresto@hotmail.fr", "status": 1, "source_type": 1, "numberReviews": 542}, {"name": "Le Shalimar", "type": "restaurant", "image": "https://dynamic-media-cdn.tripadvisor.com/media/photo-o/06/6c/27/02/le-shalimar.jpg?w=1000&s=1", "address": "11 rue Biscarra, 06000 Nice France", "lat": 43.70289, "lng": 7.269446, "ref_id": 1329809, "rating": 4, "num_reviews": 0, "website": "http://www.restaurant-shalimar.fr", "contact_phone": "+33 4 93 13 95 78", "contact_email": "", "status": 1, "source_type": 1, "numberReviews": 378}, {"name": "Matacito", "type": "restaurant", "image": "https://dynamic-media-cdn.tripadvisor.com/media/photo-o/29/13/95/57/tapas-maison.jpg?w=1000&s=1", "address": "24 rue Francois Guisol, 06300 Nice France", "lat": 43.69914, "lng": 7.283884, "ref_id": 25169702, "rating": 4.5, "num_reviews": 0, "website": null, "contact_phone": "+33 4 92 27 20 11", "contact_email": "matacitonice@gmail.com", "status": 1, "source_type": 1, "numberReviews": 42}, {"name": "La Cabane De Villeneuve-loubet", "type": "restaurant", "image": "https://dynamic-media-cdn.tripadvisor.com/media/photo-o/1d/b8/f7/b7/la-cabane-de-villeneuve.jpg?w=1000&s=1", "address": "1523 Avenue de la Batterie, 06270 Villeneuve-Loubet France", "lat": 43.62993, "lng": 7.134949, "ref_id": 23596522, "rating": 4, "num_reviews": 0, "website": "https://lacabane-restaurant-villeneuve-loubet.fr/", "contact_phone": "+33 4 93 07 07 70", "contact_email": "alysee.piat@gmail.com", "status": 1, "source_type": 1, "numberReviews": 178}, {"name": "La Cucina", "type": "restaurant", "image": "https://dynamic-media-cdn.tripadvisor.com/media/photo-o/12/b5/41/58/la-cucina.jpg?w=1000&s=1", "address": "63 avenue des Fr\u00e8res Roustan, 06220 Golfe-Juan Vallauris, Vallauris France", "lat": 43.566315, "lng": 7.076178, "ref_id": 12124667, "rating": 4, "num_reviews": 0, "website": "http://www.facebook.com/restaurantlacucina/", "contact_phone": "+33 4 93 61 92 43", "contact_email": null, "status": 1, "source_type": 1, "numberReviews": 131}, {"name": "Miamici", "type": "restaurant", "image": "https://dynamic-media-cdn.tripadvisor.com/media/photo-o/27/ae/27/69/miamici-nice-repas-italien.jpg?w=1000&s=1", "address": "20 boulevard Victor Hugo, 06000 Nice France", "lat": 43.699535, "lng": 7.264656, "ref_id": 17675226, "rating": 4, "num_reviews": 0, "website": "https://www.mi-amici.com/", "contact_phone": "+33 4 97 03 22 25", "contact_email": "hello@mi-amici.com", "status": 1, "source_type": 1, "numberReviews": 231}, {"name": "Dai Long", "type": "restaurant", "image": "https://dynamic-media-cdn.tripadvisor.com/media/photo-o/0f/c0/49/79/brocolis-aux-crevettes.jpg?w=1000&s=1", "address": "11 rue Paganini, 06000 Nice France", "lat": 43.702145, "lng": 7.263975, "ref_id": 2251331, "rating": 4.5, "num_reviews": 0, "website": "http://www.facebook.com/Dai-Long-248420578532651", "contact_phone": "+33 4 93 82 01 20", "contact_email": "", "status": 1, "source_type": 1, "numberReviews": 80}, {"name": "Restaurant des Baous", "type": "restaurant", "image": "https://dynamic-media-cdn.tripadvisor.com/media/photo-o/1b/86/20/7d/photo1jpg.jpg?w=1000&s=1", "address": "25 Promenade Joseph Rico, 06140 Vence France", "lat": 43.72247, "lng": 7.107789, "ref_id": 3524501, "rating": 4.5, "num_reviews": 0, "website": null, "contact_phone": "+33 4 93 58 96 30", "contact_email": "restaurantlesbaous.les2m@gmail.com", "status": 1, "source_type": 1, "numberReviews": 94}, {"name": "Le Petit Carnot", "type": "restaurant", "image": "https://dynamic-media-cdn.tripadvisor.com/media/photo-o/1d/04/a6/78/caption.jpg?w=1000&s=1", "address": "13 boulevard Carnot, 06560 Valbonne France", "lat": 43.64249, "lng": 7.008244, "ref_id": 19381836, "rating": 4.5, "num_reviews": 0, "website": "http://www.lafourchette.com/restaurant/le-petit-carnot/552973#info", "contact_phone": "+33 4 93 12 20 88", "contact_email": "finck.aesa@gmail.com", "status": 1, "source_type": 1, "numberReviews": 73}, {"name": "Hostellerie La Fontaine", "type": "restaurant", "image": "https://dynamic-media-cdn.tripadvisor.com/media/photo-o/0f/61/f1/f0/la-salade-fraicheur-a.jpg?w=1000&s=1", "address": "10 Montee de la Castre, 06570 St-Paul-de-Vence France", "lat": 43.696644, "lng": 7.122025, "ref_id": 1894423, "rating": 4, "num_reviews": 0, "website": "http://www.restaurant-la-fontaine-saint-paul-de-vence.fr/", "contact_phone": "+33 6 26 20 23 24", "contact_email": "j.garello.hlf@gmail.com", "status": 1, "source_type": 1, "numberReviews": 176}, {"name": "La Gravette", "type": "restaurant", "image": "https://dynamic-media-cdn.tripadvisor.com/media/photo-o/10/64/0a/6f/photo0jpg.jpg?w=1000&s=1", "address": "48 boulevard D Aguillon, 06600, Antibes France", "lat": 43.582966, "lng": 7.127709, "ref_id": 1156912, "rating": 4, "num_reviews": 0, "website": "http://restaurant-de-la-gravette.business.site/?utm_source=gmb&utm_medium=referral", "contact_phone": "+33 4 93 34 18 60", "contact_email": "", "status": 1, "source_type": 1, "numberReviews": 368}, {"name": "Matas Bar & Tapas", "type": "restaurant", "image": "https://dynamic-media-cdn.tripadvisor.com/media/photo-o/1d/99/c7/81/venez-degustez-nos-cocktails.jpg?w=1000&s=1", "address": "22 rue Francois Guisol, 06300 Nice France", "lat": 43.69925, "lng": 7.283822, "ref_id": 23589113, "rating": 4.5, "num_reviews": 0, "website": "http://www.matasbar.fr", "contact_phone": "+33 4 83 93 64 41", "contact_email": "info@matasbar.fr", "status": 1, "source_type": 1, "numberReviews": 44}, {"name": "Onice", "type": "restaurant", "image": "https://dynamic-media-cdn.tripadvisor.com/media/photo-o/2b/b1/98/b2/caption.jpg?w=1000&s=1", "address": "5 Rue Antoine Gautier, 06300 Nice France", "lat": 43.69875, "lng": 7.282851, "ref_id": 26695160, "rating": 5, "num_reviews": 0, "website": "https://www.restaurantonice.com/", "contact_phone": "+33 4 93 56 18 30", "contact_email": null, "status": 1, "source_type": 1, "numberReviews": 21}, {"name": "Pink Lotus", "type": "restaurant", "image": "https://dynamic-media-cdn.tripadvisor.com/media/photo-o/1b/e7/3d/22/photo3jpg.jpg?w=1000&s=1", "address": "Residence le Ducale Port Marina Baies des Anges, 06270 Villeneuve-Loubet France", "lat": 43.636307, "lng": 7.137694, "ref_id": 2030832, "rating": 4, "num_reviews": 0, "website": "http://www.facebook.com/pages/Pink-Lotus/160305184021828", "contact_phone": "+33 4 93 22 44 63", "contact_email": "", "status": 1, "source_type": 1, "numberReviews": 405}, {"name": "Les Folies d'Edmonde", "type": "restaurant", "image": "https://dynamic-media-cdn.tripadvisor.com/media/photo-o/24/94/da/2c/les-folies-d-edmonde.jpg?w=1000&s=1", "address": "16 Rue Beno\u00eet Bunico, 06300 Nice France", "lat": 43.69748, "lng": 7.276847, "ref_id": 24104983, "rating": 5, "num_reviews": 0, "website": "http://www.instagram.com/lesfoliesdedmonde", "contact_phone": null, "contact_email": null, "status": 1, "source_type": 1, "numberReviews": 23}, {"name": "L'Epicerie Italienne", "type": "restaurant", "image": "https://dynamic-media-cdn.tripadvisor.com/media/photo-o/13/1d/19/f2/pates-fraiche-preparees.jpg?w=1000&s=1", "address": "10 avenue du 24 Aout, 06600, Antibes France", "lat": 43.579876, "lng": 7.122657, "ref_id": 2650201, "rating": 4.5, "num_reviews": 0, "website": "https://www.facebook.com/lepicerieitalienne.antibes/", "contact_phone": "+33 4 92 90 18 63", "contact_email": "epicerieitalienneantibes@gmail.com", "status": 1, "source_type": 1, "numberReviews": 116}, {"name": "Pho Paganini", "type": "restaurant", "image": "https://dynamic-media-cdn.tripadvisor.com/media/photo-o/0a/11/a4/13/photo0jpg.jpg?w=1000&s=1", "address": "20 rue Paganini, 06000 Nice France", "lat": 43.704105, "lng": 7.263843, "ref_id": 4439445, "rating": 4.5, "num_reviews": 0, "website": "http://www.facebook.com/Pho-Paganini-250416888488730/", "contact_phone": "+33 4 93 87 75 82", "contact_email": null, "status": 1, "source_type": 1, "numberReviews": 151}, {"name": "SHACK and Co By BIG T", "type": "restaurant", "image": "https://dynamic-media-cdn.tripadvisor.com/media/photo-o/29/cb/3d/4e/shack-and-co.jpg?w=1000&s=1", "address": "2112 Route De Gatti\u00e8res, 06640 Saint-Jeannet France", "lat": 43.74939, "lng": 7.14383, "ref_id": 26209426, "rating": 5, "num_reviews": 0, "website": "https://www.facebook.com/113873905035258", "contact_phone": "+33 4 12 05 28 00", "contact_email": null, "status": 1, "source_type": 1, "numberReviews": 30}, {"name": "Le Comptoir 233", "type": "restaurant", "image": "https://dynamic-media-cdn.tripadvisor.com/media/photo-o/15/29/ff/17/received-361482561261083.jpg?w=1000&s=1", "address": "233 route de Cannes Limite Mouans Sartoux, 06130, Grasse France", "lat": 43.6301, "lng": 6.959845, "ref_id": 11984869, "rating": 4, "num_reviews": 0, "website": "http://www.facebook.com/pg/LeComptoir233/about/", "contact_phone": "+33 4 93 70 77 98", "contact_email": "directioncomptoir233grasse@gmail.com", "status": 1, "source_type": 1, "numberReviews": 442}, {"name": "Sapori Mood & Food", "type": "restaurant", "image": "https://dynamic-media-cdn.tripadvisor.com/media/photo-o/12/64/4a/8a/tagliere-w-l-espana.jpg?w=1000&s=1", "address": "26 rue Massena, 06000 Nice France", "lat": 43.697304, "lng": 7.266146, "ref_id": 13507155, "rating": 4.5, "num_reviews": 0, "website": "http://www.sapori-mood-and-food-restaurant-nice.com", "contact_phone": "+33 6 98 80 40 83", "contact_email": "saporinice@gmail.com", "status": 1, "source_type": 1, "numberReviews": 123}, {"name": "La P'tite Cocotte", "type": "restaurant", "image": "https://dynamic-media-cdn.tripadvisor.com/media/photo-o/17/f7/6b/31/la-p-tite-cocotte.jpg?w=1000&s=1", "address": "10 rue Saint Augustin Vieux Nice, 06300 Nice France", "lat": 43.69913, "lng": 7.278843, "ref_id": 2099169, "rating": 4.5, "num_reviews": 0, "website": "http://la-ptitecocotte-nice.com/", "contact_phone": "+33 4 97 08 48 61", "contact_email": "laptitecocottenice@gmail.com", "status": 1, "source_type": 1, "numberReviews": 1296}, {"name": "Lu fran calin", "type": "restaurant", "image": "https://dynamic-media-cdn.tripadvisor.com/media/photo-o/12/c8/2a/78/20180316-130858-largejpg.jpg?w=1000&s=1", "address": "5 rue Francis Gallo, 06300 Nice France", "lat": 43.697353, "lng": 7.27597, "ref_id": 1081661, "rating": 4.5, "num_reviews": 0, "website": "http://www.lufrancalin.fr/", "contact_phone": "+33 4 93 80 81 81", "contact_email": "", "status": 1, "source_type": 1, "numberReviews": 781}, {"name": "Ristorante Pizzeria Caruso", "type": "restaurant", "image": "https://dynamic-media-cdn.tripadvisor.com/media/photo-o/16/6d/56/3f/ristorante-pizzeria-caruso.jpg?w=1000&s=1", "address": "7 rue du Marche, 06300 Nice France", "lat": 43.69756, "lng": 7.27491, "ref_id": 9824028, "rating": 4.5, "num_reviews": 0, "website": "http://www.facebook.com/RistorantePizzeriaCarusoNice/", "contact_phone": "+33 4 89 03 95 35", "contact_email": null, "status": 1, "source_type": 1, "numberReviews": 507}, {"name": "Le Figuier", "type": "restaurant", "image": "https://dynamic-media-cdn.tripadvisor.com/media/photo-o/15/3f/c5/e4/20181104-134848-largejpg.jpg?w=1000&s=1", "address": "51 rue de Roquebilliere, 06300 Nice France", "lat": 43.71032, "lng": 7.288014, "ref_id": 15266497, "rating": 5, "num_reviews": 0, "website": "https://www.facebook.com/LeFiguierRestaurantNice/", "contact_phone": "+33 4 97 19 06 47", "contact_email": "lefiguier@orange.fr", "status": 1, "source_type": 1, "numberReviews": 77}, {"name": "Sushiya", "type": "restaurant", "image": "https://dynamic-media-cdn.tripadvisor.com/media/photo-o/16/08/92/1e/boeuf-lait-de-coco-epice.jpg?w=1000&s=1", "address": "16 rue Biscarra, 06000 Nice France", "lat": 43.702824, "lng": 7.269093, "ref_id": 1322783, "rating": 4.5, "num_reviews": 0, "website": "http://www.facebook.com/sushiyanice/", "contact_phone": "+33 4 93 13 97 18", "contact_email": "sushiya06@gmail.com", "status": 1, "source_type": 1, "numberReviews": 229}, {"name": "Le Coin Gourmet", "type": "restaurant", "image": "https://dynamic-media-cdn.tripadvisor.com/media/photo-o/1a/b0/fe/76/notre-terrasse.jpg?w=1000&s=1", "address": "314 Rue Saint-sauveur Quartier historique, 06110 Le Cannet France", "lat": 43.577404, "lng": 7.019471, "ref_id": 2267232, "rating": 4.5, "num_reviews": 0, "website": "http://lecoingourmet.fr", "contact_phone": "+33 4 93 45 44 70", "contact_email": "lecoingourmet06@gmail.com", "status": 1, "source_type": 1, "numberReviews": 253}, {"name": "Le Petit Bouchon", "type": "restaurant", "image": "https://dynamic-media-cdn.tripadvisor.com/media/photo-o/18/c7/94/4c/photo1jpg.jpg?w=1000&s=1", "address": "4 rue de la Republique, 06370 Mouans-Sartoux France", "lat": 43.619858, "lng": 6.970067, "ref_id": 2427387, "rating": 4.5, "num_reviews": 0, "website": "https://www.petitbouchonmouans.com", "contact_phone": "+33 4 93 75 65 43", "contact_email": "", "status": 1, "source_type": 1, "numberReviews": 1225}, {"name": "Pizza Gourmet", "type": "restaurant", "image": "https://dynamic-media-cdn.tripadvisor.com/media/photo-o/18/58/53/57/pizza-gourmet.jpg?w=1000&s=1", "address": "236 rue Saint Sauveur, 06110 Le Cannet France", "lat": 43.57714, "lng": 7.020336, "ref_id": 4773889, "rating": 4.5, "num_reviews": 0, "website": "http://www.pizzagourmet-06110.fr/", "contact_phone": "+33 4 93 46 53 75", "contact_email": null, "status": 1, "source_type": 1, "numberReviews": 224}, {"name": "La Paloma", "type": "restaurant", "image": "https://dynamic-media-cdn.tripadvisor.com/media/photo-o/17/ba/b8/91/photo0jpg.jpg?w=1000&s=1", "address": "14 Place du grand Jardin, 06140 Vence France", "lat": 43.722668, "lng": 7.111764, "ref_id": 12590489, "rating": 5, "num_reviews": 0, "website": "http://restaurant-la-paloma.swipepages.net/", "contact_phone": "+33 7 81 89 22 15", "contact_email": "marcabadie30@hotmail.com", "status": 1, "source_type": 1, "numberReviews": 131}, {"name": "Chez Moi", "type": "restaurant", "image": "https://dynamic-media-cdn.tripadvisor.com/media/photo-o/12/5c/e0/1e/the-inside-of-the-restaurant.jpg?w=1000&s=1", "address": "2 rue Paganini, 06000 Nice France", "lat": 43.70199, "lng": 7.26399, "ref_id": 6463433, "rating": 4.5, "num_reviews": 0, "website": "https://www.facebook.com/RestaurantChezMoiNice/", "contact_phone": "+33 6 17 88 41 31", "contact_email": "pauloandrei@hotmail.fr", "status": 1, "source_type": 1, "numberReviews": 426}, {"name": "O Saveurs du Marche", "type": "restaurant", "image": "https://dynamic-media-cdn.tripadvisor.com/media/photo-o/11/81/a3/26/photo5.jpg?w=1000&s=1", "address": "118 B boulevard de Cessole, 06100 Nice France", "lat": 43.720272, "lng": 7.251747, "ref_id": 12535331, "rating": 5, "num_reviews": 0, "website": "http://www.facebook.com/osaveursdumarchenice/", "contact_phone": "+33 4 93 52 28 08", "contact_email": "osaveursdumarche@outlook.fr", "status": 1, "source_type": 1, "numberReviews": 124}, {"name": "Chez Will", "type": "restaurant", "image": "https://dynamic-media-cdn.tripadvisor.com/media/photo-o/1a/6d/8c/70/le-drive-in-saint-laurent.jpg?w=1000&s=1", "address": "235 avenue des Mouettes, 06700 St-Laurent du Var France", "lat": 43.65785, "lng": 7.183477, "ref_id": 5796749, "rating": 4.5, "num_reviews": 0, "website": "http://www.driveinsaintlaurent.fr", "contact_phone": "+33 4 93 14 27 99", "contact_email": null, "status": 1, "source_type": 1, "numberReviews": 170}, {"name": "LA COUR DES THES", "type": "restaurant", "image": "https://dynamic-media-cdn.tripadvisor.com/media/photo-o/0d/9c/dc/00/la-cour-des-thes.jpg?w=1000&s=1", "address": "14 avenue du 24 Aout, 06600, Antibes France", "lat": 43.579514, "lng": 7.122949, "ref_id": 3346392, "rating": 4.5, "num_reviews": 0, "website": "http://www.lacourdesthes.fr", "contact_phone": "+33 4 93 65 97 02", "contact_email": null, "status": 1, "source_type": 1, "numberReviews": 155}, {"name": "Le Sant'ana", "type": "restaurant", "image": "https://dynamic-media-cdn.tripadvisor.com/media/photo-o/12/42/02/38/le-sant-ana-a-proximite.jpg?w=1000&s=1", "address": "quai la Perouse Port St Laurent, 06700 St-Laurent du Var France", "lat": 43.657066, "lng": 7.182992, "ref_id": 1333417, "rating": 4.5, "num_reviews": 0, "website": "https://www.santana.fr", "contact_phone": "+33 4 93 07 02 24", "contact_email": "sant-ana@wanadoo.fr", "status": 1, "source_type": 1, "numberReviews": 365}, {"name": "Auberge des Gorges du Loup", "type": "restaurant", "image": "https://dynamic-media-cdn.tripadvisor.com/media/photo-o/1b/66/36/a4/facade-de-l-etablissement.jpg?w=1000&s=1", "address": "4 route de Grasse Le Pont du Loup, 06140 Tourrettes-sur-Loup France", "lat": 43.71846, "lng": 6.992544, "ref_id": 4473328, "rating": 4.5, "num_reviews": 0, "website": "http://www.auberge-gorgesduloup.com", "contact_phone": "+33 4 93 59 38 01", "contact_email": "info@auberge-gorgesduloup.com", "status": 1, "source_type": 1, "numberReviews": 353}, {"name": "Le Paradis Marin", "type": "restaurant", "image": "https://dynamic-media-cdn.tripadvisor.com/media/photo-o/10/44/dc/63/le-paradis-marin-a-change.jpg?w=1000&s=1", "address": "Port de Saint-Laurent du Var, 06700 St-Laurent du Var France", "lat": 43.657112, "lng": 7.183113, "ref_id": 1898040, "rating": 4.5, "num_reviews": 0, "website": "www.leparadismarin.com", "contact_phone": "+33 4 93 07 30 57", "contact_email": "contact@leparadismarin.com", "status": 1, "source_type": 1, "numberReviews": 835}, {"name": "Mani in Pasta", "type": "restaurant", "image": "https://dynamic-media-cdn.tripadvisor.com/media/photo-o/05/58/6e/b1/salade-estate.jpg?w=1000&s=1", "address": "Port 72 quai la Perouse, 06700 St-Laurent du Var France", "lat": 43.656647, "lng": 7.18141, "ref_id": 4881575, "rating": 4.5, "num_reviews": 0, "website": null, "contact_phone": "+33 4 93 14 13 64", "contact_email": "Peppebongiorno@iCloud.com", "status": 1, "source_type": 1, "numberReviews": 348}, {"name": "L'Atelier", "type": "restaurant", "image": "https://dynamic-media-cdn.tripadvisor.com/media/photo-o/10/b8/71/83/photo2jpg.jpg?w=1000&s=1", "address": "17 Rue Gioffredo, 06000 Nice France", "lat": 43.701637, "lng": 7.276163, "ref_id": 2514227, "rating": 4.5, "num_reviews": 0, "website": "http://www.l-atelier-restaurant-nice.com/", "contact_phone": "+33 4 93 85 50 74", "contact_email": "stephane.chenneveau@gmail.com", "status": 1, "source_type": 1, "numberReviews": 587}, {"name": "Les Deux Canailles", "type": "restaurant", "image": "https://dynamic-media-cdn.tripadvisor.com/media/photo-o/0c/6a/21/21/photo4jpg.jpg?w=1000&s=1", "address": "6 rue Chauvain, 06000 Nice France", "lat": 43.69827, "lng": 7.271433, "ref_id": 2153187, "rating": 4.5, "num_reviews": 0, "website": "http://lesdeuxcanailles.com/", "contact_phone": "+33 6 34 15 64 91", "contact_email": "restaurant@lesdeuxcanailles.com", "status": 1, "source_type": 1, "numberReviews": 410}, {"name": "Restaurant La Farigoule", "type": "restaurant", "image": "https://dynamic-media-cdn.tripadvisor.com/media/photo-o/0f/76/bb/e3/photo9jpg.jpg?w=1000&s=1", "address": "15 avenue Henri Isnard, 06140 Vence France", "lat": 43.72293, "lng": 7.111292, "ref_id": 1532445, "rating": 4.5, "num_reviews": 0, "website": "http://www.lafarigoule-vence.fr", "contact_phone": "+33 4 93 58 01 27", "contact_email": "contact@lafarigoule-vence.fr", "status": 1, "source_type": 1, "numberReviews": 451}, {"name": "Davisto Restaurant Italien", "type": "restaurant", "image": "https://dynamic-media-cdn.tripadvisor.com/media/photo-o/28/ed/28/c1/davisto.jpg?w=1000&s=1", "address": "18 rue Saint Philippe, 06000 Nice France", "lat": 43.695408, "lng": 7.255191, "ref_id": 2351602, "rating": 4.5, "num_reviews": 0, "website": "https://www.davisto.net/", "contact_phone": "+33 4 92 10 85 70", "contact_email": "davisto@orange.fr", "status": 1, "source_type": 1, "numberReviews": 377}, {"name": "L'Ecole des Filles", "type": "restaurant", "image": "https://dynamic-media-cdn.tripadvisor.com/media/photo-o/10/11/8f/b2/photo5jpg.jpg?w=1000&s=1", "address": "380 avenue Amiral de Grasse, 06620 Le Bar-sur-Loup France", "lat": 43.69959, "lng": 6.988356, "ref_id": 1198311, "rating": 4.5, "num_reviews": 0, "website": "http://www.restaurantecoledesfilles.fr/", "contact_phone": "+33 6 95 08 17 68", "contact_email": "fdz1968@hotmail.fr", "status": 1, "source_type": 1, "numberReviews": 763}, {"name": "A Buteghinna", "type": "restaurant", "image": "https://dynamic-media-cdn.tripadvisor.com/media/photo-o/1d/d1/85/6a/terrasse.jpg?w=1000&s=1", "address": "11 rue du Marche, 06300 Nice France", "lat": 43.69747, "lng": 7.27463, "ref_id": 1324384, "rating": 4.5, "num_reviews": 0, "website": "http://abuteghinna.fr", "contact_phone": "+33 4 93 92 28 22", "contact_email": "contact@abuteghinna.fr", "status": 1, "source_type": 1, "numberReviews": 331}, {"name": "La Table de Mamane", "type": "restaurant", "image": "https://dynamic-media-cdn.tripadvisor.com/media/photo-o/24/8b/1b/c2/beyayennatou.jpg?w=1000&s=1", "address": "6 avenue Villermont, 06000 Nice France", "lat": 43.709038, "lng": 7.264317, "ref_id": 20014461, "rating": 5, "num_reviews": 0, "website": "https://www.facebook.com/La-table-de-Mamane-110708683660242/", "contact_phone": "+33 7 83 51 21 31", "contact_email": "latabledemamane@gmail.com", "status": 1, "source_type": 1, "numberReviews": 83}, {"name": "Le Serre", "type": "restaurant", "image": "https://dynamic-media-cdn.tripadvisor.com/media/photo-o/1d/7e/31/40/caption.jpg?w=1000&s=1", "address": "16 rue de May, 06230 Villefranche-sur-Mer France", "lat": 43.70412, "lng": 7.311419, "ref_id": 1334409, "rating": 4.5, "num_reviews": 0, "website": "http://le-serre.edan.io/", "contact_phone": "+33 4 93 76 79 91", "contact_email": "", "status": 1, "source_type": 1, "numberReviews": 465}, {"name": "Tortola", "type": "restaurant", "image": "https://dynamic-media-cdn.tripadvisor.com/media/photo-o/16/df/50/09/tapas.jpg?w=1000&s=1", "address": "167 Promenade des Flots Bleus, 06700 St-Laurent du Var France", "lat": 43.657887, "lng": 7.189272, "ref_id": 7906935, "rating": 4.5, "num_reviews": 0, "website": "http://www.tortola.fr/", "contact_phone": "+33 4 93 07 09 07", "contact_email": "contact@tortola.fr", "status": 1, "source_type": 1, "numberReviews": 1151}, {"name": "Le Bistrot Gourmand", "type": "restaurant", "image": "https://dynamic-media-cdn.tripadvisor.com/media/photo-o/1d/18/cb/a8/entree.jpg?w=1000&s=1", "address": "3 rue Desboutin, 06300 Nice France", "lat": 43.69598, "lng": 7.269889, "ref_id": 6587612, "rating": 4.5, "num_reviews": 0, "website": "http://www.bistrotgourmand.net/", "contact_phone": "+33 4 92 14 55 55", "contact_email": "bistrotgourmand@live.fr", "status": 1, "source_type": 1, "numberReviews": 1374}, {"name": "Aya Sushi", "type": "restaurant", "image": "https://dynamic-media-cdn.tripadvisor.com/media/photo-o/0e/cc/33/10/ayasushi-menu-delice.jpg?w=1000&s=1", "address": "116 avenue des Chenes, 06800 Cagnes-sur-Mer France", "lat": 43.664288, "lng": 7.171439, "ref_id": 11876191, "rating": 4.5, "num_reviews": 0, "website": "http://www.ayasushi.fr/", "contact_phone": "+33 4 92 12 12 01", "contact_email": "info@ayasushi.fr", "status": 1, "source_type": 1, "numberReviews": 162}, {"name": "Le Bistrot du Sommelier", "type": "restaurant", "image": "https://dynamic-media-cdn.tripadvisor.com/media/photo-o/08/89/25/a4/photo0jpg.jpg?w=1000&s=1", "address": "21 rue Eugene Giraud, 06560 Valbonne France", "lat": 43.64167, "lng": 7.008266, "ref_id": 4316823, "rating": 4.5, "num_reviews": 0, "website": "http://www.lebistrotdusommelier.fr/", "contact_phone": "+33 4 93 12 17 95", "contact_email": null, "status": 1, "source_type": 1, "numberReviews": 578}, {"name": "Auberge du Clos des Pins", "type": "restaurant", "image": "https://dynamic-media-cdn.tripadvisor.com/media/photo-o/1a/fe/23/7c/notre-terrasse.jpg?w=1000&s=1", "address": "35 route de Notre Dame, 06330 Roquefort les Pins France", "lat": 43.668602, "lng": 7.042428, "ref_id": 2228970, "rating": 4.5, "num_reviews": 0, "website": "http://www.auberge-duclosdespins.com", "contact_phone": "+33 4 93 77 00 23", "contact_email": "info@aubergeduclosdespins.fr", "status": 1, "source_type": 1, "numberReviews": 431}, {"name": "Au Garcon Boucher", "type": "restaurant", "image": "https://dynamic-media-cdn.tripadvisor.com/media/photo-o/17/2a/95/aa/photo1jpg.jpg?w=1000&s=1", "address": "4 Place de Verdun, 06270 Villeneuve-Loubet France", "lat": 43.658318, "lng": 7.121956, "ref_id": 4883001, "rating": 4.5, "num_reviews": 0, "website": "http://www.augarconboucher.fr", "contact_phone": "+33 4 93 08 86 90", "contact_email": null, "status": 1, "source_type": 1, "numberReviews": 298}, {"name": "Restaurant La Taula, Sp\u00e9cialit\u00e9 Ni\u00e7oise", "type": "restaurant", "image": "https://dynamic-media-cdn.tripadvisor.com/media/photo-o/22/df/68/01/l-estocaficada.jpg?w=1000&s=1", "address": "9 rue du Collet, 06300 Nice France", "lat": 43.698334, "lng": 7.277083, "ref_id": 21353800, "rating": 4.5, "num_reviews": 0, "website": "http://myplv.cokecce.com/cms/sites/myplv/myplv_client-files/qrcodes/60c1f2cdfb329135f2373752/menu_7e8b.pdf", "contact_phone": "+33 4 93 62 39 78", "contact_email": "lataularestaurant@orange.fr", "status": 1, "source_type": 1, "numberReviews": 119}, {"name": "Tandoori Flame", "type": "restaurant", "image": "https://dynamic-media-cdn.tripadvisor.com/media/photo-o/22/ed/27/f4/plat-du-jour-riz-pilaf.jpg?w=1000&s=1", "address": "1 rue Centrale Tram Station : Cathedrale Vieille Ville, 06300 Nice France", "lat": 43.69838, "lng": 7.276878, "ref_id": 3599862, "rating": 4.5, "num_reviews": 0, "website": "http://www.thetandooriflame.fr/", "contact_phone": "+33 9 52 48 53 60", "contact_email": "contact@tandooriflame.fr", "status": 1, "source_type": 1, "numberReviews": 489}, {"name": "Creperie Pizzeria du Vieux Village", "type": "restaurant", "image": "https://dynamic-media-cdn.tripadvisor.com/media/photo-o/08/94/9e/10/creperie-du-vieux-village.jpg?w=1000&s=1", "address": "29 rue Saint Sebastien, 06410 Biot France", "lat": 43.628002, "lng": 7.0967, "ref_id": 1804628, "rating": 4.5, "num_reviews": 0, "website": "http://www.creperie-aubergeduvieuxvillage.com/", "contact_phone": "+33 4 93 65 72 73", "contact_email": "creperiedebiot@gmail.com", "status": 1, "source_type": 1, "numberReviews": 626}, {"name": "Au moulin enchante", "type": "restaurant", "image": "https://dynamic-media-cdn.tripadvisor.com/media/photo-o/15/6f/da/c5/au-moulin-enchante.jpg?w=1000&s=1", "address": "1 rue Barberis, 06300 Nice France", "lat": 43.70549, "lng": 7.282361, "ref_id": 1536831, "rating": 4.5, "num_reviews": 0, "website": "http://www.aumoulinenchante.com/", "contact_phone": "+33 4 93 55 33 14", "contact_email": "", "status": 1, "source_type": 1, "numberReviews": 459}, {"name": "Pizza de L'Ara", "type": "restaurant", "image": "https://dynamic-media-cdn.tripadvisor.com/media/photo-o/10/8e/3c/06/photo0jpg.jpg?w=1000&s=1", "address": "place du Marechal Juin, Vence France", "lat": 43.7226, "lng": 7.107268, "ref_id": 2302625, "rating": 5, "num_reviews": 0, "website": "http://www.facebook.com/PizzaDeLAra/", "contact_phone": "+33 6 07 02 59 33", "contact_email": "nissa_rom@hotmail.fr", "status": 1, "source_type": 1, "numberReviews": 172}, {"name": "Ici t'es Ailleurs", "type": "restaurant", "image": "https://dynamic-media-cdn.tripadvisor.com/media/photo-o/07/e4/e6/f5/ici-t-es-ailleurs.jpg?w=1000&s=1", "address": "321 route de Cannes, 06130, Grasse France", "lat": 43.625965, "lng": 6.965676, "ref_id": 6538633, "rating": 4.5, "num_reviews": 0, "website": "www.icitesailleurs.fr", "contact_phone": "+33 6 65 71 92 68", "contact_email": "hugo.fonteneau93@gmail.com", "status": 1, "source_type": 1, "numberReviews": 188}, {"name": "Le Bistrot d'Antoine", "type": "restaurant", "image": "https://dynamic-media-cdn.tripadvisor.com/media/photo-o/0b/ea/b2/8f/photo4jpg.jpg?w=1000&s=1", "address": "27 Rue de la Prefecture, 06300 Nice France", "lat": 43.696377, "lng": 7.27628, "ref_id": 2328934, "rating": 4.5, "num_reviews": 0, "website": null, "contact_phone": "+33 4 93 85 29 57", "contact_email": "", "status": 1, "source_type": 1, "numberReviews": 1764}, {"name": "le Barbecue", "type": "restaurant", "image": "https://dynamic-media-cdn.tripadvisor.com/media/photo-o/15/a9/fb/71/delicieux-repas-merci.jpg?w=1000&s=1", "address": "3 rue du Four 06300, 06300 Nice France", "lat": 43.698933, "lng": 7.278645, "ref_id": 1766692, "rating": 4.5, "num_reviews": 0, "website": "https://www.facebook.com/154988334575135", "contact_phone": "+33 4 93 53 02 59", "contact_email": "Lelilasblanc.pro@gmail.com", "status": 1, "source_type": 1, "numberReviews": 929}, {"name": "La Zagara", "type": "restaurant", "image": "https://dynamic-media-cdn.tripadvisor.com/media/photo-o/1a/94/cc/4c/buccatini-espadon-et.jpg?w=1000&s=1", "address": "9 boulevard Kennedy, 06800 Cagnes-sur-Mer France", "lat": 43.65391, "lng": 7.151662, "ref_id": 18900947, "rating": 4.5, "num_reviews": 0, "website": "http://lazagara06800.blogspot.com/", "contact_phone": "+33 4 89 97 86 55", "contact_email": null, "status": 1, "source_type": 1, "numberReviews": 165}, {"name": "Le Lunel", "type": "restaurant", "image": "https://dynamic-media-cdn.tripadvisor.com/media/photo-o/12/ab/4d/57/la-suggestion-du-jour.jpg?w=1000&s=1", "address": "20 quai Lunel, 06300 Nice France", "lat": 43.695957, "lng": 7.283502, "ref_id": 1580184, "rating": 4.5, "num_reviews": 0, "website": "http://www.facebook.com/lelunel/", "contact_phone": "+33 4 92 04 04 93", "contact_email": "", "status": 1, "source_type": 1, "numberReviews": 232}, {"name": "Malabar restaurant", "type": "restaurant", "image": "https://dynamic-media-cdn.tripadvisor.com/media/photo-o/18/bc/01/eb/terrasse.jpg?w=1000&s=1", "address": "7 Rue des Remparts O, St-Paul-de-Vence France", "lat": 43.696804, "lng": 7.121637, "ref_id": 1546033, "rating": 4.5, "num_reviews": 0, "website": "http://www.restaurantmalabar.com/", "contact_phone": "+33 4 93 32 60 14", "contact_email": "", "status": 1, "source_type": 1, "numberReviews": 655}, {"name": "Le Vietnam", "type": "restaurant", "image": "https://dynamic-media-cdn.tripadvisor.com/media/photo-o/19/19/73/9b/photo0jpg.jpg?w=1000&s=1", "address": "108 avenue de Nice, 06800 Cagnes-sur-Mer France", "lat": 43.659256, "lng": 7.166909, "ref_id": 3611448, "rating": 4.5, "num_reviews": 0, "website": "https://www.facebook.com/levietnamcagnes/?ref=page_internal", "contact_phone": "+33 4 92 04 23 46", "contact_email": null, "status": 1, "source_type": 1, "numberReviews": 496}, {"name": "LOBSTA - Mass\u00e9na", "type": "restaurant", "image": "https://dynamic-media-cdn.tripadvisor.com/media/photo-o/24/5c/6b/0b/logo-lobsta.jpg?w=1000&s=1", "address": "5 Place Massena, 06000 Nice France", "lat": 43.697567, "lng": 7.266849, "ref_id": 14195839, "rating": 4.5, "num_reviews": 0, "website": "https://lobsta.fr/", "contact_phone": "+33 4 93 55 95 08", "contact_email": "contact@lobsta.fr", "status": 1, "source_type": 1, "numberReviews": 311}, {"name": "Le Maquis", "type": "restaurant", "image": "https://dynamic-media-cdn.tripadvisor.com/media/photo-o/18/ca/6e/c5/p-20190815-123200-largejpg.jpg?w=1000&s=1", "address": "7 rue de l Abbaye 14 rue de l'Abbaye, 06300 Nice France", "lat": 43.69676, "lng": 7.275527, "ref_id": 3364060, "rating": 4.5, "num_reviews": 0, "website": "http://www.lemaquisnice.fr", "contact_phone": "+33 4 93 91 35 44", "contact_email": "nicelemaquis@gmail.com", "status": 1, "source_type": 1, "numberReviews": 1099}, {"name": "Mama Ga\u00efa", "type": "restaurant", "image": "https://dynamic-media-cdn.tripadvisor.com/media/photo-o/1b/5d/67/21/our-lovely-terrace-in.jpg?w=1000&s=1", "address": "2 rue des Portiques Place Godeau, 06140 Vence France", "lat": 43.722668, "lng": 7.114014, "ref_id": 12320393, "rating": 4.5, "num_reviews": 0, "website": "http://www.facebook.com/MamaGaiarestaurant/", "contact_phone": "+33 9 66 92 42 58", "contact_email": "mamagaiarestaurant@gmail.com", "status": 1, "source_type": 1, "numberReviews": 131}, {"name": "Portovenere", "type": "restaurant", "image": "https://dynamic-media-cdn.tripadvisor.com/media/photo-o/1b/d0/45/96/photo1jpg.jpg?w=1000&s=1", "address": "12 rue Halevy, 06000 Nice France", "lat": 43.69617, "lng": 7.265292, "ref_id": 2652832, "rating": 4.5, "num_reviews": 0, "website": "http://portovenere-nice.fr/", "contact_phone": "+33 4 93 88 24 92", "contact_email": "", "status": 1, "source_type": 1, "numberReviews": 583}, {"name": "Le Boudoir", "type": "restaurant", "image": "https://dynamic-media-cdn.tripadvisor.com/media/photo-s/02/80/98/e1/le-boudoir.jpg?w=1000&s=1", "address": "10 rue Chauvain, 06000 Nice France", "lat": 43.69891, "lng": 7.271104, "ref_id": 2185870, "rating": 4.5, "num_reviews": 0, "website": "http://leboudoirnice.fr/", "contact_phone": "+33 4 93 87 55 54", "contact_email": "", "status": 1, "source_type": 1, "numberReviews": 1576}, {"name": "O Tablier du Boucher", "type": "restaurant", "image": "https://dynamic-media-cdn.tripadvisor.com/media/photo-o/15/a3/46/97/boucherie-charcuterie.jpg?w=1000&s=1", "address": "122 route de la Paoute, 06130, Grasse France", "lat": 43.632202, "lng": 6.957504, "ref_id": 15144494, "rating": 4.5, "num_reviews": 0, "website": "www.facebook.com/otablierduboucher/", "contact_phone": "+33 4 93 42 03 91", "contact_email": "otablierduboucher@orange.fr", "status": 1, "source_type": 1, "numberReviews": 258}, {"name": "La Cabane", "type": "restaurant", "image": "https://dynamic-media-cdn.tripadvisor.com/media/photo-o/11/e1/83/b4/la-cabane-devient-chateau.jpg?w=1000&s=1", "address": "Avenue Freres Roustan Port Camille Rayon, 06220 Golfe-Juan Vallauris, Vallauris France", "lat": 43.567642, "lng": 7.080759, "ref_id": 2374651, "rating": 4.5, "num_reviews": 0, "website": "http://www.facebook.com/La-cabane-golfe-juan-113280227022902", "contact_phone": "+33 4 93 63 00 60", "contact_email": "thomascolinet@wanadoo.fr", "status": 1, "source_type": 1, "numberReviews": 371}, {"name": "Flaveur", "type": "restaurant", "image": "https://dynamic-media-cdn.tripadvisor.com/media/photo-o/10/0e/5d/3c/photo3jpg.jpg?w=1000&s=1", "address": "25 rue Gubernatis, 06000 Nice France", "lat": 43.701347, "lng": 7.271922, "ref_id": 1591476, "rating": 4.5, "num_reviews": 0, "website": "http://restaurant-flaveur.com", "contact_phone": "+33 4 93 62 53 95", "contact_email": "reservation@flaveur.net", "status": 1, "source_type": 1, "numberReviews": 681}, {"name": "Cose Cosi", "type": "restaurant", "image": "https://dynamic-media-cdn.tripadvisor.com/media/photo-o/18/f5/33/bc/tropo-buono.jpg?w=1000&s=1", "address": "10 rue Saint Gaetan ancien detaillant aux parfums de GRASSE maison poilpot, 06300 Nice France", "lat": 43.69611, "lng": 7.275446, "ref_id": 3293506, "rating": 4.5, "num_reviews": 0, "website": "https://www.facebook.com/211855945964582", "contact_phone": "+33 7 60 30 27 11", "contact_email": "ivervaecke@yahoo.com", "status": 1, "source_type": 1, "numberReviews": 170}, {"name": "Cap Riviera", "type": "restaurant", "image": "https://dynamic-media-cdn.tripadvisor.com/media/photo-o/03/85/f2/a9/cap-riviera.jpg?w=1000&s=1", "address": "13 Boulevard Edouard Baudoin Residence Eden Beach, Juan-les-Pins, Antibes France", "lat": 43.567337, "lng": 7.112781, "ref_id": 3808951, "rating": 4.5, "num_reviews": 0, "website": "http://www.cap-riviera.fr", "contact_phone": "+33 4 93 61 22 30", "contact_email": null, "status": 1, "source_type": 1, "numberReviews": 1455}, {"name": "Le Clos Cosette", "type": "restaurant", "image": "https://dynamic-media-cdn.tripadvisor.com/media/photo-o/17/c8/6b/78/saumon-et-crevettes.jpg?w=1000&s=1", "address": "1 avenue du Tapis Vert, 06220, Vallauris France", "lat": 43.575974, "lng": 7.05637, "ref_id": 2702659, "rating": 4.5, "num_reviews": 0, "website": "http://le-clos-cosette-restaurant-vallauris.com", "contact_phone": "+33 6 22 47 46 01", "contact_email": "", "status": 1, "source_type": 1, "numberReviews": 704}, {"name": "I'Escalinada", "type": "restaurant", "image": "https://dynamic-media-cdn.tripadvisor.com/media/photo-o/1b/e8/43/f0/photo0jpg.jpg?w=1000&s=1", "address": "22 rue Pairoliere, 06300 Nice France", "lat": 43.69971, "lng": 7.279091, "ref_id": 3316634, "rating": 4.5, "num_reviews": 0, "website": "https://www.facebook.com/lescalinada/", "contact_phone": "+33 4 93 62 11 71", "contact_email": "contact@escalinada.fr", "status": 1, "source_type": 1, "numberReviews": 326}, {"name": "Le Petit Fouet", "type": "restaurant", "image": "https://dynamic-media-cdn.tripadvisor.com/media/photo-o/15/9e/7d/1e/decoration-noel.jpg?w=1000&s=1", "address": "12 Place du Commandant Lamy, 06250 Mougins France", "lat": 43.600212, "lng": 6.99467, "ref_id": 1068770, "rating": 4.5, "num_reviews": 0, "website": "http://www.lepetitfouet.fr", "contact_phone": "+33 4 92 92 11 70", "contact_email": "lepetitfouet@hotmail.com", "status": 1, "source_type": 1, "numberReviews": 683}, {"name": "Le Siecle", "type": "restaurant", "image": "https://dynamic-media-cdn.tripadvisor.com/media/photo-o/16/c1/85/12/notre-terrasse.jpg?w=1000&s=1", "address": "31 Promenade des Anglais, 06000 Nice France", "lat": 43.694763, "lng": 7.259783, "ref_id": 2032374, "rating": 4.5, "num_reviews": 0, "website": "https://www.hotel-westend.com/en/le-siecle-restaurant/", "contact_phone": "+33 4 92 14 44 09", "contact_email": "restaurant@westendnice.com", "status": 1, "source_type": 1, "numberReviews": 522}, {"name": "Obatik", "type": "restaurant", "image": "https://dynamic-media-cdn.tripadvisor.com/media/photo-o/13/a6/a2/38/shrimp-scampi-with-pasta.jpg?w=1000&s=1", "address": "Rue Bastion St Remy, 06570 St-Paul-de-Vence France", "lat": 43.697063, "lng": 7.121556, "ref_id": 14078434, "rating": 4.5, "num_reviews": 0, "website": "https://obatik.fr/", "contact_phone": "+33 6 29 75 40 36", "contact_email": null, "status": 1, "source_type": 1, "numberReviews": 258}, {"name": "La Grignotiere", "type": "restaurant", "image": "https://dynamic-media-cdn.tripadvisor.com/media/photo-o/0e/9e/9a/da/20170218-215520-largejpg.jpg?w=1000&s=1", "address": "3 rue du Poilu, 06230 Villefranche-sur-Mer France", "lat": 43.703365, "lng": 7.311288, "ref_id": 1170139, "rating": 4.5, "num_reviews": 0, "website": "http://www.la-grignotiere-restaurant-villefranche-sur-mer.com/", "contact_phone": "+33 4 93 76 79 83", "contact_email": "", "status": 1, "source_type": 1, "numberReviews": 769}, {"name": "Peixes Op\u00e9ra", "type": "restaurant", "image": "https://dynamic-media-cdn.tripadvisor.com/media/photo-o/22/bd/a5/54/logo.jpg?w=1000&s=1", "address": "4 rue Jacques Medecin, 06300 Nice France", "lat": 43.696026, "lng": 7.27101, "ref_id": 10486626, "rating": 4.5, "num_reviews": 0, "website": "http://www.facebook.com/pages/Peixes-Nice/1740094829562105", "contact_phone": "+33 4 93 85 96 15", "contact_email": null, "status": 1, "source_type": 1, "numberReviews": 864}, {"name": "CheZ'elles", "type": "restaurant", "image": "https://dynamic-media-cdn.tripadvisor.com/media/photo-o/12/a5/5b/25/20180415-142529-largejpg.jpg?w=1000&s=1", "address": "2 rue du Peyra, 06140 Vence France", "lat": 43.723183, "lng": 7.11303, "ref_id": 10084633, "rating": 4.5, "num_reviews": 0, "website": "http://www.facebook.com/Restaurant-CheZelles--1664510777130998", "contact_phone": "+33 4 93 58 10 21", "contact_email": "restaurantchezzelles@gmail.com", "status": 1, "source_type": 1, "numberReviews": 185}, {"name": "Brasserie le Garnier", "type": "restaurant", "image": "https://dynamic-media-cdn.tripadvisor.com/media/photo-o/24/09/5f/1d/risotto-au-chorizo-et.jpg?w=1000&s=1", "address": "48 boulevard Joseph Garnier, 06000 Nice France", "lat": 43.71015, "lng": 7.256051, "ref_id": 7105035, "rating": 4, "num_reviews": 0, "website": "https://www.facebook.com/Brasserie-le-Garnier-805552152849646/?ref=page_internal", "contact_phone": "+33 4 93 98 24 26", "contact_email": null, "status": 1, "source_type": 1, "numberReviews": 430}, {"name": "Etna Rosso Nice Restaurant", "type": "restaurant", "image": "https://dynamic-media-cdn.tripadvisor.com/media/photo-o/0c/46/04/77/img-20160728-134546-largejpg.jpg?w=1000&s=1", "address": "18 Rue Benoit Bunico, 06300 Nice France", "lat": 43.700615, "lng": 7.283889, "ref_id": 10396268, "rating": 4.5, "num_reviews": 0, "website": "http://www.etna-rosso-restaurant-nice.com/", "contact_phone": "+33 7 45 17 16 78", "contact_email": "etnarosso@icloud.com", "status": 1, "source_type": 1, "numberReviews": 148}, {"name": "Mamma Mia", "type": "restaurant", "image": "https://dynamic-media-cdn.tripadvisor.com/media/photo-o/17/cf/ef/e2/mamma-mia.jpg?w=1000&s=1", "address": "37 boulevard Charles Guillaumont, 06160 Juan-les-Pins, Antibes France", "lat": 43.569893, "lng": 7.106321, "ref_id": 6998021, "rating": 4.5, "num_reviews": 0, "website": "http://www.facebook.com/Mamma-Mia-179585582551949/", "contact_phone": "+33 6 15 54 30 39", "contact_email": "Michalet.franck06@gmail.com", "status": 1, "source_type": 1, "numberReviews": 266}, {"name": "Le Socle", "type": "restaurant", "image": "https://dynamic-media-cdn.tripadvisor.com/media/photo-o/2c/8a/1a/ee/bienvenue-dans-un-restaurant.jpg?w=1000&s=1", "address": "17 Rue Barla, 06300 Nice France", "lat": 43.70195, "lng": 7.283095, "ref_id": 26622395, "rating": 5, "num_reviews": 0, "website": null, "contact_phone": "+33 9 87 48 93 57", "contact_email": "lesocle.restaurant@gmail.com", "status": 1, "source_type": 1, "numberReviews": 39}, {"name": "L'Ecurie Restaurant", "type": "restaurant", "image": "https://dynamic-media-cdn.tripadvisor.com/media/photo-o/15/6e/2e/a0/photo0jpg.jpg?w=1000&s=1", "address": "4 rue du Marche, 06300 Nice France", "lat": 43.69759, "lng": 7.275202, "ref_id": 1178397, "rating": 4, "num_reviews": 0, "website": "http://www.restaurant-lecurie-nice.fr/", "contact_phone": "+33 4 93 62 32 62", "contact_email": "", "status": 1, "source_type": 1, "numberReviews": 1598}, {"name": "La Regence Caf\u00e9", "type": "restaurant", "image": "https://dynamic-media-cdn.tripadvisor.com/media/photo-o/22/be/2b/ac/table-interieur.jpg?w=1000&s=1", "address": "10 Place du grand Jardin, 06140 Vence France", "lat": 43.722626, "lng": 7.111826, "ref_id": 1942899, "rating": 4, "num_reviews": 0, "website": "https://www.regencecafe.com/", "contact_phone": "+33 4 93 24 02 10", "contact_email": "vd.regencecafe@gmail.com", "status": 1, "source_type": 1, "numberReviews": 702}, {"name": "Little Rock Diner", "type": "restaurant", "image": "https://dynamic-media-cdn.tripadvisor.com/media/photo-o/1c/45/34/a4/un-burger-parmi-tant.jpg?w=1000&s=1", "address": "141 route de Nice, 06600, Antibes France", "lat": 43.601353, "lng": 7.122244, "ref_id": 4082124, "rating": 4, "num_reviews": 0, "website": "http://littlerockdiner.com", "contact_phone": "+33 4 93 74 28 40", "contact_email": "littlerockdiner@yahoo.fr", "status": 1, "source_type": 1, "numberReviews": 487}, {"name": "Les Epicuriens", "type": "restaurant", "image": "https://dynamic-media-cdn.tripadvisor.com/media/photo-o/0d/7d/92/41/20161101-123641-largejpg.jpg?w=1000&s=1", "address": "6 Place Wilson, 06000 Nice France", "lat": 43.700462, "lng": 7.273076, "ref_id": 1048411, "rating": 4, "num_reviews": 0, "website": "http://www.les-epicuriens.com", "contact_phone": "+33 4 93 80 85 00", "contact_email": "mathey93@hotmail.fr", "status": 1, "source_type": 1, "numberReviews": 983}, {"name": "Plage de la Jetee", "type": "restaurant", "image": "https://dynamic-media-cdn.tripadvisor.com/media/photo-o/19/1b/e8/f3/photo1jpg.jpg?w=1000&s=1", "address": "21 avenue Guy de Maupassant 21 AV Guy de Maupassant, 06160 Juan-les-Pins, Antibes France", "lat": 43.568745, "lng": 7.109004, "ref_id": 4268060, "rating": 4, "num_reviews": 0, "website": "http://www.plagelajetee.com", "contact_phone": "+33 4 93 61 16 74", "contact_email": "plagedelajetee@hotmail.fr", "status": 1, "source_type": 1, "numberReviews": 913}, {"name": "La Fourmigue", "type": "restaurant", "image": "https://dynamic-media-cdn.tripadvisor.com/media/photo-o/28/5d/ec/8d/les-entrees.jpg?w=1000&s=1", "address": "18 avenue des Freres Roustan Port Camille Rayon, 06220 Golfe-Juan Vallauris, Vallauris France", "lat": 43.568085, "lng": 7.081488, "ref_id": 3808988, "rating": 4.5, "num_reviews": 0, "website": "http://www.lafourmigue.com", "contact_phone": "+33 4 93 63 62 72", "contact_email": "pausuma@orange.fr", "status": 1, "source_type": 1, "numberReviews": 466}, {"name": "Le Bistrot de Bacchus", "type": "restaurant", "image": "https://dynamic-media-cdn.tripadvisor.com/media/photo-o/1c/0f/1b/b0/dsc-2025-largejpg.jpg?w=1000&s=1", "address": "15 cours Massena, 06600, Antibes France", "lat": 43.580467, "lng": 7.127453, "ref_id": 21126451, "rating": 4.5, "num_reviews": 0, "website": null, "contact_phone": "+33 9 83 35 61 66", "contact_email": null, "status": 1, "source_type": 1, "numberReviews": 74}, {"name": "Le Eleven", "type": "restaurant", "image": "https://dynamic-media-cdn.tripadvisor.com/media/photo-o/13/04/78/5a/7-eleven.jpg?w=1000&s=1", "address": "53 boulevard General Louis Delfino, 06300 Nice France", "lat": 43.70424, "lng": 7.288752, "ref_id": 10397969, "rating": 5, "num_reviews": 0, "website": "https://www.7-eleven.com/", "contact_phone": "+33 4 83 55 17 49", "contact_email": "lotusbleu.02.03@gmail.com", "status": 1, "source_type": 1, "numberReviews": 80}, {"name": "Momento Da Salvo", "type": "restaurant", "image": "https://dynamic-media-cdn.tripadvisor.com/media/photo-o/2c/89/8b/5d/caption.jpg?w=1000&s=1", "address": "22 Rue Fourmilli\u00e8re, 06600, Antibes France", "lat": 43.58008, "lng": 7.122908, "ref_id": 27509127, "rating": 5, "num_reviews": 0, "website": "https://www.momentodasalvo.fr", "contact_phone": "+33 4 92 90 06 45", "contact_email": "ciao@momentodasalvo.fr", "status": 1, "source_type": 1, "numberReviews": 38}, {"name": "Casa Leya", "type": "restaurant", "image": "https://dynamic-media-cdn.tripadvisor.com/media/photo-o/11/9c/57/3a/table-centrale-autour.jpg?w=1000&s=1", "address": "36 Cours Saleya, 06300 Nice France", "lat": 43.69562, "lng": 7.27369, "ref_id": 13320168, "rating": 4, "num_reviews": 0, "website": "http://www.casaleya.com", "contact_phone": "+33 4 92 47 80 90", "contact_email": "reservation@casaleya.com", "status": 1, "source_type": 1, "numberReviews": 1022}, {"name": "La Ratapignata Resto", "type": "restaurant", "image": "https://dynamic-media-cdn.tripadvisor.com/media/photo-o/13/fd/35/06/cassolette-de-fruits.jpg?w=1000&s=1", "address": "63 avenue du Ray, 06100 Nice France", "lat": 43.72533, "lng": 7.252654, "ref_id": 10492060, "rating": 4.5, "num_reviews": 0, "website": "http://racinesdupaysnicois.eu/?p=1727", "contact_phone": "+33 4 92 15 06 39", "contact_email": null, "status": 1, "source_type": 1, "numberReviews": 129}, {"name": "Lou Pantail", "type": "restaurant", "image": "https://dynamic-media-cdn.tripadvisor.com/media/photo-o/2a/7f/40/e7/salle-de-restaurant.jpg?w=1000&s=1", "address": "107 avenue Saint Lambert, 06100 Nice France", "lat": 43.714233, "lng": 7.262376, "ref_id": 1111878, "rating": 4, "num_reviews": 0, "website": "http://www.loupantail.com", "contact_phone": "+33 4 93 52 02 51", "contact_email": "contact@loupantail.com", "status": 1, "source_type": 1, "numberReviews": 663}, {"name": "Attimi", "type": "restaurant", "image": "https://dynamic-media-cdn.tripadvisor.com/media/photo-o/04/28/da/1b/attimi.jpg?w=1000&s=1", "address": "Place Massena 10 place Massena, 06000 Nice France", "lat": 43.696865, "lng": 7.271066, "ref_id": 2222137, "rating": 4, "num_reviews": 0, "website": "http://www.attimi.fr", "contact_phone": "+33 4 93 91 05 26", "contact_email": "info@attimi.fr", "status": 1, "source_type": 1, "numberReviews": 1928}, {"name": "Brasserie Les Touristes", "type": "restaurant", "image": "https://dynamic-media-cdn.tripadvisor.com/media/photo-o/11/13/c5/aa/hachis-parmentier.jpg?w=1000&s=1", "address": "2411 route Departementale 6007, 06270 Villeneuve-Loubet France", "lat": 43.62784, "lng": 7.133122, "ref_id": 1483482, "rating": 4.5, "num_reviews": 0, "website": "http://brasserielestouristes.com", "contact_phone": "+33 4 93 22 41 56", "contact_email": "", "status": 1, "source_type": 1, "numberReviews": 174}, {"name": "Le Tire Bouchon", "type": "restaurant", "image": "https://dynamic-media-cdn.tripadvisor.com/media/photo-o/1d/09/dd/a2/nouvelle-deco.jpg?w=1000&s=1", "address": "19 rue de la Prefecture, 06300 Nice France", "lat": 43.69677, "lng": 7.275361, "ref_id": 942429, "rating": 4, "num_reviews": 0, "website": "http://www.le-tire-bouchon.com/", "contact_phone": "+33 4 93 92 63 64", "contact_email": "michael.letirebouchon@gmail.com", "status": 1, "source_type": 1, "numberReviews": 1767}, {"name": "La Casa", "type": "restaurant", "image": "https://dynamic-media-cdn.tripadvisor.com/media/photo-o/0c/68/5d/ff/fiesta-a-la-casa.jpg?w=1000&s=1", "address": "Port Camille Rayon Avenue des Freres Roustan, 06220 Golfe-Juan Vallauris, Vallauris France", "lat": 43.56814, "lng": 7.08174, "ref_id": 7145582, "rating": 4.5, "num_reviews": 0, "website": "http://www.la-casa-restaurant-vallauris.com/", "contact_phone": "+33 6 86 46 92 76", "contact_email": null, "status": 1, "source_type": 1, "numberReviews": 274}, {"name": "Kililie's Resto-Brunch", "type": "restaurant", "image": "https://dynamic-media-cdn.tripadvisor.com/media/photo-o/16/38/bf/49/le-kililies-resto-brunch.jpg?w=1000&s=1", "address": "21 rue Delille, 06000 Nice France", "lat": 43.702217, "lng": 7.274487, "ref_id": 4105217, "rating": 4.5, "num_reviews": 0, "website": "https://www.kililies.fr/", "contact_phone": "+33 4 93 91 35 65", "contact_email": "kililies@hotmail.fr", "status": 1, "source_type": 1, "numberReviews": 353}, {"name": "Sawasdee Restaurant", "type": "restaurant", "image": "https://dynamic-media-cdn.tripadvisor.com/media/photo-o/19/c9/43/8a/plat.jpg?w=1000&s=1", "address": "1 rue Francis Gallo, 06300 Nice France", "lat": 43.69763, "lng": 7.275371, "ref_id": 18194811, "rating": 4.5, "num_reviews": 0, "website": "http://www.facebook.com/Sawasdee06", "contact_phone": "+33 4 93 62 19 39", "contact_email": "elie_acoustisque@hotmail.fr", "status": 1, "source_type": 1, "numberReviews": 103}, {"name": "Restaurant Taj Mahal port camille rayon", "type": "restaurant", "image": "https://dynamic-media-cdn.tripadvisor.com/media/photo-o/16/77/08/3d/restaurant-taj-mahal.jpg?w=1000&s=1", "address": "quai Napoleon Port Camille Rayon, 06220 Golfe-Juan Vallauris, Vallauris France", "lat": 43.56802, "lng": 7.082054, "ref_id": 12170599, "rating": 4.5, "num_reviews": 0, "website": "http://www.tajmahal-golfe.fr", "contact_phone": "+33 4 97 21 04 80", "contact_email": "hassan_rehman@hotmail.fr", "status": 1, "source_type": 1, "numberReviews": 163}, {"name": "Yose Bar & Cocina", "type": "restaurant", "image": "https://dynamic-media-cdn.tripadvisor.com/media/photo-o/1d/8d/aa/e3/yose-bar-cocina.jpg?w=1000&s=1", "address": "20 rue Bonaparte, 06300 Nice France", "lat": 43.700546, "lng": 7.28379, "ref_id": 23574711, "rating": 4.5, "num_reviews": 0, "website": "http://www.yoserestaurant.fr", "contact_phone": "+33 9 83 46 43 21", "contact_email": "contact@yoserestaurant.com", "status": 1, "source_type": 1, "numberReviews": 85}, {"name": "L'Atelier Gourmand", "type": "restaurant", "image": "https://dynamic-media-cdn.tripadvisor.com/media/photo-o/27/c4/0b/82/notre-terrasse.jpg?w=1000&s=1", "address": "Place de la Clastre, 06140 Coursegoules France", "lat": 43.794785, "lng": 7.039405, "ref_id": 10780499, "rating": 4.5, "num_reviews": 0, "website": "http://fr-ca.facebook.com/pages/LAtelier-Gourmand/455006204549594", "contact_phone": "+33 4 93 32 70 88", "contact_email": null, "status": 1, "source_type": 1, "numberReviews": 123}, {"name": "Bistrot Lougolin", "type": "restaurant", "image": "https://dynamic-media-cdn.tripadvisor.com/media/photo-o/1c/2b/db/e0/rouleaux-de-tourteau.jpg?w=1000&s=1", "address": "381 Route de Plascassier, 06130, Grasse France", "lat": 43.638935, "lng": 6.972973, "ref_id": 14039802, "rating": 4, "num_reviews": 0, "website": "https://lougolin.com/", "contact_phone": "+33 4 93 60 14 44", "contact_email": "contact@lougolin.com", "status": 1, "source_type": 1, "numberReviews": 500}, {"name": "Les Distilleries Ideales", "type": "restaurant", "image": "https://dynamic-media-cdn.tripadvisor.com/media/photo-o/09/9a/27/d7/les-distilleries-ideales.jpg?w=1000&s=1", "address": "24 rue de la Prefecture angle rue de la poissonnerie face \u00e0 l'eglise Sainte R\u00e9parate, 06300 Nice France", "lat": 43.696278, "lng": 7.276649, "ref_id": 2250275, "rating": 4.5, "num_reviews": 0, "website": "https://www.facebook.com/183683948641914", "contact_phone": "+33 4 93 62 10 66", "contact_email": "", "status": 1, "source_type": 1, "numberReviews": 433}, {"name": "Il Tinello", "type": "restaurant", "image": "https://dynamic-media-cdn.tripadvisor.com/media/photo-o/19/2a/6f/42/vero-italiano.jpg?w=1000&s=1", "address": "35 boulevard Charles Guillaumont, 06160 Juan-les-Pins, Antibes France", "lat": 43.56997, "lng": 7.106016, "ref_id": 17470552, "rating": 4.5, "num_reviews": 0, "website": "http://tinello.fr/", "contact_phone": "+33 9 53 00 08 46", "contact_email": "contact@tinello.fr", "status": 1, "source_type": 1, "numberReviews": 116}, {"name": "Indian Lounge", "type": "restaurant", "image": "https://dynamic-media-cdn.tripadvisor.com/media/photo-o/0e/8f/a1/95/inside-the-restaurant.jpg?w=1000&s=1", "address": "34 Rue Droite, 06300 Nice France", "lat": 43.69691, "lng": 7.277166, "ref_id": 786962, "rating": 4, "num_reviews": 0, "website": "http://restaurant-indianlounge-nice.com", "contact_phone": "+33 4 93 85 38 39", "contact_email": "nice.indianlounge@gmail.com", "status": 1, "source_type": 1, "numberReviews": 875}, {"name": "Cibo Bistrot", "type": "restaurant", "image": "https://dynamic-media-cdn.tripadvisor.com/media/photo-o/06/63/ff/aa/cibo-bistrot.jpg?w=1000&s=1", "address": "4 rue Defly, 06000 Nice France", "lat": 43.70185, "lng": 7.27749, "ref_id": 5792406, "rating": 4.5, "num_reviews": 0, "website": "https://www.facebook.com/Cibo-Bistrot-411856528881272/", "contact_phone": "+33 4 93 80 79 09", "contact_email": null, "status": 1, "source_type": 1, "numberReviews": 87}, {"name": "Onaka Restaurant", "type": "restaurant", "image": "https://dynamic-media-cdn.tripadvisor.com/media/photo-o/28/f7/4a/43/caption.jpg?w=1000&s=1", "address": "12 Passage Massena, 06000 Nice France", "lat": 43.697933, "lng": 7.26752, "ref_id": 24906270, "rating": 4.5, "num_reviews": 0, "website": "https://onaka-restaurant.com/", "contact_phone": "+33 9 52 97 26 83", "contact_email": "onaka.restaurant@gmail.com", "status": 1, "source_type": 1, "numberReviews": 56}, {"name": "Au Vieux Four", "type": "restaurant", "image": "https://dynamic-media-cdn.tripadvisor.com/media/photo-o/07/a6/e0/66/exterieur-pizza-4-saisons.jpg?w=1000&s=1", "address": "1 rue Emmanuel Philibert, 06300 Nice France", "lat": 43.701447, "lng": 7.283381, "ref_id": 1105008, "rating": 4, "num_reviews": 0, "website": "https://www.facebook.com/Au-Vieux-Four-100370426714364/?ref=br_rs", "contact_phone": "+33 4 93 89 00 89", "contact_email": null, "status": 1, "source_type": 1, "numberReviews": 349}, {"name": "Pane e Vino", "type": "restaurant", "image": "https://dynamic-media-cdn.tripadvisor.com/media/photo-o/06/4e/be/87/pane-e-vino.jpg?w=1000&s=1", "address": "2 boulevard Marechal Leclerc, 06600, Antibes France", "lat": 43.576485, "lng": 7.125386, "ref_id": 2166182, "rating": 4, "num_reviews": 0, "website": "http://www.panevino.fr/", "contact_phone": "+33 4 93 34 00 21", "contact_email": "contact@panevino.fr", "status": 1, "source_type": 1, "numberReviews": 294}, {"name": "Le Jardin Du Windsor", "type": "restaurant", "image": "https://dynamic-media-cdn.tripadvisor.com/media/photo-o/06/1a/6d/e8/le-jardin-du-windsor.jpg?w=1000&s=1", "address": "11 rue Dalpozzo Hotel Windsor, 06000 Nice France", "lat": 43.69779, "lng": 7.261278, "ref_id": 1401834, "rating": 4.5, "num_reviews": 0, "website": "http://www.hotelwindsornice.com/wi-jungle", "contact_phone": "+33 4 93 88 59 35", "contact_email": "contact@hotelwindsornice.com", "status": 1, "source_type": 1, "numberReviews": 168}, {"name": "Maison Marc", "type": "restaurant", "image": "https://dynamic-media-cdn.tripadvisor.com/media/photo-o/15/82/75/f3/il-etait-temps.jpg?w=1000&s=1", "address": "10 Place du grand Jardin, 06140 Vence France", "lat": 43.72277, "lng": 7.111889, "ref_id": 14980184, "rating": 4.5, "num_reviews": 0, "website": null, "contact_phone": "+33 9 67 14 16 43", "contact_email": null, "status": 1, "source_type": 1, "numberReviews": 130}, {"name": "Plage Helios", "type": "restaurant", "image": "https://dynamic-media-cdn.tripadvisor.com/media/photo-o/0f/48/8f/ac/salade-de-homard-sur.jpg?w=1000&s=1", "address": "2 boulevard \u00c9douard Baudoin, 06160 Juan-les-Pins, Antibes France", "lat": 43.5683, "lng": 7.110821, "ref_id": 2054420, "rating": 4, "num_reviews": 0, "website": "https://www.facebook.com/p/Helios-Plage-100063785364395/?locale=fr_FR", "contact_phone": "+33 4 93 61 85 77", "contact_email": "Plage.Helios@wanadoo.fr", "status": 1, "source_type": 1, "numberReviews": 599}, {"name": "L\u2019Embuscade", "type": "restaurant", "image": "https://dynamic-media-cdn.tripadvisor.com/media/photo-o/1d/97/52/49/notre-jolie-enseigne.jpg?w=1000&s=1", "address": "Place du grand Jardin, 06140 Vence France", "lat": 43.7222, "lng": 7.111814, "ref_id": 23401221, "rating": 5, "num_reviews": 0, "website": "http://www.lembuscade-vence.fr/", "contact_phone": "+33 6 26 63 81 17", "contact_email": "c@lembuscade-vence.fr", "status": 1, "source_type": 1, "numberReviews": 38}, {"name": "Brasserie Au Cafe", "type": "restaurant", "image": "https://dynamic-media-cdn.tripadvisor.com/media/photo-o/17/5a/a5/2c/photo0jpg.jpg?w=1000&s=1", "address": "30 avenue Robert Soleau, 06600, Antibes France", "lat": 43.58305, "lng": 7.12035, "ref_id": 3380342, "rating": 4.5, "num_reviews": 0, "website": null, "contact_phone": "+33 4 92 90 08 67", "contact_email": null, "status": 1, "source_type": 1, "numberReviews": 65}, {"name": "Mets Saisons", "type": "restaurant", "image": "https://dynamic-media-cdn.tripadvisor.com/media/photo-o/16/e0/9b/9d/piccata-de-veau-legumes.jpg?w=1000&s=1", "address": "7 boulevard Marechal Juin, 06800 Cagnes-sur-Mer France", "lat": 43.66177, "lng": 7.15075, "ref_id": 14135690, "rating": 5, "num_reviews": 0, "website": "https://www.facebook.com/metssaisons/", "contact_phone": "+33 4 89 24 82 08", "contact_email": "contact@metssaisons.fr", "status": 1, "source_type": 1, "numberReviews": 51}, {"name": "Le Plaisance", "type": "restaurant", "image": "https://dynamic-media-cdn.tripadvisor.com/media/photo-o/21/60/82/96/l-equipe.jpg?w=1000&s=1", "address": "Mole Ouest Port de st Laurent mole ouest, 06700 St-Laurent du Var France", "lat": 43.655884, "lng": 7.180197, "ref_id": 11180646, "rating": 4.5, "num_reviews": 0, "website": "http://www.facebook.com/Le-plaisance-517491098460580/", "contact_phone": "+33 6 75 74 63 36", "contact_email": "leplaisance06700@gmail.com", "status": 1, "source_type": 1, "numberReviews": 165}, {"name": "Casa Elli", "type": "restaurant", "image": "https://dynamic-media-cdn.tripadvisor.com/media/photo-o/1a/90/bd/6c/nuova-gestione.jpg?w=1000&s=1", "address": "11 Rue Maccarani, 06000 Nice France", "lat": 43.697918, "lng": 7.264589, "ref_id": 8545781, "rating": 4.5, "num_reviews": 0, "website": "http://www.casaelli.fr", "contact_phone": "+33 7 83 59 80 60", "contact_email": "caffecasaelli@gmail.com", "status": 1, "source_type": 1, "numberReviews": 76}, {"name": "Le Grec Imperial", "type": "restaurant", "image": "https://dynamic-media-cdn.tripadvisor.com/media/photo-o/1a/fc/29/5f/assiette-vegetarienne.jpg?w=1000&s=1", "address": "25 avenue de Pessicart, 06100 Nice France", "lat": 43.7095, "lng": 7.251489, "ref_id": 8388202, "rating": 4.5, "num_reviews": 0, "website": "http://www.facebook.com/pages/Le-grec-imperial/1613385605550319", "contact_phone": "+33 4 83 39 17 09", "contact_email": "legrecimperial@gmail.com", "status": 1, "source_type": 1, "numberReviews": 94}, {"name": "Cafe de Turin", "type": "restaurant", "image": "https://dynamic-media-cdn.tripadvisor.com/media/photo-o/11/33/6d/9a/cafe-de-turin.jpg?w=1000&s=1", "address": "5 Place Garibaldi Jo L'Ecaillier, 06300 Nice France", "lat": 43.700554, "lng": 7.279444, "ref_id": 3316610, "rating": 4, "num_reviews": 0, "website": "http://cafedeturin.fr", "contact_phone": "+33 4 93 62 29 52", "contact_email": "contact@cafedeturin.fr", "status": 1, "source_type": 1, "numberReviews": 4336}, {"name": "Le Kashmir", "type": "restaurant", "image": "https://dynamic-media-cdn.tripadvisor.com/media/photo-o/03/49/d3/fe/le-kashmir.jpg?w=1000&s=1", "address": "11 Rue De La Fontaine, 06560 Valbonne France", "lat": 43.64175, "lng": 7.009094, "ref_id": 2702997, "rating": 4, "num_reviews": 0, "website": "http://www.lekashmir-restaurant.fr/", "contact_phone": "+33 4 93 75 16 15", "contact_email": "", "status": 1, "source_type": 1, "numberReviews": 259}, {"name": "Les Pecheurs", "type": "restaurant", "image": "https://dynamic-media-cdn.tripadvisor.com/media/photo-o/29/7d/c3/14/les-pecheurs.jpg?w=1000&s=1", "address": "10 boulevard du Marechal Juin Cap D Antibes Beach Hotel, 06160, Antibes France", "lat": 43.561047, "lng": 7.117965, "ref_id": 786990, "rating": 4, "num_reviews": 0, "website": "https://capdantibes-beachhotel.com/restaurant-les-pecheurs", "contact_phone": "+33 4 92 93 13 30", "contact_email": "contact@ca-beachhotel.com", "status": 1, "source_type": 1, "numberReviews": 330}, {"name": "Wokshop", "type": "restaurant", "image": "https://dynamic-media-cdn.tripadvisor.com/media/photo-o/13/49/0e/11/salade-au-poulet-et-citronelle.jpg?w=1000&s=1", "address": "1 Rue Cassini - 06300 NICE, 06300 Nice France", "lat": 43.70036, "lng": 7.281389, "ref_id": 2099973, "rating": 4.5, "num_reviews": 0, "website": "http://WWW.WOKSHOP.FR", "contact_phone": "+33 4 93 89 00 11", "contact_email": "", "status": 1, "source_type": 1, "numberReviews": 225}, {"name": "Charleston Restolounge Nice", "type": "restaurant", "image": "https://dynamic-media-cdn.tripadvisor.com/media/photo-o/17/a2/c9/69/next-opening-in-nice.jpg?w=1000&s=1", "address": "34 cours Saleya, 06300 Nice France", "lat": 43.695694, "lng": 7.273903, "ref_id": 17437163, "rating": 4.5, "num_reviews": 0, "website": "http://www.charleston-restaurant-nice.com/", "contact_phone": "+33 4 93 53 22 68", "contact_email": "info@charleston-nice.fr", "status": 1, "source_type": 1, "numberReviews": 84}, {"name": "CARGO", "type": "restaurant", "image": "https://dynamic-media-cdn.tripadvisor.com/media/photo-o/24/b6/e2/34/devanture.jpg?w=1000&s=1", "address": "99 Av. des Fr\u00e8res Roustan Port Camille Rayon, 06220 Golfe-Juan Vallauris, Vallauris France", "lat": 43.568405, "lng": 7.082004, "ref_id": 1338414, "rating": 4, "num_reviews": 0, "website": "http://www.facebook.com/cargorestaurant", "contact_phone": "+33 4 93 67 25 94", "contact_email": "cargorestaurant@gmail.com", "status": 1, "source_type": 1, "numberReviews": 198}, {"name": "La Pignatiera", "type": "restaurant", "image": "https://dynamic-media-cdn.tripadvisor.com/media/photo-o/16/e2/86/95/la-pignatiera.jpg?w=1000&s=1", "address": "22 avenue Villermont, 06000 Nice France", "lat": 43.70993, "lng": 7.263796, "ref_id": 1048412, "rating": 4.5, "num_reviews": 0, "website": "http://www.facebook.com/pages/La-Pignatiera/161291647217318", "contact_phone": "+33 4 39 62 01 82", "contact_email": "", "status": 1, "source_type": 1, "numberReviews": 91}, {"name": "Le Rocher", "type": "restaurant", "image": "https://dynamic-media-cdn.tripadvisor.com/media/photo-o/1a/2a/62/de/img-20191129-131343-largejpg.jpg?w=1000&s=1", "address": "925 Chemin de la Garoupe Cap d'Antibes, 06160 Juan-les-Pins, Antibes France", "lat": 43.55491, "lng": 7.135551, "ref_id": 3622250, "rating": 4, "num_reviews": 0, "website": "http://www.facebook.com/pages/Resto%20Plage%20Le%20Rocher%20-%20Antibes/187717121361900/", "contact_phone": "+33 4 93 67 51 36", "contact_email": null, "status": 1, "source_type": 1, "numberReviews": 340}, {"name": "Atelier Fine Bouche", "type": "restaurant", "image": "https://dynamic-media-cdn.tripadvisor.com/media/photo-o/1d/39/b9/57/caption.jpg?w=1000&s=1", "address": "6 route de Valbonne, 06110 Le Cannet France", "lat": 43.578167, "lng": 7.016929, "ref_id": 20264242, "rating": 4.5, "num_reviews": 0, "website": "http://www.maximekozlitine.com", "contact_phone": "+33 6 16 69 49 27", "contact_email": "fineboucheconcepts@gmail.com", "status": 1, "source_type": 1, "numberReviews": 59}, {"name": "L'Auberge St Donat", "type": "restaurant", "image": "https://dynamic-media-cdn.tripadvisor.com/media/photo-o/1b/8c/d9/31/l-auberge-st-donat.jpg?w=1000&s=1", "address": "Route de Valbonne, 06130, Grasse France", "lat": 43.64113, "lng": 6.98631, "ref_id": 3443820, "rating": 4, "num_reviews": 0, "website": "https://www.facebook.com/Auberge-St-Donat-101419370400475/", "contact_phone": "+33 4 93 60 10 07", "contact_email": null, "status": 1, "source_type": 1, "numberReviews": 185}, {"name": "La Flara", "type": "restaurant", "image": "https://dynamic-media-cdn.tripadvisor.com/media/photo-o/06/4a/dd/50/assiette-nicoice.jpg?w=1000&s=1", "address": "9 rue Bavastro, 06300 Nice France", "lat": 43.70035, "lng": 7.285388, "ref_id": 4179686, "rating": 4, "num_reviews": 0, "website": "http://www.facebook.com/Le-Bavastro-721465484910718/", "contact_phone": "+33 4 93 56 11 20", "contact_email": "lebavastro@ma-and-co.com", "status": 1, "source_type": 1, "numberReviews": 210}, {"name": "La Corderie", "type": "restaurant", "image": "https://dynamic-media-cdn.tripadvisor.com/media/photo-o/19/cc/9c/43/la-corderie-sur-le-port.jpg?w=1000&s=1", "address": "20 quai de la Corderie, 06230 Villefranche-sur-Mer France", "lat": 43.69763, "lng": 7.306675, "ref_id": 14946362, "rating": 4.5, "num_reviews": 0, "website": "http://la-corderie.com/", "contact_phone": "+33 4 93 76 61 31", "contact_email": null, "status": 1, "source_type": 1, "numberReviews": 157}, {"name": "Healthy Lounge", "type": "restaurant", "image": "https://dynamic-media-cdn.tripadvisor.com/media/photo-o/1b/bd/5b/2d/photo3jpg.jpg?w=1000&s=1", "address": "18 rue James Close, 06600, Antibes France", "lat": 43.58063, "lng": 7.12529, "ref_id": 20055061, "rating": 5, "num_reviews": 0, "website": "http://www.healthyloungebym.fr/", "contact_phone": "+33 6 45 54 90 27", "contact_email": null, "status": 1, "source_type": 1, "numberReviews": 41}, {"name": "La Havane", "type": "restaurant", "image": "https://dynamic-media-cdn.tripadvisor.com/media/photo-o/15/40/67/3d/la-salle-avec-verriere.jpg?w=1000&s=1", "address": "32 rue de France, 06000 Nice France", "lat": 43.69586, "lng": 7.261142, "ref_id": 793350, "rating": 4, "num_reviews": 0, "website": "http://lahavanenice.com", "contact_phone": "+33 4 93 16 36 16", "contact_email": "", "status": 1, "source_type": 1, "numberReviews": 396}, {"name": "Baguettes d'Argent", "type": "restaurant", "image": "https://dynamic-media-cdn.tripadvisor.com/media/photo-o/1c/79/c6/3f/photo0jpg.jpg?w=1000&s=1", "address": "26 rue d Angleterre, 06000 Nice France", "lat": 43.70435, "lng": 7.26472, "ref_id": 4260548, "rating": 4.5, "num_reviews": 0, "website": "http://www.facebook.com/baguettesdargent/", "contact_phone": "+33 4 93 82 19 04", "contact_email": "rance.ben@gmail.com", "status": 1, "source_type": 1, "numberReviews": 69}, {"name": "Le Bois dore", "type": "restaurant", "image": "https://dynamic-media-cdn.tripadvisor.com/media/photo-o/1b/5c/e7/b4/cadre-cosy.jpg?w=1000&s=1", "address": "265 Route d Antibes, 06560 Valbonne France", "lat": 43.624104, "lng": 7.003468, "ref_id": 2140343, "rating": 4, "num_reviews": 0, "website": "http://www.restaurant-le-bois-dore.com", "contact_phone": "+33 4 93 12 26 25", "contact_email": "le.boisdore@orange.fr", "status": 1, "source_type": 1, "numberReviews": 571}, {"name": "Maison Gusto", "type": "restaurant", "image": "https://dynamic-media-cdn.tripadvisor.com/media/photo-o/04/08/d6/0e/ajouter-une-legende.jpg?w=1000&s=1", "address": "12 rue Lascaris, 06300 Nice France", "lat": 43.699913, "lng": 7.28492, "ref_id": 4337479, "rating": 4, "num_reviews": 0, "website": "http://www.maisongusto.fr", "contact_phone": "+33 4 93 07 28 68", "contact_email": "antonioparnetti19@gmail.com", "status": 1, "source_type": 1, "numberReviews": 374}, {"name": "La Route Du Miam", "type": "restaurant", "image": "https://dynamic-media-cdn.tripadvisor.com/media/photo-o/04/0d/a5/14/demi-caneton-croise-with.jpg?w=1000&s=1", "address": "1 Rue Moli\u00e8re, 06100 Nice France", "lat": 43.713654, "lng": 7.261418, "ref_id": 1111880, "rating": 5, "num_reviews": 0, "website": "http://www.facebook.com/Resto-La-Route-Du-Miam-160429380697390/", "contact_phone": "+33 6 16 36 33 22", "contact_email": "laroutedumiam06@gmail.com", "status": 1, "source_type": 1, "numberReviews": 2450}, {"name": "Tipsy", "type": "restaurant", "image": "https://dynamic-media-cdn.tripadvisor.com/media/photo-o/1b/83/03/af/tipsynicebar-tipsy-frenchrivie.jpg?w=1000&s=1", "address": "18 Rue Centrale, 06300 Nice France", "lat": 43.697662, "lng": 7.276729, "ref_id": 21080922, "rating": 5, "num_reviews": 0, "website": "http://www.tipsynicebar.com", "contact_phone": "+33 6 44 68 24 18", "contact_email": "tipsynicebar@gmail.com", "status": 1, "source_type": 1, "numberReviews": 203}, {"name": "Restaurant Cocotte", "type": "restaurant", "image": "https://dynamic-media-cdn.tripadvisor.com/media/photo-o/29/01/9c/d5/caption.jpg?w=1000&s=1", "address": "198 Chem. des Comtes de Provence, 06650 Le Rouret France", "lat": 43.67387, "lng": 7.002251, "ref_id": 25437918, "rating": 5, "num_reviews": 0, "website": null, "contact_phone": "+33 4 93 77 51 76", "contact_email": null, "status": 1, "source_type": 1, "numberReviews": 139}, {"name": "Le Fricot", "type": "restaurant", "image": "https://dynamic-media-cdn.tripadvisor.com/media/photo-o/28/e6/d9/7b/epaule-d-agneau-confite.jpg?w=1000&s=1", "address": "1 Traverse Du 24 Aout, 06600, Antibes France", "lat": 43.57996, "lng": 7.122875, "ref_id": 25415679, "rating": 5, "num_reviews": 0, "website": "https://restaurant-lefricot-antibes.fr/vin-bio-antibes/#horaires-form", "contact_phone": "+33 4 92 93 11 73", "contact_email": "contact@lefricot.com", "status": 1, "source_type": 1, "numberReviews": 101}, {"name": "La Cucina Nice", "type": "restaurant", "image": "https://dynamic-media-cdn.tripadvisor.com/media/photo-o/1b/cc/ed/8f/photo2jpg.jpg?w=1000&s=1", "address": "9 Rue du Commandant Raffalli, 06000 Nice France", "lat": 43.696335, "lng": 7.264743, "ref_id": 10507691, "rating": 5, "num_reviews": 0, "website": "http://www.facebook.com/lacucina.nice", "contact_phone": "+33 9 83 48 91 39", "contact_email": "la.cucina06@gmail.com", "status": 1, "source_type": 1, "numberReviews": 1321}, {"name": "L'Alchimie Restaurant", "type": "restaurant", "image": "https://dynamic-media-cdn.tripadvisor.com/media/photo-o/29/04/9a/24/la-terrasse.jpg?w=1000&s=1", "address": "14 Rue Maccarani, 06000 Nice France", "lat": 43.698967, "lng": 7.26452, "ref_id": 15589090, "rating": 5, "num_reviews": 0, "website": "https://www.lalchimie-restaurant.com/", "contact_phone": "+33 4 93 54 61 85", "contact_email": "lalchimierestaurant@gmail.com", "status": 1, "source_type": 1, "numberReviews": 315}, {"name": "Les Amoureux", "type": "restaurant", "image": "https://dynamic-media-cdn.tripadvisor.com/media/photo-o/16/7a/7f/1e/20190215-201237-largejpg.jpg?w=1000&s=1", "address": "1 Rue Bavastro, 06300 Nice France", "lat": 43.700954, "lng": 7.285665, "ref_id": 1835743, "rating": 5, "num_reviews": 0, "website": "http://www.facebook.com/pages/Les-Amoureux-Nice/143996702291741", "contact_phone": null, "contact_email": "", "status": 1, "source_type": 1, "numberReviews": 2535}, {"name": "Fleur de Sel", "type": "restaurant", "image": "https://dynamic-media-cdn.tripadvisor.com/media/photo-o/2b/62/35/d5/volaille-fermiere-farcie.jpg?w=1000&s=1", "address": "85 Montee de la Bourgade, 06800 Cagnes-sur-Mer France", "lat": 43.66648, "lng": 7.145534, "ref_id": 2314302, "rating": 4.5, "num_reviews": 0, "website": "http://www.restaurant-fleurdesel.com/fr/bienvenue", "contact_phone": "+33 4 93 20 33 33", "contact_email": "resa@restaurant-fleurdesel.com", "status": 1, "source_type": 1, "numberReviews": 670}, {"name": "Mirabelle", "type": "restaurant", "image": "https://dynamic-media-cdn.tripadvisor.com/media/photo-o/0f/83/9a/09/salle.jpg?w=1000&s=1", "address": "158 All\u00e9e Hector Pintus, 06610 La Gaude France", "lat": 43.731167, "lng": 7.163344, "ref_id": 7832229, "rating": 5, "num_reviews": 0, "website": "http://www.mirabellerestaurant.fr/", "contact_phone": "+33 4 93 58 87 22", "contact_email": "info@mirabellerestaurant.fr", "status": 1, "source_type": 1, "numberReviews": 460}, {"name": "Primo Amore by Pappagallo", "type": "restaurant", "image": "https://dynamic-media-cdn.tripadvisor.com/media/photo-o/1a/ff/5b/9b/burrata-aux-truffes-sur.jpg?w=1000&s=1", "address": "9 Rue Boyer, 06300 Nice France", "lat": 43.70108, "lng": 7.281982, "ref_id": 19321666, "rating": 5, "num_reviews": 0, "website": "http://www.pappagallo.co", "contact_phone": "+33 6 03 97 95 75", "contact_email": "contact@pappagallo.co", "status": 1, "source_type": 1, "numberReviews": 236}, {"name": "La Mezzanine", "type": "restaurant", "image": "https://dynamic-media-cdn.tripadvisor.com/media/photo-o/19/63/65/45/la-mezzanine.jpg?w=1000&s=1", "address": "47 Corniche Fahnestock, 06700 St-Laurent du Var France", "lat": 43.67528, "lng": 7.188059, "ref_id": 4294476, "rating": 4.5, "num_reviews": 0, "website": "http://www.facebook.com/pages/Mezzanine/163362250342106", "contact_phone": "+33 4 93 07 20 20", "contact_email": null, "status": 1, "source_type": 1, "numberReviews": 619}, {"name": "Trattoria Amici", "type": "restaurant", "image": "https://dynamic-media-cdn.tripadvisor.com/media/photo-o/1d/1a/66/9b/trattoria-amici.jpg?w=1000&s=1", "address": "33 rue \u00c9tienne Brun corner corniche Fahnestock, 06700 St-Laurent du Var France", "lat": 43.67531, "lng": 7.188259, "ref_id": 7186355, "rating": 5, "num_reviews": 0, "website": "http://www.amici-slv.fr/", "contact_phone": "+33 9 83 01 64 00", "contact_email": "contact@amici-slv.fr", "status": 1, "source_type": 1, "numberReviews": 193}, {"name": "Brasserie De La M\u00e9diterran\u00e9e", "type": "restaurant", "image": "https://dynamic-media-cdn.tripadvisor.com/media/photo-o/11/27/aa/8a/chef.jpg?w=1000&s=1", "address": "32 Place du Commandant Lamy, 06250 Mougins France", "lat": 43.6005, "lng": 6.994598, "ref_id": 1757310, "rating": 4.5, "num_reviews": 0, "website": "http://www.facebook.com/brasserie.lamediterranee/", "contact_phone": "+33 4 93 90 03 47", "contact_email": "labrasseriemediterranee@gmail.com", "status": 1, "source_type": 1, "numberReviews": 1631}, {"name": "Le Mill\u00e9sime", "type": "restaurant", "image": "https://dynamic-media-cdn.tripadvisor.com/media/photo-o/23/83/68/2f/truffe-tuber-aestivum.jpg?w=1000&s=1", "address": "17 rue Smolett, 06300 Nice France", "lat": 43.703846, "lng": 7.283577, "ref_id": 8400629, "rating": 5, "num_reviews": 0, "website": "http://www.restaurant-millesime.fr", "contact_phone": "+33 6 66 06 41 80", "contact_email": "contact@restaurant-millesime.fr", "status": 1, "source_type": 1, "numberReviews": 1022}, {"name": "Le Bistronome", "type": "restaurant", "image": "https://dynamic-media-cdn.tripadvisor.com/media/photo-o/09/35/3a/86/le-bistronome.jpg?w=1000&s=1", "address": "11 avenue du Ray, 06100 Nice France", "lat": 43.721146, "lng": 7.260683, "ref_id": 7787653, "rating": 5, "num_reviews": 0, "website": "http://www.facebook.com/Le-Bistronome-1477661215804967/", "contact_phone": "+33 9 81 48 32 85", "contact_email": null, "status": 1, "source_type": 1, "numberReviews": 632}, {"name": "SMART DELIGHT ROOM", "type": "restaurant", "image": "https://dynamic-media-cdn.tripadvisor.com/media/photo-o/17/46/99/2f/smart-delight-room.jpg?w=1000&s=1", "address": "31 rue Gioffredo, 06000 Nice France", "lat": 43.699493, "lng": 7.27404, "ref_id": 5818597, "rating": 5, "num_reviews": 0, "website": "https://www.facebook.com/142678789114459", "contact_phone": "+33 4 92 00 08 88", "contact_email": null, "status": 1, "source_type": 1, "numberReviews": 235}, {"name": "Le C\u00e8dre", "type": "restaurant", "image": "https://dynamic-media-cdn.tripadvisor.com/media/photo-o/24/45/82/70/le-cedre-restaurant-libanais.jpg?w=1000&s=1", "address": "4 boulevard Risso, 06300 Nice France", "lat": 43.70692, "lng": 7.283117, "ref_id": 12503433, "rating": 4.5, "num_reviews": 0, "website": "http://www.restaurantlecedre-nice.fr", "contact_phone": "+33 4 93 26 75 50", "contact_email": "lerestaurantlecedre@gmail.com", "status": 1, "source_type": 1, "numberReviews": 484}, {"name": "Panino - Antibes.", "type": "restaurant", "image": "https://dynamic-media-cdn.tripadvisor.com/media/photo-o/2b/ca/74/a2/favarese-mortadella-creme.jpg?w=1000&s=1", "address": "3 Traverse du 24 Aout, 06600, Antibes France", "lat": 43.57989, "lng": 7.122848, "ref_id": 19096285, "rating": 5, "num_reviews": 0, "website": "https://www.facebook.com/panino.antibes", "contact_phone": "+33 4 92 91 95 00", "contact_email": "panino.antibes@gmail.com", "status": 1, "source_type": 1, "numberReviews": 280}, {"name": "La Vieille Crepe", "type": "restaurant", "image": "https://dynamic-media-cdn.tripadvisor.com/media/photo-o/1c/9f/ed/b2/vegetarienne.jpg?w=1000&s=1", "address": "1 Place Vieille, 06300 Nice France", "lat": 43.696697, "lng": 7.27629, "ref_id": 14015544, "rating": 4.5, "num_reviews": 0, "website": "https://www.facebook.com/lavieillecrepe", "contact_phone": "+33 4 93 85 05 24", "contact_email": "lavieillecrepe@gmail.com", "status": 1, "source_type": 1, "numberReviews": 202}, {"name": "La carpe ko\u00ef", "type": "restaurant", "image": "https://dynamic-media-cdn.tripadvisor.com/media/photo-o/1b/7a/3c/30/20200630-144421-largejpg.jpg?w=1000&s=1", "address": "12 Rue Chauvain, 06000 Nice France", "lat": 43.698994, "lng": 7.271135, "ref_id": 18981062, "rating": 5, "num_reviews": 0, "website": "http://lacarpekoi.com/", "contact_phone": "+33 4 93 88 30 03", "contact_email": null, "status": 1, "source_type": 1, "numberReviews": 257}, {"name": "Romagna Mia", "type": "restaurant", "image": "https://dynamic-media-cdn.tripadvisor.com/media/photo-o/17/e3/0c/f3/pappardelle-et-tagliatelle.jpg?w=1000&s=1", "address": "14 avenue Mar\u00e9chal Reille, 06600, Antibes France", "lat": 43.578342, "lng": 7.123933, "ref_id": 4424456, "rating": 4.5, "num_reviews": 0, "website": "http://www.facebook.com/romagna-mia-antibes-223389877809789/", "contact_phone": "+33 6 52 66 97 53", "contact_email": "romagna.mia.antibes@gmail.com", "status": 1, "source_type": 1, "numberReviews": 955},