[{"name": "Andreucci WineRoom", "type": "attraction", "image": "https://dynamic-media-cdn.tripadvisor.com/media/photo-o/16/79/f2/b3/andreucci-wineroom-on.jpg?w=1000&s=1", "address": "401 E Main St #1c, Fredericksburg, TX 78624-4622", "lat": 30.27121, "lng": -98.86715, "ref_id": 16669263, "rating": 4, "num_reviews": 0, "website": "http://www.vinoandreucci.com", "contact_phone": "+1 830-307-9529", "contact_email": "info@vinoandreucci.com", "status": 1, "source_type": 1, "numberReviews": "19"}, {"name": "Peticolas Brewing Company", "type": "attraction", "image": "https://dynamic-media-cdn.tripadvisor.com/media/photo-o/15/cd/1a/ea/we-re-quite-proud-of.jpg?w=1000&s=1", "address": "1301 Pace St, Dallas, TX 75207-6611", "lat": 32.796783, "lng": -96.82899, "ref_id": 6633361, "rating": 4.5, "num_reviews": 0, "website": "http://peticolasbrewing.com/", "contact_phone": "+1 214-234-7600", "contact_email": "michael@peticolasbrewing.com", "status": 1, "source_type": 1, "numberReviews": "23"}, {"name": "Dallas Symphony Orchestra", "type": "attraction", "image": "https://dynamic-media-cdn.tripadvisor.com/media/photo-o/16/5b/1a/fc/photo6jpg.jpg?w=1000&s=1", "address": "2301 Flora St, Dallas, TX 75201-2497", "lat": 32.78956, "lng": -96.79837, "ref_id": 7322375, "rating": 5, "num_reviews": 0, "website": "http://www.mydso.com", "contact_phone": "+1 214-692-0203", "contact_email": null, "status": 1, "source_type": 1, "numberReviews": "27"}, {"name": "Wilbarger County Historical Museum", "type": "attraction", "image": "https://dynamic-media-cdn.tripadvisor.com/media/photo-o/0d/15/64/25/photo7jpg.jpg?w=1000&s=1", "address": "1826 Cumberland St, Vernon, TX 76384-5448", "lat": 34.15244, "lng": -99.2834, "ref_id": 9756924, "rating": 4.5, "num_reviews": 0, "website": "https://www.facebook.com/Wilbarger-County-Historical-Museum-169996983202600/", "contact_phone": "+1 940-553-1348", "contact_email": null, "status": 1, "source_type": 1, "numberReviews": "9"}, {"name": "Army Medical Department (AMEDD) Museum", "type": "attraction", "image": "https://dynamic-media-cdn.tripadvisor.com/media/photo-o/05/9d/2f/76/army-medical-department.jpg?w=1000&s=1", "address": "3898 Stanley Road Building 1046, San Antonio, TX 78234", "lat": 29.463287, "lng": -98.44804, "ref_id": 6438730, "rating": 4.5, "num_reviews": 0, "website": "http://ameddmuseum.amedd.army.mil/", "contact_phone": "+1 210-221-6358", "contact_email": null, "status": 1, "source_type": 1, "numberReviews": "25"}, {"name": "Chymoons Vintage and Antiques", "type": "attraction", "image": "https://dynamic-media-cdn.tripadvisor.com/media/photo-o/1c/30/fd/16/do-not-mind-the-temporary.jpg?w=1000&s=1", "address": "511 22nd St, Galveston, Galveston Island, TX 77550-1922", "lat": 29.30443, "lng": -94.79239, "ref_id": 17556287, "rating": 5, "num_reviews": 0, "website": "http://www.chymoons.com", "contact_phone": "+1 409-443-5198", "contact_email": "vintage@chymoons.com", "status": 1, "source_type": 1, "numberReviews": "1"}, {"name": "Jubilee in the Heights", "type": "attraction", "image": "https://dynamic-media-cdn.tripadvisor.com/media/photo-o/11/10/7c/7c/come-check-out-our-home.jpg?w=1000&s=1", "address": "325 W 19th St, Houston, TX 77008-3957", "lat": 29.8031, "lng": -95.40238, "ref_id": 8143254, "rating": 5, "num_reviews": 0, "website": "http://www.jubileeintheheights.com", "contact_phone": "+1 713-869-5885", "contact_email": null, "status": 1, "source_type": 1, "numberReviews": "2"}, {"name": "Permission Whiskey & Service Co.", "type": "attraction", "image": null, "address": "2920 White Oak Dr, Houston, TX 77007", "lat": 29.781916, "lng": -95.39031, "ref_id": 25402132, "rating": 3.5, "num_reviews": 0, "website": "https://permissionwhiskey.com/", "contact_phone": "+1 713-696-9883", "contact_email": "info@permissionwhiskey.com", "status": 1, "source_type": 1, "numberReviews": "3"}, {"name": "Lafitte's Cove Nature Society", "type": "attraction", "image": null, "address": "3503 Eckert Drive, Galveston, TX, Galveston, Galveston Island, TX 77554-6449", "lat": 29.21691, "lng": -94.93561, "ref_id": 23374050, "rating": 5, "num_reviews": 0, "website": "http://www.laffitescovenaturesociety.org", "contact_phone": null, "contact_email": null, "status": 1, "source_type": 1, "numberReviews": "1"}, {"name": "Surfside Beach Bird & Butterfly Trail", "type": "attraction", "image": null, "address": "Near City Hall, At The Intersection of Monument Drive and Parkview Road, Surfside Beach, TX 77541", "lat": 28.938066, "lng": -95.295555, "ref_id": 23343796, "rating": 5, "num_reviews": 0, "website": "http://www.surfsidetx.org/page/city.birdbutterfly", "contact_phone": "", "contact_email": null, "status": 1, "source_type": 1, "numberReviews": "1"}, {"name": "Hill Country Lavender Farm", "type": "attraction", "image": "https://dynamic-media-cdn.tripadvisor.com/media/photo-o/17/c4/40/f4/beautiful-texas-hill.jpg?w=1000&s=1", "address": "4524 N US Highway 281, Blanco, TX 78606-5439", "lat": 30.114183, "lng": -98.30402, "ref_id": 8153100, "rating": 3.5, "num_reviews": 0, "website": "http://www.hillcountrylavender.com/", "contact_phone": "+1 830-833-2294", "contact_email": "info@hillcountrylavender.com", "status": 1, "source_type": 1, "numberReviews": "15"}, {"name": "Mary Heads Carter Park", "type": "attraction", "image": "https://dynamic-media-cdn.tripadvisor.com/media/photo-o/1c/e5/01/18/playground.jpg?w=1000&s=1", "address": "2320 Heads Lane, Carrollton, TX 75006", "lat": 32.974823, "lng": -96.87259, "ref_id": 23334546, "rating": 5, "num_reviews": 0, "website": "", "contact_phone": "", "contact_email": null, "status": 1, "source_type": 1, "numberReviews": "1"}, {"name": "Natural Springs Park", "type": "attraction", "image": "https://dynamic-media-cdn.tripadvisor.com/media/photo-o/1c/df/6e/70/natural-springs-paek.jpg?w=1000&s=1", "address": "1201 W White St, Anna, TX 75409-5090", "lat": 33.344326, "lng": -96.56333, "ref_id": 23319766, "rating": 5, "num_reviews": 0, "website": "http://www.annatexas.gov/1226/natural-springs-park", "contact_phone": "+1 972-924-2616", "contact_email": null, "status": 1, "source_type": 1, "numberReviews": "1"}, {"name": "Lake Fork Guide Service", "type": "attraction", "image": null, "address": "275 Co Rd 1558, Suite A, Alba, TX 75410-3884", "lat": 32.867016, "lng": -95.62559, "ref_id": 23324785, "rating": 5, "num_reviews": 0, "website": "https://officiallakeforktrophybass.com/", "contact_phone": "+1 903-736-9888", "contact_email": "lakeforktrophybass@yahoo.com", "status": 1, "source_type": 1, "numberReviews": "1"}, {"name": "Safari Run", "type": "attraction", "image": "https://dynamic-media-cdn.tripadvisor.com/media/photo-o/1d/01/ad/ea/caption.jpg?w=1000&s=1", "address": "2300 Coit Rd Suite 300, Plano, TX 75075-3768", "lat": 33.03012, "lng": -96.76896, "ref_id": 10483272, "rating": 3.5, "num_reviews": 0, "website": "http://www.safarirun.com/", "contact_phone": "+1 469-814-0881", "contact_email": null, "status": 1, "source_type": 1, "numberReviews": "4"}, {"name": "M&M Austin Limousine LLC", "type": "attraction", "image": "https://dynamic-media-cdn.tripadvisor.com/media/photo-o/16/8c/36/d7/airport-car-service.jpg?w=1000&s=1", "address": "3408 Bratton Ridge Xing, Austin, TX 78728-3674", "lat": 30.46174, "lng": -97.68146, "ref_id": 16700905, "rating": 5, "num_reviews": 0, "website": "http://www.austinlimoshuttle.com/", "contact_phone": "+1 512-577-1003", "contact_email": "suppor@austinlimoshuttle.com", "status": 1, "source_type": 1, "numberReviews": "1"}, {"name": "Escape Massage & Spa", "type": "attraction", "image": null, "address": "12741 Research Blvd Suite 303, Austin, TX 78759-4388", "lat": 30.433895, "lng": -97.76654, "ref_id": 23282099, "rating": 5, "num_reviews": 0, "website": "https://www.facebook.com/escapemassagespa/", "contact_phone": "+1 512-552-3389", "contact_email": "susanna.reffner@gmail.com", "status": 1, "source_type": 1, "numberReviews": "1"}, {"name": "The Historic Casino Hall", "type": "attraction", "image": null, "address": "254 N Jefferson St, La Grange, TX 78945-2213", "lat": 29.90765, "lng": -96.87698, "ref_id": 23310262, "rating": 5, "num_reviews": 0, "website": null, "contact_phone": "+1 979-968-3017", "contact_email": null, "status": 1, "source_type": 1, "numberReviews": "1"}, {"name": "Isabelle's European Day Spa", "type": "attraction", "image": null, "address": "17851 Rogers Ranch Pkwy, San Antonio, TX 78258-4468", "lat": 29.60521, "lng": -98.53536, "ref_id": 9714939, "rating": 4, "num_reviews": 0, "website": "http://www.isabellesdayspa.com", "contact_phone": "+1 210-493-5544", "contact_email": "info@isabellesdayspa.com", "status": 1, "source_type": 1, "numberReviews": "4"}, {"name": "Art Beat Studio & Gallery", "type": "attraction", "image": "https://dynamic-media-cdn.tripadvisor.com/media/photo-o/1a/97/5a/60/beautiful-space.jpg?w=1000&s=1", "address": "106 E Main St, Johnson City, TX 78636-4239", "lat": 30.27657, "lng": -98.41149, "ref_id": 19865007, "rating": 5, "num_reviews": 0, "website": "https://www.artbeattexas.com/", "contact_phone": "+1 512-537-3637", "contact_email": "artbeattexas@gmail.com", "status": 1, "source_type": 1, "numberReviews": "1"}, {"name": "German Gift House", "type": "attraction", "image": null, "address": "210 Gentry St, Spring, TX 77373-8314", "lat": 30.07891, "lng": -95.4192, "ref_id": 13190674, "rating": 4.5, "num_reviews": 0, "website": "http://germangifthouse.com/", "contact_phone": "+1 281-528-8877", "contact_email": null, "status": 1, "source_type": 1, "numberReviews": "2"}, {"name": "Scaventour", "type": "attraction", "image": "https://dynamic-media-cdn.tripadvisor.com/media/photo-o/15/b7/22/23/the-lost-key-game-in.jpg?w=1000&s=1", "address": "Lubbock, TX", "lat": 33.578278, "lng": -101.8433, "ref_id": 15554249, "rating": 5, "num_reviews": 0, "website": "http://www.ScaventourLubbock.com", "contact_phone": "+1 806-773-3369", "contact_email": "scaventourlubbock@gmail.com", "status": 1, "source_type": 1, "numberReviews": "1"}, {"name": "Drengr Axe Throwing", "type": "attraction", "image": null, "address": "1825 Airport Fwy, Bedford, TX 76021-5734", "lat": 32.837807, "lng": -97.139114, "ref_id": 21355780, "rating": 5, "num_reviews": 0, "website": "http://www.bedfordaxethrowing.com", "contact_phone": "+1 817-786-7777", "contact_email": "info@drengr.com", "status": 1, "source_type": 1, "numberReviews": "1"}, {"name": "The Alcove Wine, Beer & Espresso Bar", "type": "attraction", "image": "https://dynamic-media-cdn.tripadvisor.com/media/photo-o/0e/79/15/4a/photo0jpg.jpg?w=1000&s=1", "address": "2907 State St, Dallas, TX 75204-2723", "lat": 32.79776, "lng": -96.79748, "ref_id": 5830533, "rating": 5, "num_reviews": 0, "website": "http://www.alcovewine.com", "contact_phone": "+1 214-871-2200", "contact_email": null, "status": 1, "source_type": 1, "numberReviews": "2"}, {"name": "Putt Pub", "type": "attraction", "image": "https://dynamic-media-cdn.tripadvisor.com/media/photo-o/1c/d8/2f/50/some-of-the-outdoor-seating.jpg?w=1000&s=1", "address": "307 S Lbj Dr, San Marcos, TX 78666-6318", "lat": 29.8793, "lng": -97.93924, "ref_id": 23302960, "rating": 5, "num_reviews": 0, "website": "", "contact_phone": "+1 512-222-9838", "contact_email": null, "status": 1, "source_type": 1, "numberReviews": "1"}, {"name": "Vintage Martini", "type": "attraction", "image": "https://dynamic-media-cdn.tripadvisor.com/media/photo-o/14/85/cb/61/photo0jpg.jpg?w=1000&s=1", "address": "2923 N Henderson Ave Suite A, Dallas, TX 75206-6402", "lat": 32.82074, "lng": -96.78524, "ref_id": 12100905, "rating": 4.5, "num_reviews": 0, "website": "http://vintagemartini.com/", "contact_phone": "+1 469-334-0584", "contact_email": null, "status": 1, "source_type": 1, "numberReviews": "2"}, {"name": "Oriental Therapeutic Massage", "type": "attraction", "image": "https://dynamic-media-cdn.tripadvisor.com/media/photo-o/1d/29/9b/d8/wide-hall-way.jpg?w=1000&s=1", "address": "5777 Woodway Dr, Houston, TX 77057-1501", "lat": 29.759836, "lng": -95.482376, "ref_id": 23258299, "rating": 5, "num_reviews": 0, "website": "http://www.orientalmassagehouston.com", "contact_phone": "+1 346-354-6588", "contact_email": null, "status": 1, "source_type": 1, "numberReviews": "1"}, {"name": "Brown Water Cigar Bar", "type": "attraction", "image": "https://dynamic-media-cdn.tripadvisor.com/media/photo-o/1c/d2/71/56/nice-upscale-bar-with.jpg?w=1000&s=1", "address": "200 W Alamo St, Brenham, TX 77833-3630", "lat": 30.16667, "lng": -96.39908, "ref_id": 23292768, "rating": 5, "num_reviews": 0, "website": "http://www.brownwatercigar.com", "contact_phone": "+1 979-551-9019", "contact_email": null, "status": 1, "source_type": 1, "numberReviews": "1"}, {"name": "Pedego Electric Bikes Cedar Park", "type": "attraction", "image": "https://dynamic-media-cdn.tripadvisor.com/media/photo-o/1c/8d/bd/da/caption.jpg?w=1000&s=1", "address": "1310 E Whitestone Blvd Suite 560, Cedar Park, TX 78613-2432", "lat": 30.5244, "lng": -97.81434, "ref_id": 23103191, "rating": 5, "num_reviews": 0, "website": "https://www.pedegoelectricbikes.com/dealers/cedar-park/", "contact_phone": "+1 512-986-7344", "contact_email": "info@pedegocedarpark.com", "status": 1, "source_type": 1, "numberReviews": "1"}, {"name": "Oaklawn Opry", "type": "attraction", "image": null, "address": "2729 New Boston Rd Texarkana, Texas 75501, Texarkana, TX 75501-3227", "lat": 33.43529, "lng": -94.07928, "ref_id": 10001069, "rating": 5, "num_reviews": 0, "website": "http://www.oaklawnopry.info/", "contact_phone": "+1 903-838-3333", "contact_email": "jaybob60@gmail.com", "status": 1, "source_type": 1, "numberReviews": "2"}, {"name": "Pecans.com", "type": "attraction", "image": "https://dynamic-media-cdn.tripadvisor.com/media/photo-o/1c/be/fc/c1/photo0jpg.jpg?w=1000&s=1", "address": "1020 W Front St, Goldthwaite, TX 76844-2053", "lat": 31.450546, "lng": -98.56794, "ref_id": 23232270, "rating": 5, "num_reviews": 0, "website": "http://www.pecans.com", "contact_phone": "+1 325-648-2200", "contact_email": "retail@pecans.com", "status": 1, "source_type": 1, "numberReviews": "1"}, {"name": "Ebike Marfa", "type": "attraction", "image": null, "address": "114 W San Antonio St, Marfa, TX 79843", "lat": 30.30936, "lng": -104.02195, "ref_id": 23232456, "rating": 5, "num_reviews": 0, "website": "http://ebikemarfa.com", "contact_phone": "+1 432-386-3086", "contact_email": null, "status": 1, "source_type": 1, "numberReviews": "1"}, {"name": "Onion Creek Club", "type": "attraction", "image": "https://dynamic-media-cdn.tripadvisor.com/media/photo-o/12/8d/6b/5a/photo1jpg.jpg?w=1000&s=1", "address": "2510 Onion Creek Pkwy Onion Creek, Austin, TX 78747-1612", "lat": 30.13646, "lng": -97.79009, "ref_id": 219361, "rating": 3.5, "num_reviews": 0, "website": "http://www.onioncreekclub.com/", "contact_phone": "+1 512-282-2150", "contact_email": null, "status": 1, "source_type": 1, "numberReviews": "13"}, {"name": "Altitude Trampoline Park", "type": "attraction", "image": null, "address": "4525 Milwaukee Ave Unit 1100, Lubbock, TX 79407-3814", "lat": 33.55291, "lng": -101.9566, "ref_id": 23263447, "rating": 5, "num_reviews": 0, "website": "http://altitudelubbock.com/", "contact_phone": "", "contact_email": null, "status": 1, "source_type": 1, "numberReviews": "1"}, {"name": "Bourbon St. Grill", "type": "attraction", "image": "https://dynamic-media-cdn.tripadvisor.com/media/photo-o/09/12/55/e2/bourbon-st-grill-cantina.jpg?w=1000&s=1", "address": "4800 N 10th St, McAllen, TX 78504-2709", "lat": 26.246807, "lng": -98.222374, "ref_id": 5842232, "rating": 4, "num_reviews": 0, "website": "http://www.bourbonst.us", "contact_phone": "+1 956-800-4641", "contact_email": null, "status": 1, "source_type": 1, "numberReviews": "5"}, {"name": "Lefty's Draft House", "type": "attraction", "image": null, "address": "15179 Judson Rd Ste 101, San Antonio, TX 78247-1403", "lat": 29.58825, "lng": -98.37878, "ref_id": 5835372, "rating": 5, "num_reviews": 0, "website": "https://www.facebook.com/Leftysdrafthouse/", "contact_phone": "+1 210-650-5144", "contact_email": null, "status": 1, "source_type": 1, "numberReviews": "2"}, {"name": "Viva San Antonio Tours", "type": "attraction", "image": "https://dynamic-media-cdn.tripadvisor.com/media/photo-o/17/3b/75/f1/caption.jpg?w=1000&s=1", "address": "7547 Corian Park Dr, San Antonio, TX 78249-3627", "lat": 29.56452, "lng": -98.64018, "ref_id": 17736036, "rating": 5, "num_reviews": 0, "website": null, "contact_phone": null, "contact_email": null, "status": 1, "source_type": 1, "numberReviews": "41"}, {"name": "Tule Princess Steamboat Co.", "type": "attraction", "image": "https://dynamic-media-cdn.tripadvisor.com/media/photo-o/12/52/71/33/tule-steamed-up-and-ready.jpg?w=1000&s=1", "address": "2680 Fisherman's Rd, San Angelo, TX 76904-7885", "lat": 31.376295, "lng": -100.51289, "ref_id": 8444923, "rating": 5, "num_reviews": 0, "website": "http://www.tuleprincess.com", "contact_phone": "+1 325-340-4400", "contact_email": "tuleprincesssteamboat@hotmail.com", "status": 1, "source_type": 1, "numberReviews": "57"}, {"name": "Escape Hunt Dallas", "type": "attraction", "image": "https://dynamic-media-cdn.tripadvisor.com/media/photo-o/0e/85/1b/71/while-you-relax-in-our.jpg?w=1000&s=1", "address": "8232 Preston Rd Suite 100, Plano, TX 75024-2372", "lat": 33.090702, "lng": -96.804245, "ref_id": 12179902, "rating": 4.5, "num_reviews": 0, "website": "http://dallas.escapehunt.com", "contact_phone": "+1 972-377-4868", "contact_email": "dallas.marketing@escapehunt.com", "status": 1, "source_type": 1, "numberReviews": "92"}, {"name": "James Avery Craftsman", "type": "attraction", "image": "https://dynamic-media-cdn.tripadvisor.com/media/photo-o/04/59/0b/b8/james-avery-craftsman.jpg?w=1000&s=1", "address": "Retail Store and Company Headquarters Harper Road, Kerrville, TX 78029", "lat": null, "lng": null, "ref_id": 2626760, "rating": 4.5, "num_reviews": 0, "website": "http://www.jamesavery.com/store-locations/tx/kerrville.jsp", "contact_phone": "+1 830-895-6800", "contact_email": "customerservice@jamesavery.com", "status": 1, "source_type": 1, "numberReviews": "88"}, {"name": "Sapphire Spa", "type": "attraction", "image": "https://dynamic-media-cdn.tripadvisor.com/media/photo-o/15/25/29/a3/spa-entrance.jpg?w=1000&s=1", "address": "310A Padre Blvd, South Padre Island, TX 78597-6507", "lat": 26.082886, "lng": -97.1611, "ref_id": 2228282, "rating": 4.5, "num_reviews": 0, "website": "http://sapphireluxuryspa.com/", "contact_phone": "+1 956-389-8888", "contact_email": "jose.rodriguez@pearlsouthpadre.com", "status": 1, "source_type": 1, "numberReviews": "77"}, {"name": "The Moviehouse & Eatery", "type": "attraction", "image": "https://dynamic-media-cdn.tripadvisor.com/media/photo-o/0a/24/af/0b/20160124-165625-largejpg.jpg?w=1000&s=1", "address": "951 Long Prairie Rd, Flower Mound, TX 75022-4201", "lat": 32.995613, "lng": -97.06564, "ref_id": 9459086, "rating": 4.5, "num_reviews": 0, "website": "http://themoviehouse.com/", "contact_phone": "+1 972-355-6363", "contact_email": null, "status": 1, "source_type": 1, "numberReviews": "118"}, {"name": "Stars & Stripes Drive-In Theatre", "type": "attraction", "image": "https://dynamic-media-cdn.tripadvisor.com/media/photo-o/06/00/8c/76/beautiful-sign.jpg?w=1000&s=1", "address": "5101 Clovis Hwy, Lubbock, TX 79416", "lat": 33.630787, "lng": -101.92088, "ref_id": 1876219, "rating": 5, "num_reviews": 0, "website": "http://DriveInUSA.com/", "contact_phone": "+1 806-749-7469", "contact_email": "ContactLubbock@DriveInUSA.com", "status": 1, "source_type": 1, "numberReviews": "111"}, {"name": "Bad Wolf Ghost Tours", "type": "attraction", "image": "https://dynamic-media-cdn.tripadvisor.com/media/photo-o/12/f2/49/ee/bad-wolf-ghost-tours.jpg?w=1000&s=1", "address": "Austin, TX 78701", "lat": 30.268002, "lng": -97.74127, "ref_id": 14081331, "rating": 4.5, "num_reviews": 0, "website": "http://www.BadWolfGhostTours.com", "contact_phone": "+1 805-757-0512", "contact_email": null, "status": 1, "source_type": 1, "numberReviews": "53"}, {"name": "Grand Avenue Theater", "type": "attraction", "image": "https://dynamic-media-cdn.tripadvisor.com/media/photo-o/0b/ad/70/f2/grand-avenue-theater.jpg?w=1000&s=1", "address": "2809 Oakmark Dr, Belton, TX 76513-1201", "lat": 31.085928, "lng": -97.458534, "ref_id": 8798778, "rating": 5, "num_reviews": 0, "website": "http://www.grandavenuetheater.com", "contact_phone": "+1 254-939-5050", "contact_email": "contact_GAT@grandavenuetheater.com", "status": 1, "source_type": 1, "numberReviews": "71"}, {"name": "Trapeze Texas", "type": "attraction", "image": "https://dynamic-media-cdn.tripadvisor.com/media/photo-o/0c/61/97/dc/our-rig-is-completely.jpg?w=1000&s=1", "address": "2207 E Cesar Chavez St, Austin, TX 78702-4601", "lat": 30.255333, "lng": -97.72014, "ref_id": 9709894, "rating": 5, "num_reviews": 0, "website": "http://www.trapezetexas.net", "contact_phone": "+1 512-608-7988", "contact_email": "trapezetx@gmail.com", "status": 1, "source_type": 1, "numberReviews": "71"}, {"name": "Galveston's Best Pub Crawl", "type": "attraction", "image": "https://dynamic-media-cdn.tripadvisor.com/media/photo-o/29/e7/3d/28/caption.jpg?w=1000&s=1", "address": "Sealy and 23rd St. In front of church, Tiki Island, TX 77550", "lat": null, "lng": null, "ref_id": 26448599, "rating": 5, "num_reviews": 0, "website": "https://www.galvestonsbestpubcrawl.com/", "contact_phone": "+1 832-245-0492", "contact_email": "jphn6325@gmail.com", "status": 1, "source_type": 1, "numberReviews": "22"}, {"name": "Peter Pan Mini Golf", "type": "attraction", "image": "https://dynamic-media-cdn.tripadvisor.com/media/photo-o/19/57/b5/36/our-iconic-peter-pan.jpg?w=1000&s=1", "address": "1207 Barton Springs Rd, Austin, TX 78704-1007", "lat": 30.260363, "lng": -97.75787, "ref_id": 4459046, "rating": 4.5, "num_reviews": 0, "website": "http://peterpanminigolf.com/", "contact_phone": "+1 512-472-1033", "contact_email": "manager@peterpanminigolf.com", "status": 1, "source_type": 1, "numberReviews": "104"}, {"name": "Enzuri Safari Co.", "type": "attraction", "image": "https://dynamic-media-cdn.tripadvisor.com/media/photo-o/23/7f/e8/e6/caption.jpg?w=1000&s=1", "address": "Nacogdoches Trl, Dallas, TX 75004", "lat": 31.64681, "lng": -94.65373, "ref_id": 17631442, "rating": 5, "num_reviews": 0, "website": "https://enzurisafaris.com", "contact_phone": "+1 469-406-4353", "contact_email": "hello@enzurisafaris.com", "status": 1, "source_type": 1, "numberReviews": "30"}, {"name": "Topgolf San Antonio", "type": "attraction", "image": "https://dynamic-media-cdn.tripadvisor.com/media/photo-o/08/59/d3/fe/topgolf-san-antonio.jpg?w=1000&s=1", "address": "5539 N Loop 1604 W, San Antonio, TX 78249-1300", "lat": 29.591915, "lng": -98.59346, "ref_id": 7615472, "rating": 4.5, "num_reviews": 0, "website": "http://topgolf.com/us/san-antonio/", "contact_phone": "+1 210-202-2694", "contact_email": null, "status": 1, "source_type": 1, "numberReviews": "138"}, {"name": "Tobin Center for the Performing Arts", "type": "attraction", "image": "https://dynamic-media-cdn.tripadvisor.com/media/photo-o/0b/d8/5d/38/20160703-193717-largejpg.jpg?w=1000&s=1", "address": "100 Auditorium Cir, San Antonio, TX 78205-1310", "lat": 29.430319, "lng": -98.48876, "ref_id": 7142594, "rating": 4.5, "num_reviews": 0, "website": "https://www.tobincenter.org", "contact_phone": "+1 210-223-8624", "contact_email": null, "status": 1, "source_type": 1, "numberReviews": "129"}, {"name": "Omega Royal Transportation", "type": "attraction", "image": "https://dynamic-media-cdn.tripadvisor.com/media/photo-o/0a/4f/1f/1f/sprinter-service.jpg?w=1000&s=1", "address": "6260 Westpark Dr Ste 120, Houston, TX 77057-7353", "lat": 29.723663, "lng": -95.49505, "ref_id": 8861698, "rating": 5, "num_reviews": 0, "website": "http://omegaroyaltransportation.com/", "contact_phone": "+1 832-992-5466", "contact_email": "info@omegaroyaltransportaton.com", "status": 1, "source_type": 1, "numberReviews": "55"}, {"name": "Der Kuchen Laden", "type": "attraction", "image": "https://dynamic-media-cdn.tripadvisor.com/media/photo-o/06/18/31/ca/der-kuchen-laden.jpg?w=1000&s=1", "address": "258 Main St, Fredericksburg, TX 78624", "lat": 30.272943, "lng": -98.86898, "ref_id": 2435313, "rating": 5, "num_reviews": 0, "website": "http://www.littlechef.com", "contact_phone": "+1 830-997-4937", "contact_email": "Info@littlechef.com", "status": 1, "source_type": 1, "numberReviews": "81"}, {"name": "Spell Caster Ghost Tours", "type": "attraction", "image": "https://dynamic-media-cdn.tripadvisor.com/media/photo-o/2a/d7/40/17/caption.jpg?w=1000&s=1", "address": "1280 County Road 127, Georgetown, TX 78626", "lat": null, "lng": null, "ref_id": 23942471, "rating": 5, "num_reviews": 0, "website": "www.spellcasterghosttours.com", "contact_phone": "+1 737-738-3669", "contact_email": "Ghosts@spellcasterghosttours.com", "status": 1, "source_type": 1, "numberReviews": "24"}, {"name": "House of Blues", "type": "attraction", "image": "https://dynamic-media-cdn.tripadvisor.com/media/photo-o/05/3d/fa/b7/house-of-blues.jpg?w=1000&s=1", "address": "1204 Caroline St Corner of Caroline St. and Dallas St., Houston, TX 77002-6931", "lat": 29.753862, "lng": -95.36417, "ref_id": 2219613, "rating": 4, "num_reviews": 0, "website": "http://www.houseofblues.com", "contact_phone": "+1 888-402-5837", "contact_email": "", "status": 1, "source_type": 1, "numberReviews": "329"}, {"name": "South Padre Surf Company", "type": "attraction", "image": "https://dynamic-media-cdn.tripadvisor.com/media/photo-o/03/92/8a/b4/south-padre-surf-company.jpg?w=1000&s=1", "address": "100 Park Rd, South Padre Island, TX 78597-6413", "lat": 26.07555, "lng": -97.16327, "ref_id": 2480779, "rating": 5, "num_reviews": 0, "website": "http://www.southpadresurfcompany.com", "contact_phone": "+1 956-772-7272", "contact_email": "spadre@spadre.com", "status": 1, "source_type": 1, "numberReviews": "53"}, {"name": "Durty Nelly's Irish Pub", "type": "attraction", "image": "https://dynamic-media-cdn.tripadvisor.com/media/photo-o/10/d1/b7/0b/view-from-riverwalk.jpg?w=1000&s=1", "address": "200 S Alamo St, San Antonio, TX 78205-3213", "lat": 29.422812, "lng": -98.48795, "ref_id": 606747, "rating": 4, "num_reviews": 0, "website": "http://www.durtynellyspub.com", "contact_phone": "+1 210-224-3343", "contact_email": "info@durtynellyspub.com", "status": 1, "source_type": 1, "numberReviews": "225"}, {"name": "Cross G Ranch Trail Rides", "type": "attraction", "image": "https://dynamic-media-cdn.tripadvisor.com/media/photo-o/08/6c/03/35/on-tehas-and-reily.jpg?w=1000&s=1", "address": "FM 470, Bandera, TX 78003", "lat": 29.71891, "lng": -98.93608, "ref_id": 7256748, "rating": 5, "num_reviews": 0, "website": "http://www.cross-g-ranch-trailrides.com/", "contact_phone": "+1 830-688-2717", "contact_email": "crossgranch@att.net", "status": 1, "source_type": 1, "numberReviews": "42"}, {"name": "Wave Dancer Charters", "type": "attraction", "image": "https://dynamic-media-cdn.tripadvisor.com/media/photo-o/1c/74/3d/f2/our-boats-sailfish-mahi.jpg?w=1000&s=1", "address": "715 N Holiday Dr Galveston Yacht Basin, Galveston Island, TX 77550-3056", "lat": 29.31718, "lng": -94.77708, "ref_id": 8146516, "rating": 5, "num_reviews": 0, "website": "http://www.wavedancercharters.com/", "contact_phone": "+1 409-988-8888", "contact_email": "gregisfishing@gmail.com", "status": 1, "source_type": 1, "numberReviews": "48"}, {"name": "DriveTanks.com", "type": "attraction", "image": "https://dynamic-media-cdn.tripadvisor.com/media/photo-o/12/7b/31/36/sherman-firing-live-round.jpg?w=1000&s=1", "address": "1946 Private Road 2485, Uvalde, TX 78801-6760", "lat": 29.469568, "lng": -100.11167, "ref_id": 12205688, "rating": 5, "num_reviews": 0, "website": "http://www.drivetanks.com/", "contact_phone": "+1 830-351-8265", "contact_email": "info@drivetanks.com", "status": 1, "source_type": 1, "numberReviews": "40"}, {"name": "Times Square Grand Slam", "type": "attraction", "image": "https://dynamic-media-cdn.tripadvisor.com/media/photo-o/1b/90/4c/da/times-square-grand-slam.jpg?w=1000&s=1", "address": "5201 S Broadway Ave, Tyler, TX 75703-3748", "lat": 32.29283, "lng": -95.30421, "ref_id": 4534380, "rating": 4.5, "num_reviews": 0, "website": "http://Tylermovies.com", "contact_phone": "+1 903-705-6792", "contact_email": "info@tylermovies.com", "status": 1, "source_type": 1, "numberReviews": "76"}, {"name": "Galveston Experience Company", "type": "attraction", "image": "https://dynamic-media-cdn.tripadvisor.com/media/photo-o/17/a6/db/d7/caption.jpg?w=1000&s=1", "address": "1522 Seawall Blvd, Galveston, Galveston Island, TX 77550-8153", "lat": 29.29579, "lng": -94.78134, "ref_id": 17520992, "rating": 4.5, "num_reviews": 0, "website": "http://www.galvestonexperience.com", "contact_phone": "+1 409-741-3400", "contact_email": "info@galvestonexperience.com", "status": 1, "source_type": 1, "numberReviews": "83"}, {"name": "Cable Car Wine Tours", "type": "attraction", "image": "https://dynamic-media-cdn.tripadvisor.com/media/photo-o/1c/de/83/7c/caption.jpg?w=1000&s=1", "address": "405 W San Antonio St, Fredericksburg, TX 78624-3139", "lat": 30.27796, "lng": -98.87902, "ref_id": 23323680, "rating": 4.5, "num_reviews": 0, "website": "https://texaswine.tours/", "contact_phone": "+1 830-999-7099", "contact_email": "bookings@eatdrinkscare.tours", "status": 1, "source_type": 1, "numberReviews": "52"}, {"name": "Trapped! Escape the Room", "type": "attraction", "image": "https://dynamic-media-cdn.tripadvisor.com/media/photo-o/0b/ff/7f/4f/trapped-escape-the-room.jpg?w=1000&s=1", "address": "3521 50th St, Lubbock, TX 79413-4003", "lat": 33.548157, "lng": -101.89175, "ref_id": 7928800, "rating": 5, "num_reviews": 0, "website": "http://www.trappedlubbock.com", "contact_phone": "+1 806-410-1474", "contact_email": "info@trappedlubbock.com", "status": 1, "source_type": 1, "numberReviews": "71"}, {"name": "Galveston Sea Ventures", "type": "attraction", "image": "https://dynamic-media-cdn.tripadvisor.com/media/photo-o/05/ae/89/bd/getlstd-property-photo.jpg?w=1000&s=1", "address": "715 N Holiday Dr Slip B-2, Galveston, Galveston Island, TX 77550", "lat": 29.319391, "lng": -94.77515, "ref_id": 6537866, "rating": 5, "num_reviews": 0, "website": "http://www.galvestonseaventures.com", "contact_phone": "+1 512-639-9188", "contact_email": "info@galvestonseaventures.com", "status": 1, "source_type": 1, "numberReviews": "46"}, {"name": "Antone's", "type": "attraction", "image": "https://dynamic-media-cdn.tripadvisor.com/media/photo-o/11/c6/48/db/doyle-bramhall-ii.jpg?w=1000&s=1", "address": "305 E 5th St, Austin, TX 78701-3777", "lat": 30.266186, "lng": -97.74041, "ref_id": 258328, "rating": 4.5, "num_reviews": 0, "website": "http://www.antonesnightclub.com", "contact_phone": "+1 512-814-0361", "contact_email": "info@antonesnightclub.com", "status": 1, "source_type": 1, "numberReviews": "102"}, {"name": "Little Lake Creek Wilderness", "type": "attraction", "image": "https://dynamic-media-cdn.tripadvisor.com/media/photo-o/1b/28/66/96/walkways-trails-and-butterflie.jpg?w=1000&s=1", "address": "394 FM 1375 West, Sam Houston National Forest, New Waverly, TX 77358", "lat": null, "lng": null, "ref_id": 20313290, "rating": 5, "num_reviews": 0, "website": "https://www.fs.usda.gov/detail/texas/specialplaces/?cid=stelprdb5291448", "contact_phone": "+1 936-344-6205", "contact_email": null, "status": 1, "source_type": 1, "numberReviews": "1"}, {"name": "Four Day Weekend (Dallas)", "type": "attraction", "image": null, "address": "5601 Sears St Lower Greenville, Dallas, TX 75206-7117", "lat": 32.81489, "lng": -96.77205, "ref_id": 20291392, "rating": 5, "num_reviews": 0, "website": "http://fourdayweekend.com", "contact_phone": "+1 817-226-4329", "contact_email": null, "status": 1, "source_type": 1, "numberReviews": "1"}, {"name": "DeLorean Motor Company", "type": "attraction", "image": "https://dynamic-media-cdn.tripadvisor.com/media/photo-o/1b/1f/c6/46/delorean-motor-company.jpg?w=1000&s=1", "address": "15023 Eddie Dr, Humble, TX 77396-2550", "lat": 29.93814, "lng": -95.29039, "ref_id": 14015946, "rating": 5, "num_reviews": 0, "website": "http://Delorean.com", "contact_phone": "+1 281-441-2537", "contact_email": null, "status": 1, "source_type": 1, "numberReviews": "1"}, {"name": "Winding Road Wine Tours", "type": "attraction", "image": "https://dynamic-media-cdn.tripadvisor.com/media/photo-o/1b/16/6c/65/winding-road-wine-tours.jpg?w=1000&s=1", "address": "Canyon Lake, TX", "lat": null, "lng": null, "ref_id": 14957680, "rating": 5, "num_reviews": 0, "website": "http://www.windingroadwinetours.com", "contact_phone": "+1 830-355-8466", "contact_email": "windingroadwinetours@gmail.com", "status": 1, "source_type": 1, "numberReviews": "1"}, {"name": "Rockwall Community Playhouse", "type": "attraction", "image": "https://dynamic-media-cdn.tripadvisor.com/media/photo-o/06/37/af/10/getlstd-property-photo.jpg?w=1000&s=1", "address": "609 E Rusk St, Rockwall, TX 75087-2509", "lat": 32.93122, "lng": -96.45503, "ref_id": 6942141, "rating": 4.5, "num_reviews": 0, "website": "http://www.rockwallcommunityplayhouse.com", "contact_phone": "+1 972-722-3399", "contact_email": null, "status": 1, "source_type": 1, "numberReviews": "3"}, {"name": "Rockin\u2019 A B", "type": "attraction", "image": "https://dynamic-media-cdn.tripadvisor.com/media/photo-o/1b/17/0c/ca/p-20200125-112324-largejpg.jpg?w=1000&s=1", "address": "109 W Virginia St Suite #101, McKinney, TX 75069-4477", "lat": 33.19786, "lng": -96.61628, "ref_id": 20266050, "rating": 5, "num_reviews": 0, "website": "http://rockinab.com/", "contact_phone": "+1 469-907-1053", "contact_email": null, "status": 1, "source_type": 1, "numberReviews": "1"}, {"name": "Pins Bowling Alley", "type": "attraction", "image": null, "address": "2210 US Hwy E 377, Granbury, TX", "lat": 32.448, "lng": -97.74494, "ref_id": 8372137, "rating": 4, "num_reviews": 0, "website": "http://www.pinsbowlingalley.com", "contact_phone": "+1 817-579-7467", "contact_email": null, "status": 1, "source_type": 1, "numberReviews": "5"}, {"name": "Flossie's", "type": "attraction", "image": "https://dynamic-media-cdn.tripadvisor.com/media/photo-o/06/08/99/47/flossie-s.jpg?w=1000&s=1", "address": "401 S Prairieville St, Athens, TX 75751-2745", "lat": 32.20006, "lng": -95.85504, "ref_id": 6728767, "rating": 4, "num_reviews": 0, "website": "http://www.flossiesantiques.com/", "contact_phone": "+1 903-675-2210", "contact_email": "athenfallen@aol.com", "status": 1, "source_type": 1, "numberReviews": "3"}, {"name": "Cool Junk", "type": "attraction", "image": "https://dynamic-media-cdn.tripadvisor.com/media/photo-o/1a/f6/5f/ed/treasure-hunter.jpg?w=1000&s=1", "address": "113 N Cleburne St, Granbury, TX 76048-2228", "lat": 32.44265, "lng": -97.7826, "ref_id": 19430594, "rating": 5, "num_reviews": 0, "website": "http://cooljunkgranbury.com", "contact_phone": "+1 682-936-4233", "contact_email": "cooljunk113@gmail.com", "status": 1, "source_type": 1, "numberReviews": "1"}, {"name": "Coastal Winds", "type": "attraction", "image": null, "address": "406 E Queen Isabella, Port Isabel, TX 78578-2411", "lat": 26.077045, "lng": -97.20705, "ref_id": 20185541, "rating": 5, "num_reviews": 0, "website": "https://www.facebook.com/CoastalWinds/", "contact_phone": "+1 956-943-1989", "contact_email": "cwinds@hotmail.com", "status": 1, "source_type": 1, "numberReviews": "1"}, {"name": "Emergo Arts Boutique", "type": "attraction", "image": "https://dynamic-media-cdn.tripadvisor.com/media/photo-o/18/ef/07/eb/emergo-arts-boutique.jpg?w=1000&s=1", "address": "301 E Holland Ave, Alpine, TX 79830-4735", "lat": 30.35856, "lng": -103.6592, "ref_id": 16805735, "rating": 5, "num_reviews": 0, "website": "http://Www.emergoarts.com", "contact_phone": "+1 432-837-4281", "contact_email": null, "status": 1, "source_type": 1, "numberReviews": "1"}, {"name": "Hooray Indoor Playground", "type": "attraction", "image": null, "address": "3750 S Mason Rd, Katy, TX 77450-7721", "lat": 29.73211, "lng": -95.7569, "ref_id": 15336444, "rating": 4, "num_reviews": 0, "website": "https://www.facebook.com/HoorayPlayground/", "contact_phone": "+1 832-437-9897", "contact_email": "info@hoorayplayground.com", "status": 1, "source_type": 1, "numberReviews": "2"}, {"name": "Rockey's Piano Bar", "type": "attraction", "image": null, "address": "18313 Egret Bay Blvd, Webster, TX 77058-3253", "lat": 29.54369, "lng": -95.10306, "ref_id": 20145030, "rating": 5, "num_reviews": 0, "website": "https://www.rockeysrrtx.com/", "contact_phone": "+1 281-339-7864", "contact_email": "rockeyshtown@rockeysrrtx.com", "status": 1, "source_type": 1, "numberReviews": "1"}, {"name": "Sunset Lake Park", "type": "attraction", "image": "https://dynamic-media-cdn.tripadvisor.com/media/photo-o/1b/2f/56/22/img-20200216-175424-largejpg.jpg?w=1000&s=1", "address": "201 Sunset Drive, Portland, TX 78374", "lat": null, "lng": null, "ref_id": 20317332, "rating": 4, "num_reviews": 0, "website": "http://www.portlandtx.com/Facilities/Facility/Details/11", "contact_phone": "+1 361-777-3301", "contact_email": null, "status": 1, "source_type": 1, "numberReviews": "2"}, {"name": "Graystone Therapeutic Massage", "type": "attraction", "image": null, "address": "11103 San Pedro Ave Suite 211, San Antonio, TX 78216-3122", "lat": 29.54162, "lng": -98.49255, "ref_id": 10088522, "rating": 4.5, "num_reviews": 0, "website": "http://www.graystonetherapy.com/", "contact_phone": "+1 210-525-9001", "contact_email": "graystonemassage@yahoo.com", "status": 1, "source_type": 1, "numberReviews": "2"}, {"name": "LA Fitness", "type": "attraction", "image": null, "address": "150 N Plano Rd Ste 1451, Richardson, TX 75081-3993", "lat": 32.94672, "lng": -96.69848, "ref_id": 20104715, "rating": 5, "num_reviews": 0, "website": "https://www.facebook.com/LAFitnessRICHARDSON/", "contact_phone": "+1 214-646-1382", "contact_email": null, "status": 1, "source_type": 1, "numberReviews": "1"}, {"name": "Shot Republic", "type": "attraction", "image": "https://dynamic-media-cdn.tripadvisor.com/media/photo-o/1a/d9/73/10/shot-republic.jpg?w=1000&s=1", "address": "3101 Pablo Kisel Blvd Suite b6, Brownsville, TX 78526-4436", "lat": 25.96391, "lng": -97.50587, "ref_id": 20057038, "rating": 5, "num_reviews": 0, "website": "https://www.facebook.com/ShotRepublic/", "contact_phone": "+1 956-466-4794", "contact_email": "shotrepublic@gmail.com", "status": 1, "source_type": 1, "numberReviews": "1"}, {"name": "Viva! El Paso", "type": "attraction", "image": "https://dynamic-media-cdn.tripadvisor.com/media/photo-o/10/04/ef/6a/view-of-the-stage.jpg?w=1000&s=1", "address": "1500 McKelligon Canyon Dr, El Paso, TX", "lat": 31.84118, "lng": -106.48646, "ref_id": 3197931, "rating": 4, "num_reviews": 0, "website": "http://www.viva-ep.org/", "contact_phone": "+1 915-231-1100", "contact_email": null, "status": 1, "source_type": 1, "numberReviews": "20"}, {"name": "Lost Pines Golf Course", "type": "attraction", "image": null, "address": "Bastrop State Park, Bastrop, TX", "lat": 30.16548, "lng": -97.44503, "ref_id": 4454358, "rating": 4.5, "num_reviews": 0, "website": "http://www.lostpinesgolfclub.com", "contact_phone": "+1 512-321-2327", "contact_email": null, "status": 1, "source_type": 1, "numberReviews": "3"}, {"name": "Peacock Inn and Stables", "type": "attraction", "image": "https://dynamic-media-cdn.tripadvisor.com/media/photo-o/01/b7/f0/76/the-gardens.jpg?w=1000&s=1", "address": "6713 Sjolander Rd, Baytown, TX 77521-9369", "lat": 29.805054, "lng": -94.93707, "ref_id": 1846327, "rating": 5, "num_reviews": 0, "website": null, "contact_phone": "", "contact_email": "", "status": 1, "source_type": 1, "numberReviews": "3"}, {"name": "North Lake Conroe Paddling Company", "type": "attraction", "image": null, "address": "13988 Calvary Rd, Willis, TX 77318-7063", "lat": 30.47401, "lng": -95.56642, "ref_id": 10413668, "rating": 3.5, "num_reviews": 0, "website": "http://www.northlakeconroepaddlingco.com/North-Lake-Conroe-and-Kayaking-Houston-Services-Fees.html", "contact_phone": "+1 936-203-2697", "contact_email": "nlcpc@comcast.net", "status": 1, "source_type": 1, "numberReviews": "5"}, {"name": "KB Personalized Gifts", "type": "attraction", "image": "https://dynamic-media-cdn.tripadvisor.com/media/photo-o/1b/28/af/d5/unique-gifts.jpg?w=1000&s=1", "address": "7110 Louetta Rd Suite A, Spring, TX 77379-7457", "lat": 30.02287, "lng": -95.52121, "ref_id": 20016960, "rating": 5, "num_reviews": 0, "website": "https://www.facebook.com/KBpersonalizedgifts", "contact_phone": "+1 713-391-0247", "contact_email": "theresa@kbpersonalizedgifts.com", "status": 1, "source_type": 1, "numberReviews": "1"}, {"name": "Sage Blossom", "type": "attraction", "image": null, "address": "6603 Menchaca Rd, Austin, TX 78745-4934", "lat": 30.20646, "lng": -97.80582, "ref_id": 19977015, "rating": 5, "num_reviews": 0, "website": "https://www.sageblossommassage.com/", "contact_phone": "+1 512-826-3550", "contact_email": "juliann@sageblossommassage.com", "status": 1, "source_type": 1, "numberReviews": "1"}, {"name": "Paddle Zen", "type": "attraction", "image": null, "address": "1610 E Riverside Dr, Austin, TX 78741-1006", "lat": 30.24541, "lng": -97.73051, "ref_id": 3198163, "rating": 4.5, "num_reviews": 0, "website": "http://www.paddlezen.com/", "contact_phone": "+1 512-462-0732", "contact_email": null, "status": 1, "source_type": 1, "numberReviews": "3"}, {"name": "Ha.ba's Women's Boutique", "type": "attraction", "image": "https://dynamic-media-cdn.tripadvisor.com/media/photo-o/0e/c4/fc/66/outside-of-haba-s.jpg?w=1000&s=1", "address": "2213 Post Office St, Galveston, Galveston Island, TX 77550-1925", "lat": 29.30446, "lng": -94.79282, "ref_id": 7736707, "rating": 5, "num_reviews": 0, "website": "http://www.facebook.com/Ha.basClothingStore", "contact_phone": "+1 409-762-2213", "contact_email": null, "status": 1, "source_type": 1, "numberReviews": "1"}, {"name": "Randolph Bowling Center", "type": "attraction", "image": null, "address": "Building 870 H Street, Randolph, TX 78150", "lat": 29.55579, "lng": -98.39496, "ref_id": 3954209, "rating": 5, "num_reviews": 0, "website": null, "contact_phone": "+1 210-652-6271", "contact_email": null, "status": 1, "source_type": 1, "numberReviews": "1"}, {"name": "Treasure Island Bar", "type": "attraction", "image": "https://dynamic-media-cdn.tripadvisor.com/media/photo-o/11/53/41/c2/wc-at-the-bar.jpg?w=1000&s=1", "address": "315 N Alister St, Port Aransas, TX 78373-4106", "lat": 27.834352, "lng": -97.06179, "ref_id": 13137611, "rating": 3.5, "num_reviews": 0, "website": "http://www.treasureislandporta.com/", "contact_phone": "+1 361-416-1020", "contact_email": null, "status": 1, "source_type": 1, "numberReviews": "9"}, {"name": "Don Strange Ranch", "type": "attraction", "image": "https://dynamic-media-cdn.tripadvisor.com/media/photo-o/1a/b6/ee/ed/don-strange-ranch.jpg?w=1000&s=1", "address": "103 Waring Welfare Rd, Boerne, TX 78006-7925", "lat": 29.891855, "lng": -98.7864, "ref_id": 16879403, "rating": 5, "num_reviews": 0, "website": "http://donstrange.com", "contact_phone": "+1 830-537-3156", "contact_email": null, "status": 1, "source_type": 1, "numberReviews": "1"}, {"name": "Fredericksburg Slingshot Rental", "type": "attraction", "image": "https://dynamic-media-cdn.tripadvisor.com/media/photo-o/1a/86/93/3b/caption.jpg?w=1000&s=1", "address": "383 FM 2093, Fredericksburg, TX 78624-7152", "lat": 30.25168, "lng": -98.90074, "ref_id": 18378205, "rating": 5, "num_reviews": 0, "website": "https://fredericksburgslingshotrental.com", "contact_phone": "+1 830-443-3001", "contact_email": "info@fredericksburgslingshotrental.com", "status": 1, "source_type": 1, "numberReviews": "1"}, {"name": "Drifter's Bar", "type": "attraction", "image": "https://dynamic-media-cdn.tripadvisor.com/media/photo-o/1b/06/99/c2/amazing-talent.jpg?w=1000&s=1", "address": "26755 FM 1485 Rd, New Caney, TX 77357-7385", "lat": 30.14812, "lng": -95.15313, "ref_id": 5829155, "rating": 4, "num_reviews": 0, "website": "https://www.facebook.com/Drifters-BAR-280875865256258/", "contact_phone": "+1 281-689-0570", "contact_email": null, "status": 1, "source_type": 1, "numberReviews": "2"}, {"name": "The Realms of Arcadia", "type": "attraction", "image": null, "address": "1842 Justin Rd, Highland Village, TX 75077-2105", "lat": 33.072426, "lng": -97.04509, "ref_id": 19690100, "rating": 5, "num_reviews": 0, "website": "http://realmsofarcadia.com/", "contact_phone": "+1 940-453-9064", "contact_email": "therealmsofarcadia@gmail.com", "status": 1, "source_type": 1, "numberReviews": "1"}, {"name": "Off the Record", "type": "attraction", "image": null, "address": "2716 Elm St, Dallas, TX 75226-1424", "lat": 32.784374, "lng": -96.78445, "ref_id": 10385703, "rating": 4.5, "num_reviews": 0, "website": "http://www.facebook.com/OTRDallas/info?tab=page_info", "contact_phone": "+1 214-745-1402", "contact_email": null, "status": 1, "source_type": 1, "numberReviews": "2"}, {"name": "Wet and Wild Rentals", "type": "attraction", "image": null, "address": "592 E State Highway 121, Lewisville, TX 75057-4735", "lat": 33.03917, "lng": -96.98593, "ref_id": 7272374, "rating": 5, "num_reviews": 0, "website": "http://www.wetandwildrentals.co/rental-rates.html", "contact_phone": "+1 972-746-3429", "contact_email": null, "status": 1, "source_type": 1, "numberReviews": "2"}, {"name": "Wildhorse Golf Club at Robson Ranch", "type": "attraction", "image": "https://dynamic-media-cdn.tripadvisor.com/media/photo-o/18/c8/73/2a/caption.jpg?w=1000&s=1", "address": "9448 Ed Robson Cir, Denton, TX 76207-6697", "lat": 33.13885, "lng": -97.24215, "ref_id": 18191155, "rating": 5, "num_reviews": 0, "website": "https://robsonranchgolfclub.com", "contact_phone": "+1 940-246-1012", "contact_email": "info@robson.com", "status": 1, "source_type": 1, "numberReviews": "1"}, {"name": "V's Barbershop", "type": "attraction", "image": "https://dynamic-media-cdn.tripadvisor.com/media/photo-o/1a/37/b4/84/ta-img-20191205-133819.jpg?w=1000&s=1", "address": "2040 W Gray St, Suite 145, Houston, TX 77019-3661", "lat": 29.75305, "lng": -95.41039, "ref_id": 19042192, "rating": 5, "num_reviews": 0, "website": "https://vbarbershop.com/", "contact_phone": "+1 713-527-4442", "contact_email": "info@vbarbershop.com", "status": 1, "source_type": 1, "numberReviews": "1"}, {"name": "Infinite Worlds VR Arcade", "type": "attraction", "image": "https://dynamic-media-cdn.tripadvisor.com/media/photo-o/19/dc/eb/95/family-can-share-vr-station.jpg?w=1000&s=1", "address": "7271 Wurzbach Rd #127, San Antonio, TX 78240-3800", "lat": 29.50408, "lng": -98.58574, "ref_id": 19259775, "rating": 5, "num_reviews": 0, "website": "http://infiniteworldsvr.net", "contact_phone": "+1 833-487-7529", "contact_email": "management@infiniteworldsvr.net", "status": 1, "source_type": 1, "numberReviews": "1"}, {"name": "Lone Star Trail Junkies", "type": "attraction", "image": "https://dynamic-media-cdn.tripadvisor.com/media/photo-o/18/3a/87/4b/caption.jpg?w=1000&s=1", "address": "Sweetwood, San Antonio, TX 78254", "lat": 29.53315, "lng": -98.66413, "ref_id": 17713924, "rating": 5, "num_reviews": 0, "website": "http://www.lonestartrailjunkies.com", "contact_phone": "+1 210-264-2013", "contact_email": "lonestartrailjunkies@gmail.com", "status": 1, "source_type": 1, "numberReviews": "1"}, {"name": "Dallas Vintage Toys", "type": "attraction", "image": "https://dynamic-media-cdn.tripadvisor.com/media/photo-o/12/e8/3e/e6/inside-our-main-store.jpg?w=1000&s=1", "address": "12052 Forestgate Dr, Dallas, TX 75243-5411", "lat": 32.910984, "lng": -96.7038, "ref_id": 14040527, "rating": 5, "num_reviews": 0, "website": "http://www.dallasvintagetoys.com", "contact_phone": "+1 214-827-7060", "contact_email": "shaun@dallasvintagetoys.com", "status": 1, "source_type": 1, "numberReviews": "1"}, {"name": "The Sweet Lily", "type": "attraction", "image": null, "address": "102 E Main St #4228, Fredericksburg, TX 78624-4228", "lat": 30.2751, "lng": -98.87202, "ref_id": 19514775, "rating": 5, "num_reviews": 0, "website": null, "contact_phone": "+1 830-383-1038", "contact_email": null, "status": 1, "source_type": 1, "numberReviews": "1"}, {"name": "Desert Warriors Painball", "type": "attraction", "image": null, "address": "13900 Montana Ave, El Paso, TX 79938-9683", "lat": 31.81516, "lng": -106.19975, "ref_id": 10915588, "rating": 4.5, "num_reviews": 0, "website": "http://www.desertwarriorspaintball.com", "contact_phone": "+1 915-502-3968", "contact_email": null, "status": 1, "source_type": 1, "numberReviews": "2"}, {"name": "Eagle Pass Golf Course", "type": "attraction", "image": "https://dynamic-media-cdn.tripadvisor.com/media/photo-o/1c/bb/75/d9/photo3jpg.jpg?w=1000&s=1", "address": "483 Bliss St, Eagle Pass, TX 78852-5143", "lat": 28.70012, "lng": -100.50407, "ref_id": 19752868, "rating": 4, "num_reviews": 0, "website": "https://www.facebook.com/Eagle-Pass-Golf-Course-533886643328054/", "contact_phone": "+1 830-773-9761", "contact_email": null, "status": 1, "source_type": 1, "numberReviews": "2"}, {"name": "Sienna Plantation Golf Club", "type": "attraction", "image": "https://dynamic-media-cdn.tripadvisor.com/media/photo-o/0e/a2/01/1c/photo7jpg.jpg?w=1000&s=1", "address": "1 Waters Lake Blvd, Missouri City, TX 77459-6553", "lat": 29.49045, "lng": -95.52632, "ref_id": 8769740, "rating": 3.5, "num_reviews": 0, "website": "http://www.siennagolf.com/", "contact_phone": "+1 281-778-4653", "contact_email": null, "status": 1, "source_type": 1, "numberReviews": "13"}, {"name": "Bible Trek Tours", "type": "attraction", "image": "https://dynamic-media-cdn.tripadvisor.com/media/photo-o/1a/0e/90/fa/caption.jpg?w=1000&s=1", "address": "5815 Walden Rd, Beaumont, TX 77720", "lat": null, "lng": null, "ref_id": 19447843, "rating": 5, "num_reviews": 0, "website": "www.bibletrektours.com", "contact_phone": "+1 409-351-2969", "contact_email": "info@bibletrektours.com", "status": 1, "source_type": 1, "numberReviews": "1"}, {"name": "Four Winds Carriage  Company", "type": "attraction", "image": "https://dynamic-media-cdn.tripadvisor.com/media/photo-o/17/0a/c7/89/caption.jpg?w=1000&s=1", "address": "701 Corbin St., Dallas, TX 75202", "lat": 32.782448, "lng": -96.80703, "ref_id": 17199243, "rating": 5, "num_reviews": 0, "website": "www.fourwindscarriage.com", "contact_phone": "+1 940-395-8873", "contact_email": "info@fourwindscarriage.com", "status": 1, "source_type": 1, "numberReviews": "1"}, {"name": "The Woodhouse Day Spa", "type": "attraction", "image": null, "address": "6000 S Staples St Suite 410, Corpus Christi, TX 78413-2952", "lat": 27.69224, "lng": -97.37901, "ref_id": 6898423, "rating": 5, "num_reviews": 0, "website": "http://corpuschristi.woodhousespas.com/", "contact_phone": "+1 361-985-8488", "contact_email": null, "status": 1, "source_type": 1, "numberReviews": "2"}, {"name": "End Of An Ear", "type": "attraction", "image": "https://dynamic-media-cdn.tripadvisor.com/media/photo-o/1a/0f/16/c3/20191108-235703-largejpg.jpg?w=1000&s=1", "address": "4304 Clawson Rd, Austin, TX 78704-7612", "lat": 30.22904, "lng": -97.78427, "ref_id": 19413401, "rating": 5, "num_reviews": 0, "website": "http://endofanear.com/", "contact_phone": "+1 512-462-6008", "contact_email": "info@endofanear.com", "status": 1, "source_type": 1, "numberReviews": "1"}, {"name": "Rancier Foot Massage", "type": "attraction", "image": "https://dynamic-media-cdn.tripadvisor.com/media/photo-o/1a/0a/14/50/rancier-foot-massage.jpg?w=1000&s=1", "address": "1000 W Rancier Ave, Killeen, TX 76541-3217", "lat": 31.12936, "lng": -97.7388, "ref_id": 19431230, "rating": 5, "num_reviews": 0, "website": null, "contact_phone": "+1 254-432-4007", "contact_email": null, "status": 1, "source_type": 1, "numberReviews": "1"}, {"name": "Turn 5 Bar", "type": "attraction", "image": "https://dynamic-media-cdn.tripadvisor.com/media/photo-o/1a/4f/b7/de/good-car-count.jpg?w=1000&s=1", "address": "6701 Old Brownsville Rd, Corpus Christi, TX 78417-9744", "lat": 27.73351, "lng": -97.49, "ref_id": 5837116, "rating": 4, "num_reviews": 0, "website": "https://www.facebook.com/CorpusChristiTurn5Bar/", "contact_phone": "+1 361-808-7223", "contact_email": null, "status": 1, "source_type": 1, "numberReviews": "2"}, {"name": "The Prickly Pear Cooking Classes", "type": "attraction", "image": "https://dynamic-media-cdn.tripadvisor.com/media/photo-o/1a/69/76/37/vegalicious-international.jpg?w=1000&s=1", "address": "1610 New York Avenue, Austin, TX 78702-1022", "lat": 30.27434, "lng": -97.72895, "ref_id": 19419816, "rating": 5, "num_reviews": 0, "website": "http://thepricklypearcookingclasses.com", "contact_phone": "+1 214-578-3707", "contact_email": "thepricklypearcookingclasses@gmail.com", "status": 1, "source_type": 1, "numberReviews": "1"}, {"name": "Conner's Corner Collectibles, Antiques, Boutique & Gifts", "type": "attraction", "image": "https://dynamic-media-cdn.tripadvisor.com/media/photo-o/2b/a7/ce/5f/our-booth-inside-vintage.jpg?w=1000&s=1", "address": "2824 Terrell Rd, Suite 800 Inside Vintage and Lace, Greenville, TX 75402-7387", "lat": 33.12539, "lng": -96.10863, "ref_id": 12017838, "rating": 5, "num_reviews": 0, "website": "http://connerscornercollectibles.com", "contact_phone": null, "contact_email": "connerscornercollectibles@gmail.com", "status": 1, "source_type": 1, "numberReviews": "1"}, {"name": "Basket & Pottery Alley", "type": "attraction", "image": "https://dynamic-media-cdn.tripadvisor.com/media/photo-o/19/fa/dd/94/fabulous-selection-of.jpg?w=1000&s=1", "address": "3519 San Bernardo Ave, Laredo, TX 78041-4749", "lat": 27.53159, "lng": -99.50422, "ref_id": 19393313, "rating": 5, "num_reviews": 0, "website": "https://bpalleys.com/", "contact_phone": "+1 956-723-7671", "contact_email": "bnpalley@prodigy.net", "status": 1, "source_type": 1, "numberReviews": "1"}, {"name": "Island Day Spa", "type": "attraction", "image": null, "address": "13915 S Padre Island Dr, Corpus Christi, TX 78418-6023", "lat": 27.629332, "lng": -97.22756, "ref_id": 9875387, "rating": 5, "num_reviews": 0, "website": "http://www.islanddayspacc.com/", "contact_phone": "+1 361-949-1444", "contact_email": null, "status": 1, "source_type": 1, "numberReviews": "1"}, {"name": "Austin Hemp Tours", "type": "attraction", "image": "https://dynamic-media-cdn.tripadvisor.com/media/photo-o/18/47/06/74/caption.jpg?w=1000&s=1", "address": "421 E 6th St Suite E, Austin, TX 78701-3739", "lat": 30.26662, "lng": -97.7386, "ref_id": 17735217, "rating": 5, "num_reviews": 0, "website": "https://www.austinhemptours.com/", "contact_phone": "+1 866-277-8478", "contact_email": "info@austinhemptours.com", "status": 1, "source_type": 1, "numberReviews": "1"}, {"name": "Cellar Mixology", "type": "attraction", "image": "https://dynamic-media-cdn.tripadvisor.com/media/photo-o/17/0d/0b/d2/cellar-mixology.jpg?w=1000&s=1", "address": "1142 E Commerce St, San Antonio, TX 78205-3302", "lat": 29.421732, "lng": -98.47898, "ref_id": 16935746, "rating": 4, "num_reviews": 0, "website": "http://www.cellarmixology.com/", "contact_phone": "+1 210-305-6066", "contact_email": null, "status": 1, "source_type": 1, "numberReviews": "4"}, {"name": "Georgina Estefania", "type": "attraction", "image": "https://dynamic-media-cdn.tripadvisor.com/media/photo-o/06/e4/e9/b0/georgina-estefania.jpg?w=1000&s=1", "address": "2058 Montgomery St, Fort Worth, TX 76107-4052", "lat": 32.73902, "lng": -97.37039, "ref_id": 7219939, "rating": 5, "num_reviews": 0, "website": "http://www.georginaestefania.com", "contact_phone": "+1 817-945-2228", "contact_email": "sales@geknits.com", "status": 1, "source_type": 1, "numberReviews": "2"}, {"name": "The Burlap Bag", "type": "attraction", "image": null, "address": "502 W 30th St, Austin, TX 78705-2806", "lat": 30.29634, "lng": -97.74139, "ref_id": 2572841, "rating": 4, "num_reviews": 0, "website": "http://www.theburlapbag.com/", "contact_phone": "", "contact_email": "", "status": 1, "source_type": 1, "numberReviews": "3"}, {"name": "Port Arnasas Jet Ski Rentals", "type": "attraction", "image": "https://dynamic-media-cdn.tripadvisor.com/media/photo-o/08/0d/bf/aa/had-a-wonderful-timeinstructor.jpg?w=1000&s=1", "address": "440 W Cotter Ave Docks behind DeepSea Headquarters, Port Aransas, TX 78373-4018", "lat": 27.83818, "lng": -97.06753, "ref_id": 6938599, "rating": 4, "num_reviews": 0, "website": "http://www.portaransasjetskirentals.com/", "contact_phone": "+1 361-947-0749", "contact_email": null, "status": 1, "source_type": 1, "numberReviews": "6"}, {"name": "Blum", "type": "attraction", "image": "https://dynamic-media-cdn.tripadvisor.com/media/photo-o/19/ca/d8/d8/blum-body-therapy-massage.jpg?w=1000&s=1", "address": "806 W 10th St Ste A, Austin, TX 78701-2059", "lat": 30.27442, "lng": -97.74982, "ref_id": 18143213, "rating": 5, "num_reviews": 0, "website": "http://blumbodytherapy.com", "contact_phone": "+1 512-481-2586", "contact_email": "info@blumbodytherapy.com", "status": 1, "source_type": 1, "numberReviews": "1"}, {"name": "San Antonio Side Cars", "type": "attraction", "image": null, "address": "San Antonio, TX", "lat": null, "lng": null, "ref_id": 18965305, "rating": 5, "num_reviews": 0, "website": "https://www.facebook.com/sasidecars/", "contact_phone": "+1 210-660-6939", "contact_email": null, "status": 1, "source_type": 1, "numberReviews": "1"}, {"name": "The Bak Yard", "type": "attraction", "image": "https://dynamic-media-cdn.tripadvisor.com/media/photo-o/19/c6/8a/c3/this-place-is-where-you.jpg?w=1000&s=1", "address": "510 E 1st St, Del Rio, TX 78840-4636", "lat": 29.36725, "lng": -100.8976, "ref_id": 19254120, "rating": 5, "num_reviews": 0, "website": "http://www.facebook.com/The-Bak-Yard-229353308018127/", "contact_phone": "+1 830-320-8006", "contact_email": "thebakyardbg@gmail.com", "status": 1, "source_type": 1, "numberReviews": "1"}, {"name": "Pearl Theater", "type": "attraction", "image": "https://dynamic-media-cdn.tripadvisor.com/media/photo-o/14/69/05/8a/entrance-to-the-theater.jpg?w=1000&s=1", "address": "14803 Park Almeda Dr, Houston, TX 77047-7005", "lat": 29.5896, "lng": -95.42166, "ref_id": 14786606, "rating": 4.5, "num_reviews": 0, "website": "http://www.pearl-theater.com/", "contact_phone": "+1 832-459-4674", "contact_email": "director@pearl-theater.com", "status": 1, "source_type": 1, "numberReviews": "3"}, {"name": "Ifly Indoor Skydiving El Paso Tx", "type": "attraction", "image": null, "address": "430 Vin Rambla, El Paso, TX 79912-2434", "lat": 31.810806, "lng": -106.52652, "ref_id": 18909877, "rating": 5, "num_reviews": 0, "website": "http://Iflyworld.com", "contact_phone": "+1 915-626-4359", "contact_email": null, "status": 1, "source_type": 1, "numberReviews": "8"}, {"name": "Cherryhurst House", "type": "attraction", "image": null, "address": "1603 Cherryhurst St, Houston, TX 77006-2517", "lat": 29.74503, "lng": -95.39723, "ref_id": 13951663, "rating": 5, "num_reviews": 0, "website": "http://www.cherryhursthouse.com", "contact_phone": null, "contact_email": null, "status": 1, "source_type": 1, "numberReviews": "1"}, {"name": "Fort Inglish Village", "type": "attraction", "image": "https://dynamic-media-cdn.tripadvisor.com/media/photo-o/21/5f/73/d4/fort-inlish-bonham-tx.jpg?w=1000&s=1", "address": "800 W Sam Rayburn Dr # TX-56, Bonham, TX 75418-4103", "lat": 33.577385, "lng": -96.18709, "ref_id": 10736236, "rating": 4, "num_reviews": 0, "website": null, "contact_phone": "+1 903-583-3943", "contact_email": null, "status": 1, "source_type": 1, "numberReviews": "4"}, {"name": "Warehouse Live", "type": "attraction", "image": "https://dynamic-media-cdn.tripadvisor.com/media/photo-o/18/6d/11/36/the-stage-before-the.jpg?w=1000&s=1", "address": "2600 Travis St, Houston, TX 77003-3030", "lat": 29.745827, "lng": -95.37536, "ref_id": 16963535, "rating": 3.5, "num_reviews": 0, "website": "https://www.warehouselivemidtown.com/", "contact_phone": "+1 832-767-0513", "contact_email": null, "status": 1, "source_type": 1, "numberReviews": "3"}, {"name": "World\u2019s Richest Acre Park", "type": "attraction", "image": "https://dynamic-media-cdn.tripadvisor.com/media/photo-o/12/f3/5f/0f/world-s-richest-acre.jpg?w=1000&s=1", "address": "100 N Commerce Street, Kilgore, TX 75662", "lat": 32.387165, "lng": -94.875824, "ref_id": 14081475, "rating": 4, "num_reviews": 0, "website": "http://www.welcometokilgore.com/category/history/worlds-richest-acre-park", "contact_phone": null, "contact_email": null, "status": 1, "source_type": 1, "numberReviews": "11"}, {"name": "Houston Speedway", "type": "attraction", "image": null, "address": "11620 N Lake Houston Pkwy, Houston, TX 77044-5034", "lat": 29.89084, "lng": -95.23024, "ref_id": 281472, "rating": 3, "num_reviews": 0, "website": "http://houstonmotorsportspark.com/", "contact_phone": "+1 281-458-1972", "contact_email": "", "status": 1, "source_type": 1, "numberReviews": "5"}, {"name": "Persimmon Gap Visitor Center", "type": "attraction", "image": "https://dynamic-media-cdn.tripadvisor.com/media/photo-o/0d/cb/a1/2b/persimmon-gap-visitor.jpg?w=1000&s=1", "address": "Hwy 385 S, Big Bend National Park, TX 79834", "lat": 29.660013, "lng": -103.17353, "ref_id": 3807334, "rating": 3.5, "num_reviews": 0, "website": "http://www.nps.gov/bibe/planyourvisit/pgapvc.htm", "contact_phone": "+1 432-477-2251", "contact_email": null, "status": 1, "source_type": 1, "numberReviews": "24"}, {"name": "Lost Arrow Loop", "type": "attraction", "image": "https://dynamic-media-cdn.tripadvisor.com/media/photo-o/08/a7/c3/37/lost-arrow-loop.jpg?w=1000&s=1", "address": "Kit McConnico Park, Lufkin, TX 75901", "lat": 31.36849, "lng": -94.69367, "ref_id": 8528757, "rating": 4.5, "num_reviews": 0, "website": null, "contact_phone": null, "contact_email": null, "status": 1, "source_type": 1, "numberReviews": "2"}, {"name": "Off The Wall Gallery", "type": "attraction", "image": "https://dynamic-media-cdn.tripadvisor.com/media/photo-o/24/29/ef/b7/art-consultancy-for-corporate.jpg?w=1000&s=1", "address": "5015 Westheimer Road Suite 2208, Houston, TX 77056", "lat": 29.74062, "lng": -95.46134, "ref_id": 8671322, "rating": 4.5, "num_reviews": 0, "website": "http://offthewallgallery.com", "contact_phone": "+1 713-871-0940", "contact_email": "contact@offthewallgallery.com", "status": 1, "source_type": 1, "numberReviews": "3"}, {"name": "Veterans Memorial Park", "type": "attraction", "image": "https://dynamic-media-cdn.tripadvisor.com/media/photo-o/0d/ca/b9/bb/veterans-park-palestine.jpg?w=1000&s=1", "address": "W Spring St N Howard St, Palestine, TX 75801", "lat": 31.77196, "lng": -95.65958, "ref_id": 11877707, "rating": 4.5, "num_reviews": 0, "website": null, "contact_phone": null, "contact_email": null, "status": 1, "source_type": 1, "numberReviews": "3"}, {"name": "Masjid Bilal", "type": "attraction", "image": "https://dynamic-media-cdn.tripadvisor.com/media/photo-o/0d/6f/36/ee/the-impressive-dome-of.jpg?w=1000&s=1", "address": "1815 Adel Road, Houston, TX 77067", "lat": 29.95436, "lng": -95.44821, "ref_id": 11727315, "rating": 4, "num_reviews": 0, "website": "http://www.masjidbilalnz.org", "contact_phone": "+1 281-537-1946", "contact_email": null, "status": 1, "source_type": 1, "numberReviews": "1"}, {"name": "Dolph Briscoe Center for American History", "type": "attraction", "image": "https://dynamic-media-cdn.tripadvisor.com/media/photo-o/06/20/04/48/outside-of-building.jpg?w=1000&s=1", "address": "1 University Sta Stop D1100 Sid Richardson Hall 2.101, Austin, TX 78712-0335", "lat": 30.28662, "lng": -97.73783, "ref_id": 558495, "rating": 3.5, "num_reviews": 0, "website": "http://www.cah.utexas.edu/", "contact_phone": "+1 512-495-4515", "contact_email": "", "status": 1, "source_type": 1, "numberReviews": "4"}, {"name": "100 Acre Wood Preserve", "type": "attraction", "image": null, "address": "14236 W Cypress Forest Dr, Houston, TX 77070-2917", "lat": 29.982721, "lng": -95.57748, "ref_id": 13144163, "rating": 3.5, "num_reviews": 0, "website": null, "contact_phone": "+1 281-353-8100", "contact_email": null, "status": 1, "source_type": 1, "numberReviews": "3"}, {"name": "Christ the King Catholic Church", "type": "attraction", "image": "https://dynamic-media-cdn.tripadvisor.com/media/photo-o/23/b2/df/a8/beautiful-church-interior.jpg?w=1000&s=1", "address": "8017 Preston Rd, Dallas, TX 75225-6304", "lat": 32.86002, "lng": -96.8042, "ref_id": 4107694, "rating": 5, "num_reviews": 0, "website": null, "contact_phone": "+1 214-365-1200", "contact_email": null, "status": 1, "source_type": 1, "numberReviews": "2"}, {"name": "Magnolia Hill Garden", "type": "attraction", "image": "https://dynamic-media-cdn.tripadvisor.com/media/photo-o/17/e9/a2/d2/photo0jpg.jpg?w=1000&s=1", "address": "5059 Highway 290 W, Brenham, TX 77833-0824", "lat": 30.17813, "lng": -96.47223, "ref_id": 17452987, "rating": 4, "num_reviews": 0, "website": null, "contact_phone": null, "contact_email": null, "status": 1, "source_type": 1, "numberReviews": "1"}, {"name": "Old Fish Hatchery Nature Area", "type": "attraction", "image": "https://dynamic-media-cdn.tripadvisor.com/media/photo-o/0c/97/bc/bb/old-fish-hatchery.jpg?w=1000&s=1", "address": "Dallas, TX", "lat": null, "lng": null, "ref_id": 254764, "rating": 3.5, "num_reviews": 0, "website": null, "contact_phone": null, "contact_email": null, "status": 1, "source_type": 1, "numberReviews": "2"}, {"name": "Archway Gallery", "type": "attraction", "image": "https://dynamic-media-cdn.tripadvisor.com/media/photo-o/0b/5b/e9/86/archway-gallery.jpg?w=1000&s=1", "address": "2013 W Gray St, Houston, TX 77019-3646", "lat": 29.752895, "lng": -95.40931, "ref_id": 560476, "rating": 5, "num_reviews": 0, "website": "http://www.archwaygallery.com/", "contact_phone": "+1 713-522-2409", "contact_email": "archwaygalleryartists@yahoo.com", "status": 1, "source_type": 1, "numberReviews": "8"}, {"name": "World's Largest Gingerbread Man", "type": "attraction", "image": "https://dynamic-media-cdn.tripadvisor.com/media/photo-o/09/d6/56/8f/20151223-143902-largejpg.jpg?w=1000&s=1", "address": "1st at Main Street, Smithville, TX 78957", "lat": 30.00679, "lng": -97.16047, "ref_id": 4745448, "rating": 3.5, "num_reviews": 0, "website": "https://www.facebook.com/gingerbreadman", "contact_phone": "+1 512-237-2313", "contact_email": null, "status": 1, "source_type": 1, "numberReviews": "21"}, {"name": "Haas Moto Museum & Sculpture Gallery", "type": "attraction", "image": "https://dynamic-media-cdn.tripadvisor.com/media/photo-o/12/f2/30/36/museum-entrance.jpg?w=1000&s=1", "address": "1201 Oak Lawn Ave Suite 110, Dallas, TX 75207-6901", "lat": 32.79316, "lng": -96.82311, "ref_id": 14064310, "rating": 4.5, "num_reviews": 0, "website": "http://www.haasmotomuseum.com/", "contact_phone": "+1 972-685-3051", "contact_email": "info@haasmg.com", "status": 1, "source_type": 1, "numberReviews": "9"}, {"name": "Bartholomew District Park", "type": "attraction", "image": "https://dynamic-media-cdn.tripadvisor.com/media/photo-o/14/74/2a/0d/photo2jpg.jpg?w=1000&s=1", "address": "5201 Berkman Dr, Austin, TX 78723", "lat": 30.30484, "lng": -97.69765, "ref_id": 13416302, "rating": 4, "num_reviews": 0, "website": null, "contact_phone": null, "contact_email": null, "status": 1, "source_type": 1, "numberReviews": "1"}, {"name": "Trammell Crow Park", "type": "attraction", "image": "https://dynamic-media-cdn.tripadvisor.com/media/photo-o/1b/18/6a/1d/lulubelle-the-cow.jpg?w=1000&s=1", "address": "3700 Sylvan Ave, Dallas, TX 75207", "lat": null, "lng": null, "ref_id": 20266655, "rating": 5, "num_reviews": 0, "website": "https://www.dallasparks.org/Facilities/Facility/Details/Trammell-Crow-767", "contact_phone": null, "contact_email": null, "status": 1, "source_type": 1, "numberReviews": "1"}, {"name": "Bivins Gallery", "type": "attraction", "image": "https://dynamic-media-cdn.tripadvisor.com/media/photo-o/0e/af/6f/2e/21-to-watch-at-bivins.jpg?w=1000&s=1", "address": "300 Crescent Ct Suite 100, Dallas, TX 75201-1876", "lat": 32.79381, "lng": -96.803986, "ref_id": 12087118, "rating": 5, "num_reviews": 0, "website": "http://www.bivinsgallery.com", "contact_phone": "+1 214-272-2795", "contact_email": "art@bivinsgallery.com", "status": 1, "source_type": 1, "numberReviews": "4"}, {"name": "Angelina County Farmer\u2019S Market", "type": "attraction", "image": null, "address": "2107 S Medford Dr, Lufkin, TX 75901-6257", "lat": 31.32216, "lng": -94.69678, "ref_id": 17567119, "rating": 5, "num_reviews": 0, "website": "https://www.facebook.com/angelinacountyfarmmarket/", "contact_phone": "+1 936-366-4535", "contact_email": "farmersmarket@gmail.com", "status": 1, "source_type": 1, "numberReviews": "1"}, {"name": "Mercado 369", "type": "attraction", "image": "https://dynamic-media-cdn.tripadvisor.com/media/photo-o/15/5e/15/57/getlstd-property-photo.jpg?w=1000&s=1", "address": "369 W Jefferson Blvd Oak Cliff, Dallas, TX 75208-4602", "lat": 32.74298, "lng": -96.82788, "ref_id": 15361454, "rating": 3, "num_reviews": 0, "website": "http://mercado369.com/", "contact_phone": null, "contact_email": "info@mercado369.com", "status": 1, "source_type": 1, "numberReviews": "2"}, {"name": "Cypress Creek Park", "type": "attraction", "image": "https://dynamic-media-cdn.tripadvisor.com/media/photo-o/18/0b/59/da/sailboat-in-cove-taken.jpg?w=1000&s=1", "address": "13601 Bullick Hollow Rd, Austin, TX 78726-5005", "lat": 30.43502, "lng": -97.87203, "ref_id": 17634695, "rating": 3.5, "num_reviews": 0, "website": null, "contact_phone": "+1 512-854-7275", "contact_email": null, "status": 1, "source_type": 1, "numberReviews": "2"}, {"name": "St. Paul's United Methodist Church", "type": "attraction", "image": "https://dynamic-media-cdn.tripadvisor.com/media/photo-o/1a/be/55/db/this-window-is-high-above.jpg?w=1000&s=1", "address": "5501 Main St, Houston, TX 77004-6917", "lat": 29.72612, "lng": -95.38878, "ref_id": 19964488, "rating": 5, "num_reviews": 0, "website": "http://www.stpaulshouston.org/history", "contact_phone": "+1 713-528-0527", "contact_email": null, "status": 1, "source_type": 1, "numberReviews": "1"}, {"name": "Flatbed Center for Contemporary Printmaking", "type": "attraction", "image": "https://dynamic-media-cdn.tripadvisor.com/media/photo-o/15/d2/95/42/art.jpg?w=1000&s=1", "address": "3701 Drossett Dr Ste 190, Austin, TX 78744-1137", "lat": 30.21137, "lng": -97.73004, "ref_id": 558739, "rating": 4, "num_reviews": 0, "website": null, "contact_phone": "+1 512-477-9328", "contact_email": "katherine@flatbedpress.com", "status": 1, "source_type": 1, "numberReviews": "2"}, {"name": "Wagon Wheel Antique Mall", "type": "attraction", "image": "https://dynamic-media-cdn.tripadvisor.com/media/photo-o/15/c2/16/36/wagon-wheel-antique-mall.jpg?w=1000&s=1", "address": "7150 State Highway 31 E, Murchison, TX 75778-3457", "lat": 32.281273, "lng": -95.73707, "ref_id": 11807854, "rating": 5, "num_reviews": 0, "website": "http://www.wagonwheelantiquemall.com/", "contact_phone": "+1 903-469-4321", "contact_email": null, "status": 1, "source_type": 1, "numberReviews": "4"}, {"name": "Dallas Chamber Symphony", "type": "attraction", "image": "https://dynamic-media-cdn.tripadvisor.com/media/photo-o/11/ae/09/bf/getlstd-property-photo.jpg?w=1000&s=1", "address": "2520 Flora St, Dallas, TX 75201-2581", "lat": 32.79078, "lng": -96.7965, "ref_id": 13356513, "rating": 5, "num_reviews": 0, "website": "http://www.dcsymphony.org", "contact_phone": "+1 214-449-1294", "contact_email": "contact@dcsymphony.org", "status": 1, "source_type": 1, "numberReviews": "1"}, {"name": "Altstadt Brewery", "type": "attraction", "image": "https://dynamic-media-cdn.tripadvisor.com/media/photo-o/1b/6c/4e/c0/beautiful-victorian-architectu.jpg?w=1000&s=1", "address": "6120 E US Highway 290, Fredericksburg, TX 78624-2176", "lat": 30.22602, "lng": -98.79711, "ref_id": 15096602, "rating": 4, "num_reviews": 0, "website": "https://www.altstadtbeer.com/", "contact_phone": "+1 830-304-2337", "contact_email": "events@altstadtbeer.com", "status": 1, "source_type": 1, "numberReviews": "181"}, {"name": "South Texas College", "type": "attraction", "image": "https://dynamic-media-cdn.tripadvisor.com/media/photo-o/02/51/02/61/south-texas-college.jpg?w=1000&s=1", "address": "3201 Pecan Blvd, McAllen, TX 78501-6661", "lat": 26.21697, "lng": -98.25359, "ref_id": 2493852, "rating": 5, "num_reviews": 0, "website": "http://www.southtexascollege.edu/", "contact_phone": "", "contact_email": "", "status": 1, "source_type": 1, "numberReviews": "17"}, {"name": "Lynn Creek Park", "type": "attraction", "image": "https://dynamic-media-cdn.tripadvisor.com/media/photo-s/02/b8/9e/56/lynn-creek.jpg?w=1000&s=1", "address": "Grand Prairie, TX", "lat": null, "lng": null, "ref_id": 3320676, "rating": 3.5, "num_reviews": 0, "website": "http://www.tpwd.state.tx.us/fishboat/fish/recreational/lakes/joe_pool/access.phtml", "contact_phone": null, "contact_email": null, "status": 1, "source_type": 1, "numberReviews": "18"}, {"name": "Westcave Outdoor Discovery Center", "type": "attraction", "image": "https://dynamic-media-cdn.tripadvisor.com/media/photo-o/09/64/84/df/westcave-outdoor-discovery.jpg?w=1000&s=1", "address": "24814 Hamilton Pool Rd Dripping Springs/Round Mountain, Austin, TX 78663-8570", "lat": 30.33738, "lng": -98.14091, "ref_id": 144286, "rating": 4.5, "num_reviews": 0, "website": "http://www.westcave.org/", "contact_phone": "+1 830-825-3442", "contact_email": null, "status": 1, "source_type": 1, "numberReviews": "134"}, {"name": "Wayne Ferguson Plaza", "type": "attraction", "image": "https://dynamic-media-cdn.tripadvisor.com/media/photo-o/0b/81/c2/f0/gravel-path-to-splash.jpg?w=1000&s=1", "address": "150 W Church St, Lewisville, TX 75057", "lat": 33.04695, "lng": -96.9957, "ref_id": 10386210, "rating": 5, "num_reviews": 0, "website": "http://www.cityoflewisville.com/about-us/city-departments/parks-recreation/park-listings/wayne-ferguson-plaza", "contact_phone": "+1 972-219-3401", "contact_email": null, "status": 1, "source_type": 1, "numberReviews": "8"}, {"name": "Camp Ben McCulloch", "type": "attraction", "image": "https://dynamic-media-cdn.tripadvisor.com/media/photo-o/09/a8/e9/4d/camp-ben-mcculloch.jpg?w=1000&s=1", "address": "Fm 1826, Driftwood, TX 78619-4227", "lat": 30.12871, "lng": -98.01516, "ref_id": 270349, "rating": 5, "num_reviews": 0, "website": "http://www.campbenmcculloch.com/", "contact_phone": "+1 512-858-2084", "contact_email": "", "status": 1, "source_type": 1, "numberReviews": "10"}, {"name": "Lake Alan Henry", "type": "attraction", "image": "https://dynamic-media-cdn.tripadvisor.com/media/photo-o/08/76/40/72/lake-alan-henry.jpg?w=1000&s=1", "address": "Garza County, Lubbock, TX", "lat": 33.587543, "lng": -101.8459, "ref_id": 1524064, "rating": 4, "num_reviews": 0, "website": "http://www.lakealanhenry.com/fish2010.htm", "contact_phone": "+1 806-775-2673", "contact_email": "", "status": 1, "source_type": 1, "numberReviews": "38"}, {"name": "R.F. Meador Branch Library", "type": "attraction", "image": null, "address": "709 W Montgomery St, Willis, TX 77378-8682", "lat": 30.42173, "lng": -95.48662, "ref_id": 13996655, "rating": 5, "num_reviews": 0, "website": "http://www.countylibrary.com", "contact_phone": "+1 936-442-7740", "contact_email": null, "status": 1, "source_type": 1, "numberReviews": "3"}, {"name": "Kwahadi Museum of the American Indian", "type": "attraction", "image": "https://dynamic-media-cdn.tripadvisor.com/media/photo-o/04/57/b5/d1/kwahadi-museum-of-the.jpg?w=1000&s=1", "address": "9151 I-40 East, Amarillo, TX 79118", "lat": 35.19376, "lng": -101.73393, "ref_id": 4680207, "rating": 4, "num_reviews": 0, "website": "https://www.kwahadi.com/content.aspx?page_id=22&club_id=376394&module_id=541012", "contact_phone": "+1 806-335-3175", "contact_email": null, "status": 1, "source_type": 1, "numberReviews": "46"}, {"name": "Lamar County Historical Museum", "type": "attraction", "image": "https://dynamic-media-cdn.tripadvisor.com/media/photo-o/06/37/90/75/lamar-county-historical.jpg?w=1000&s=1", "address": "1015 W Kaufman St, Paris, TX 75460-5643", "lat": 33.65935, "lng": -95.56612, "ref_id": 6867308, "rating": 4.5, "num_reviews": 0, "website": "http://lchsparistx.org/", "contact_phone": "+1 903-783-0064", "contact_email": null, "status": 1, "source_type": 1, "numberReviews": "20"}, {"name": "Samuel Walker Houston Museum & Cultural Center", "type": "attraction", "image": null, "address": "1604 10th St Corner of Ave. P & 10th St, old Sam Walker Houston School, Huntsville, TX 77320-3810", "lat": 30.72522, "lng": -95.55758, "ref_id": 14957583, "rating": 5, "num_reviews": 0, "website": "http://www.facebook.com/SamuelWHoustonMuseum/", "contact_phone": "+1 936-295-2119", "contact_email": null, "status": 1, "source_type": 1, "numberReviews": "2"}, {"name": "Texas Wine Collective", "type": "attraction", "image": "https://dynamic-media-cdn.tripadvisor.com/media/photo-o/1d/11/ca/1c/texas-wine-collective.jpg?w=1000&s=1", "address": "10354 E US Highway 290, Fredericksburg, TX 78624-5761", "lat": 30.2239, "lng": -98.72685, "ref_id": 3478459, "rating": 4.5, "num_reviews": 0, "website": "http://www.texaswinecollective.com/", "contact_phone": "+1 830-997-7470", "contact_email": "info@texaswinecollective.com", "status": 1, "source_type": 1, "numberReviews": "233"}, {"name": "Lake LBJ Yacht Club and Marina", "type": "attraction", "image": "https://dynamic-media-cdn.tripadvisor.com/media/photo-o/04/81/d1/9d/lake-lbj-yacht-club-and.jpg?w=1000&s=1", "address": "200 Wirtz Dam Rd, Horseshoe Bay, TX 78657-9426", "lat": 30.55422, "lng": -98.33481, "ref_id": 2642568, "rating": 4.5, "num_reviews": 0, "website": "http://www.lakelbjmarina.com/", "contact_phone": "+1 830-693-9172", "contact_email": "marina@tstar.net", "status": 1, "source_type": 1, "numberReviews": "80"}, {"name": "Moose & Goose Winery", "type": "attraction", "image": "https://dynamic-media-cdn.tripadvisor.com/media/photo-o/16/f3/9a/26/photo7jpg.jpg?w=1000&s=1", "address": "6300B Middle Road, Temple, TX 76501", "lat": 31.097763, "lng": -97.26775, "ref_id": 16742491, "rating": 4.5, "num_reviews": 0, "website": "http://Mooseandgoosewinery.com", "contact_phone": "+1 316-218-5653", "contact_email": null, "status": 1, "source_type": 1, "numberReviews": "8"}, {"name": "Cherokee Civic Theatre", "type": "attraction", "image": "https://dynamic-media-cdn.tripadvisor.com/media/photo-o/13/7c/d0/34/godspell-2013.jpg?w=1000&s=1", "address": "157 W 5th St, Rusk, TX 75785-1217", "lat": 31.79479, "lng": -95.15135, "ref_id": 14203956, "rating": 5, "num_reviews": 0, "website": "http://www.cherokeetheatre.net", "contact_phone": "+1 903-683-2131", "contact_email": "president@cherokeetheatre.net", "status": 1, "source_type": 1, "numberReviews": "2"}, {"name": "Tanger Outlets Fort Worth", "type": "attraction", "image": "https://dynamic-media-cdn.tripadvisor.com/media/photo-o/11/14/b4/26/tanger-outlets.jpg?w=1000&s=1", "address": "15853 North Freeway, Fort Worth, TX 76177-3316", "lat": 33.022415, "lng": -97.281425, "ref_id": 12996240, "rating": 4.5, "num_reviews": 0, "website": "http://www.tangeroutlet.com/fortworth", "contact_phone": "+1 817-464-5400", "contact_email": null, "status": 1, "source_type": 1, "numberReviews": "48"}, {"name": "Island View Park", "type": "attraction", "image": "https://dynamic-media-cdn.tripadvisor.com/media/photo-o/10/38/95/98/getlstd-property-photo.jpg?w=1000&s=1", "address": "87126 Preston Bend Rd, Pottsboro, TX 75076", "lat": 33.87703, "lng": -96.65051, "ref_id": 12799825, "rating": 4, "num_reviews": 0, "website": "http://islandviewtexoma.com", "contact_phone": "+1 903-419-1008", "contact_email": "info@islandviewtexoma.com", "status": 1, "source_type": 1, "numberReviews": "5"}, {"name": "12th Armored Division Memorial Museum", "type": "attraction", "image": "https://dynamic-media-cdn.tripadvisor.com/media/photo-o/02/61/41/39/messkit.jpg?w=1000&s=1", "address": "1289 N 2nd St, Abilene, TX 79601-5705", "lat": 32.45046, "lng": -99.736435, "ref_id": 2422924, "rating": 4.5, "num_reviews": 0, "website": "http://www.12tharmoredmuseum.com", "contact_phone": "+1 325-677-6515", "contact_email": "hellcatsmuseum@yahoo.com", "status": 1, "source_type": 1, "numberReviews": "78"}, {"name": "Hawaiian Falls Roanoke", "type": "attraction", "image": "https://dynamic-media-cdn.tripadvisor.com/media/photo-o/0c/01/4c/23/photo0jpg.jpg?w=1000&s=1", "address": "290 W Byron Nelson Blvd, Roanoke, TX 76262-3500", "lat": 33.00547, "lng": -97.22947, "ref_id": 2294353, "rating": 4, "num_reviews": 0, "website": "http://hfalls.com/roanoke/index.php", "contact_phone": "+1 817-853-0099", "contact_email": "", "status": 1, "source_type": 1, "numberReviews": "90"}, {"name": "Will Rogers Memorial Center", "type": "attraction", "image": "https://dynamic-media-cdn.tripadvisor.com/media/photo-o/07/84/bd/d7/will-rogers-memorial.jpg?w=1000&s=1", "address": "3401 W Lancaster Ave, Fort Worth, TX 76107-3045", "lat": 32.745007, "lng": -97.367134, "ref_id": 109284, "rating": 4.5, "num_reviews": 0, "website": "http://www.fwculture.com/wrogers.htm", "contact_phone": "817-392-7469", "contact_email": "", "status": 1, "source_type": 1, "numberReviews": "144"}, {"name": "Whitehead Memorial Museum", "type": "attraction", "image": "https://dynamic-media-cdn.tripadvisor.com/media/photo-o/0b/21/96/e6/sign.jpg?w=1000&s=1", "address": "1308 S Main St, Del Rio, TX 78840-5998", "lat": 29.35207, "lng": -100.8981, "ref_id": 108347, "rating": 4.5, "num_reviews": 0, "website": "http://www.whiteheadmuseum.org/", "contact_phone": "+1 830-774-7568", "contact_email": "michael.diaz@whiteheadmuseum.org", "status": 1, "source_type": 1, "numberReviews": "87"}, {"name": "Texas Independence Trail", "type": "attraction", "image": null, "address": "TX", "lat": null, "lng": null, "ref_id": 296688, "rating": 3, "num_reviews": 0, "website": "http://texasindependencetrail.com", "contact_phone": "", "contact_email": "", "status": 1, "source_type": 1, "numberReviews": "1"}, {"name": "Northwest Park", "type": "attraction", "image": "https://dynamic-media-cdn.tripadvisor.com/media/photo-o/0b/8a/ad/67/northwest-park-in-december.jpg?w=1000&s=1", "address": "2800 Cheyenne St, Irving, TX 75062-7272", "lat": 32.844624, "lng": -97.00136, "ref_id": 9569869, "rating": 4, "num_reviews": 0, "website": null, "contact_phone": null, "contact_email": null, "status": 1, "source_type": 1, "numberReviews": "7"}, {"name": "Hurricane Alley Waterpark", "type": "attraction", "image": "https://dynamic-media-cdn.tripadvisor.com/media/photo-o/02/a1/37/0d/filename-6-28-12-hurricane.jpg?w=1000&s=1", "address": "702 E Port Ave, Corpus Christi, TX 78401-1006", "lat": 27.809574, "lng": -97.39801, "ref_id": 3291834, "rating": 3.5, "num_reviews": 0, "website": "http://www.hurricanealleycc.com", "contact_phone": "+1 361-883-9283", "contact_email": null, "status": 1, "source_type": 1, "numberReviews": "109"}, {"name": "The Big Tree", "type": "attraction", "image": "https://dynamic-media-cdn.tripadvisor.com/media/photo-o/15/25/66/47/the-top-of-redwoods.jpg?w=1000&s=1", "address": "1622 12th St, Rockport, TX 78382-7828", "lat": 28.151657, "lng": -96.9793, "ref_id": 12730212, "rating": 4.5, "num_reviews": 0, "website": null, "contact_phone": null, "contact_email": null, "status": 1, "source_type": 1, "numberReviews": "59"}, {"name": "Coryell Museum & Historical Center", "type": "attraction", "image": "https://dynamic-media-cdn.tripadvisor.com/media/photo-o/0e/ad/2e/b5/coryell-museum-historical.jpg?w=1000&s=1", "address": "718 E Main St, Gatesville, TX 76528-1473", "lat": 31.43463, "lng": -97.7487, "ref_id": 10311642, "rating": 4.5, "num_reviews": 0, "website": "http://www.coryellmuseum.org", "contact_phone": "+1 254-865-5007", "contact_email": "coryellmuseumhc@yahoo.com", "status": 1, "source_type": 1, "numberReviews": "8"}, {"name": "Cristo de los Pescadores", "type": "attraction", "image": "https://dynamic-media-cdn.tripadvisor.com/media/photo-o/28/da/a5/e5/caption.jpg?w=1000&s=1", "address": "Bait Shop Road, South Padre Island, TX 78597", "lat": 26.0783, "lng": -97.1655, "ref_id": 17625362, "rating": 4.5, "num_reviews": 0, "website": null, "contact_phone": null, "contact_email": null, "status": 1, "source_type": 1, "numberReviews": "14"}, {"name": "Marfa Activity Center", "type": "attraction", "image": null, "address": "105 North Mesa, Marfa, TX 79843", "lat": 30.31278, "lng": -104.03008, "ref_id": 12567967, "rating": 1.5, "num_reviews": 0, "website": "http://eventful.com/marfa/venues/marfa-activity-center-/V0-001-006862446-5", "contact_phone": null, "contact_email": null, "status": 1, "source_type": 1, "numberReviews": "4"}, {"name": "Messina Hof Hill Country Winery", "type": "attraction", "image": "https://dynamic-media-cdn.tripadvisor.com/media/photo-o/06/cb/df/10/love-this-winery-in-fredricksb.jpg?w=1000&s=1", "address": "9996 Hwy 290 East, Fredericksburg, TX", "lat": 30.224049, "lng": -98.73222, "ref_id": 3211433, "rating": 4, "num_reviews": 0, "website": "http://www.messinahof.com", "contact_phone": "+1 830-990-4653", "contact_email": "contactus@messinahof.com", "status": 1, "source_type": 1, "numberReviews": "196"}, {"name": "Famous Mineral Water Company", "type": "attraction", "image": "https://dynamic-media-cdn.tripadvisor.com/media/photo-o/08/9a/56/67/famous-mineral-water.jpg?w=1000&s=1", "address": "209 NW 6th St, Mineral Wells, TX 76067-4344", "lat": 32.813553, "lng": -98.11426, "ref_id": 1997685, "rating": 4.5, "num_reviews": 0, "website": "http://www.drinkcrazywater.com", "contact_phone": "+1 940-325-8870", "contact_email": "info@famouswater.com", "status": 1, "source_type": 1, "numberReviews": "108"}, {"name": "Texas Vineyards & Beyond", "type": "attraction", "image": "https://dynamic-media-cdn.tripadvisor.com/media/photo-o/13/cf/e2/27/quaint-shop-with-gifts.jpg?w=1000&s=1", "address": "329 E Main St, Fredericksburg, TX 78624-4611", "lat": 30.27175, "lng": -98.86788, "ref_id": 7007357, "rating": 4.5, "num_reviews": 0, "website": "http://www.texasvineyardsbeyond.com/", "contact_phone": "+1 830-990-9199", "contact_email": null, "status": 1, "source_type": 1, "numberReviews": "16"}, {"name": "El Paso Scottish Rite Temple and Museum", "type": "attraction", "image": "https://dynamic-media-cdn.tripadvisor.com/media/photo-o/06/76/27/df/el-paso-scottish-rite.jpg?w=1000&s=1", "address": "301 W Missouri Ave, El Paso, TX 79901-1131", "lat": 31.76009, "lng": -106.4928, "ref_id": 7029240, "rating": 4.5, "num_reviews": 0, "website": "http://www.elpasoscottishrite.org", "contact_phone": "+1 915-533-4409", "contact_email": "nicole@elpasoscottishrite.org", "status": 1, "source_type": 1, "numberReviews": "10"}, {"name": "Silver Street Studios", "type": "attraction", "image": "https://dynamic-media-cdn.tripadvisor.com/media/photo-o/0a/fe/c9/c7/silver-street-studios.jpg?w=1000&s=1", "address": "2000 Edwards St, Houston, TX 77007-4442", "lat": 29.77129, "lng": -95.37887, "ref_id": 7695230, "rating": 4.5, "num_reviews": 0, "website": "http://silverstreethouston.com", "contact_phone": null, "contact_email": null, "status": 1, "source_type": 1, "numberReviews": "13"}, {"name": "Reid Cabaret Theatre", "type": "attraction", "image": null, "address": "3101 W Lancaster Ave, Fort Worth, TX 76107-3042", "lat": 32.7463, "lng": -97.36256, "ref_id": 15517022, "rating": 5, "num_reviews": 0, "website": "http://www.casamanana.org/reid-cabaret-theatre/", "contact_phone": "+1 817-332-2272", "contact_email": null, "status": 1, "source_type": 1, "numberReviews": "1"}, {"name": "Ja-Lu Community Park", "type": "attraction", "image": "https://dynamic-media-cdn.tripadvisor.com/media/photo-o/10/0e/50/80/photo3jpg.jpg?w=1000&s=1", "address": "4807 Stonewall, Greenville, TX 75402", "lat": 33.12305, "lng": -96.10738, "ref_id": 12659465, "rating": 4.5, "num_reviews": 0, "website": "http://www.ci.greenville.tx.us/256/Ja-Lu-Community-Park", "contact_phone": null, "contact_email": null, "status": 1, "source_type": 1, "numberReviews": "2"}, {"name": "Inwood Theater and Lounge", "type": "attraction", "image": "https://dynamic-media-cdn.tripadvisor.com/media/photo-o/03/c8/48/e1/outside.jpg?w=1000&s=1", "address": "5458 W Lovers Ln, Dallas, TX 75209-4218", "lat": 32.85109, "lng": -96.81939, "ref_id": 2639401, "rating": 4, "num_reviews": 0, "website": "http://www.landmarktheatres.com/Market/Dallas/Dallas_Frameset.htm", "contact_phone": "+1 214-352-5085", "contact_email": "", "status": 1, "source_type": 1, "numberReviews": "38"}, {"name": "Palmetto Park", "type": "attraction", "image": "https://dynamic-media-cdn.tripadvisor.com/media/photo-o/0f/19/81/e7/palmetto-park.jpg?w=1000&s=1", "address": "5400 Ocean Dr, Corpus Christi, TX 78412-2748", "lat": 27.72524, "lng": -97.34589, "ref_id": 12361855, "rating": 3, "num_reviews": 0, "website": null, "contact_phone": null, "contact_email": null, "status": 1, "source_type": 1, "numberReviews": "2"}, {"name": "Tyler Museum of Art", "type": "attraction", "image": "https://dynamic-media-cdn.tripadvisor.com/media/photo-o/0c/46/c9/52/tyler-museum-of-art.jpg?w=1000&s=1", "address": "1300 S Mahon Ave, Tyler, TX 75701-3438", "lat": 32.33395, "lng": -95.2814, "ref_id": 8779894, "rating": 4, "num_reviews": 0, "website": "http://www.tylermuseum.org", "contact_phone": "+1 903-595-1001", "contact_email": "info@tylermuseum.org", "status": 1, "source_type": 1, "numberReviews": "26"}, {"name": "Comanche County Historical Museum", "type": "attraction", "image": "https://dynamic-media-cdn.tripadvisor.com/media/photo-o/0d/78/b5/19/old-horse-drawn-coach.jpg?w=1000&s=1", "address": "402 Moorman Road, Comanche, TX 76442", "lat": 31.89823, "lng": -98.6205, "ref_id": 11760204, "rating": 5, "num_reviews": 0, "website": "http://www.comanchecountytxmuseum.com", "contact_phone": "+1 325-356-5115", "contact_email": null, "status": 1, "source_type": 1, "numberReviews": "9"}, {"name": "El Paso Community College", "type": "attraction", "image": "https://dynamic-media-cdn.tripadvisor.com/media/photo-o/11/70/94/bf/campus-entrance.jpg?w=1000&s=1", "address": "El Paso, TX", "lat": null, "lng": null, "ref_id": 145507, "rating": 3.5, "num_reviews": 0, "website": null, "contact_phone": null, "contact_email": null, "status": 1, "source_type": 1, "numberReviews": "16"}, {"name": "Justice Label Distillery Home of Bronze Star Texas Whiskey", "type": "attraction", "image": "https://dynamic-media-cdn.tripadvisor.com/media/photo-o/12/06/c5/75/getlstd-property-photo.jpg?w=1000&s=1", "address": "523 E Sinton St, Sinton, TX 78387-2856", "lat": 28.03699, "lng": -97.50473, "ref_id": 13510394, "rating": 5, "num_reviews": 0, "website": "https://www.justicelabeldistillery.com", "contact_phone": "+1 361-779-5449", "contact_email": "jjusticelabel176@gmail.com", "status": 1, "source_type": 1, "numberReviews": "4"}, {"name": "Barking Rocks Winery", "type": "attraction", "image": "https://dynamic-media-cdn.tripadvisor.com/media/photo-o/0a/53/50/dd/20160214-155045-largejpg.jpg?w=1000&s=1", "address": "1919 Allen Ct, Granbury, TX 76048-4204", "lat": 32.47002, "lng": -97.80845, "ref_id": 2170935, "rating": 4.5, "num_reviews": 0, "website": "http://www.barkingrockswine.com", "contact_phone": "+1 817-579-0007", "contact_email": "", "status": 1, "source_type": 1, "numberReviews": "44"}, {"name": "Houston Museum of African American Culture", "type": "attraction", "image": "https://dynamic-media-cdn.tripadvisor.com/media/photo-o/27/a8/4d/1c/a-view-of-the-main-entrance.jpg?w=1000&s=1", "address": "4807 Caroline St, Houston, TX 77004-5607", "lat": 29.72966, "lng": -95.38238, "ref_id": 7909843, "rating": 4.5, "num_reviews": 0, "website": "http://hmaac.org/", "contact_phone": "+1 713-526-1015", "contact_email": "info@hmaac.org", "status": 1, "source_type": 1, "numberReviews": "14"}, {"name": "Blue Star Contemporary", "type": "attraction", "image": "https://dynamic-media-cdn.tripadvisor.com/media/photo-o/18/10/e4/44/a-visitor-spends-time.jpg?w=1000&s=1", "address": "116 Blue Star Building C, San Antonio, TX 78204-1713", "lat": 29.409313, "lng": -98.49599, "ref_id": 140711, "rating": 4, "num_reviews": 0, "website": "http://www.bluestarcontemporary.org", "contact_phone": "+1 210-227-6960", "contact_email": "bsc@bluestarcontemporary.org", "status": 1, "source_type": 1, "numberReviews": "17"}, {"name": "Digital wall", "type": "attraction", "image": "https://dynamic-media-cdn.tripadvisor.com/media/photo-o/10/07/7c/3a/entrance-to-wall.jpg?w=1000&s=1", "address": "501 N Santa Fe St, El Paso, TX 79901-1144", "lat": 31.759466, "lng": -106.49161, "ref_id": 10185610, "rating": 4.5, "num_reviews": 0, "website": "http://www.digie.org", "contact_phone": "+1 915-212-0320", "contact_email": null, "status": 1, "source_type": 1, "numberReviews": "7"}, {"name": "Black Gap WMA", "type": "attraction", "image": "https://dynamic-media-cdn.tripadvisor.com/media/photo-o/03/8a/07/40/black-gap-wma.jpg?w=1000&s=1", "address": "Fm 2627, Alpine, TX", "lat": null, "lng": null, "ref_id": 3849332, "rating": 4, "num_reviews": 0, "website": "http://www.tpwd.state.tx.us/huntwild/hunt/wma/find_a_wma/list/?id=2", "contact_phone": "+1 432-837-3251", "contact_email": null, "status": 1, "source_type": 1, "numberReviews": "4"}, {"name": "Aurora Cemetery", "type": "attraction", "image": "https://dynamic-media-cdn.tripadvisor.com/media/photo-o/0d/bc/e3/61/this-family-must-have.jpg?w=1000&s=1", "address": "Cemetery Road, Aurora, TX", "lat": 33.11631, "lng": -97.52018, "ref_id": 3750472, "rating": 4, "num_reviews": 0, "website": null, "contact_phone": null, "contact_email": null, "status": 1, "source_type": 1, "numberReviews": "10"}, {"name": "Kiwanis Park", "type": "attraction", "image": "https://dynamic-media-cdn.tripadvisor.com/media/photo-o/13/b4/6c/02/gazebo-at-kiwanis-park.jpg?w=1000&s=1", "address": "1117 S Timberland Dr, Lufkin, TX 75901-4773", "lat": 31.325586, "lng": -94.72556, "ref_id": 14862234, "rating": 5, "num_reviews": 0, "website": "http://cityoflufkin.com/parks/parkpages/kiwanispark.htm", "contact_phone": null, "contact_email": null, "status": 1, "source_type": 1, "numberReviews": "4"}, {"name": "The Williams House Museum", "type": "attraction", "image": "https://dynamic-media-cdn.tripadvisor.com/media/photo-o/1a/f2/3e/17/display-of-dan-hoss-cartwright.jpg?w=1000&s=1", "address": "303 E Front St, De Kalb, TX 75559-1422", "lat": 33.50797, "lng": -94.61392, "ref_id": 11864407, "rating": 5, "num_reviews": 0, "website": "http://www.facebook.com/The-Williams-House-Museum-186510698071291/", "contact_phone": "+1 903-667-7304", "contact_email": "thewilliamshousemuseum@yahoo.com", "status": 1, "source_type": 1, "numberReviews": "7"}, {"name": "Blue Hills Antiques Mall", "type": "attraction", "image": null, "address": "6832 N Hwy 123, Geronimo, TX 78115", "lat": 29.6623, "lng": -97.96737, "ref_id": 2186550, "rating": 3, "num_reviews": 0, "website": null, "contact_phone": "+1 830-379-2059", "contact_email": "info@bluehillsantiques.com", "status": 1, "source_type": 1, "numberReviews": "9"}, {"name": "Swiss Avenue Historic District", "type": "attraction", "image": "https://dynamic-media-cdn.tripadvisor.com/media/photo-o/09/2c/b3/de/swiss-avenue-historic.jpg?w=1000&s=1", "address": "along Swiss Ave. between La Vista Dr. and Fitzhugh Ave Northeast of downtown, Dallas, TX 75204", "lat": 32.8127, "lng": -96.75638, "ref_id": 534349, "rating": 4, "num_reviews": 0, "website": "http://www.sahd.org/history/", "contact_phone": "+1 214-821-3290", "contact_email": "djones@preservationdallas.org", "status": 1, "source_type": 1, "numberReviews": "50"}, {"name": "Military Museum of Fort Worth", "type": "attraction", "image": "https://dynamic-media-cdn.tripadvisor.com/media/photo-o/25/33/3f/fc/gas-masks.jpg?w=1000&s=1", "address": "1726 Green Oaks Rd Ridgemar Mall - enter across from Farmers Market, near Dillards, Fort Worth, TX 76116-1701", "lat": 32.74278, "lng": -97.43406, "ref_id": 14134456, "rating": 5, "num_reviews": 0, "website": "http://militarymuseumfortworth.org/", "contact_phone": "+1 817-945-2680", "contact_email": null, "status": 1, "source_type": 1, "numberReviews": "7"}, {"name": "Travis Park Plaza", "type": "attraction", "image": "https://dynamic-media-cdn.tripadvisor.com/media/photo-o/0b/4e/20/85/art-displayed-at-the.jpg?w=1000&s=1", "address": "711 Navarro St, San Antonio, TX 78205-1711", "lat": 29.4281, "lng": -98.49013, "ref_id": 10289935, "rating": 4, "num_reviews": 0, "website": "http://travisparksa.com/", "contact_phone": "+1 210-212-8423", "contact_email": null, "status": 1, "source_type": 1, "numberReviews": "14"}, {"name": "Museo Nacional de la Guerra Del Pacifico", "type": "attraction", "image": "https://dynamic-media-cdn.tripadvisor.com/media/photo-o/0f/4e/1a/8b/museo-nacional-de-la.jpg?w=1000&s=1", "address": "340 E Main St, Fredericksburg, TX 78624-4612", "lat": 30.27247, "lng": -98.86692, "ref_id": 9806739, "rating": 5, "num_reviews": 0, "website": "http://www.pacificwarmuseum.org", "contact_phone": "+1 830-997-4379", "contact_email": null, "status": 1, "source_type": 1, "numberReviews": "5"}, {"name": "Cathedral Rock Park", "type": "attraction", "image": "https://dynamic-media-cdn.tripadvisor.com/media/photo-o/16/6d/e1/91/great-park-with-trails.jpg?w=1000&s=1", "address": "8002 Grissom Road, San Antonio, TX", "lat": 29.47605, "lng": -98.6467, "ref_id": 11930021, "rating": 4.5, "num_reviews": 0, "website": "http://www.sanantonio.gov/ParksAndRec/Parks-Facilities/All-Parks-Facilities/Parks-Facilities-Details/ArtMID/14820/ArticleID/2443/Cathedral-Rock-Nature-Park-/Park/34", "contact_phone": null, "contact_email": null, "status": 1, "source_type": 1, "numberReviews": "3"}, {"name": "Smith Spring", "type": "attraction", "image": "https://dynamic-media-cdn.tripadvisor.com/media/photo-o/0f/14/77/12/lovely-red-flowers-along.jpg?w=1000&s=1", "address": "Guadalupe Mountains National Park, TX", "lat": 31.90762, "lng": -104.80131, "ref_id": 145058, "rating": 4.5, "num_reviews": 0, "website": "http://www.nps.gov/gumo/planyourvisit/upload/smith-trail-guide_low_rez.pdf", "contact_phone": "+1 915-828-3251", "contact_email": null, "status": 1, "source_type": 1, "numberReviews": "58"}, {"name": "Our Lady of Loreto Chapel", "type": "attraction", "image": "https://dynamic-media-cdn.tripadvisor.com/media/photo-o/04/ca/f9/b9/our-lady-of-loreto-chapel.jpg?w=1000&s=1", "address": "Goliad, TX", "lat": null, "lng": null, "ref_id": 124513, "rating": 4.5, "num_reviews": 0, "website": "https://presidiolabahia.org/history-of-chapel", "contact_phone": "+1 361-645-3752", "contact_email": null, "status": 1, "source_type": 1, "numberReviews": "34"}, {"name": "Fort Worth Police and Firefighter Memorial", "type": "attraction", "image": "https://dynamic-media-cdn.tripadvisor.com/media/photo-o/1a/f7/54/e1/easy-to-visit-memorial.jpg?w=1000&s=1", "address": "2301 W 7th St, Fort Worth, TX 76107", "lat": null, "lng": null, "ref_id": 20171226, "rating": 5, "num_reviews": 0, "website": "https://www.facebook.com/pages/category/Park/Fort-Worth-Police-and-Firefighters-Memorial-152846998093275/", "contact_phone": "+1 817-870-2171", "contact_email": "ksfoster1852@att.net", "status": 1, "source_type": 1, "numberReviews": "1"}, {"name": "Rio Grande Village Nature Trail", "type": "attraction", "image": "https://dynamic-media-cdn.tripadvisor.com/media/photo-o/17/18/37/70/zicht-op-de-campground.jpg?w=1000&s=1", "address": "Big Bend National Park, TX", "lat": 29.177378, "lng": -102.95223, "ref_id": 145841, "rating": 4.5, "num_reviews": 0, "website": "", "contact_phone": "", "contact_email": "", "status": 1, "source_type": 1, "numberReviews": "79"},