[{"name": "Yakiniku Taizan Sendai Ekimae", "type": "restaurant", "image": null, "address": "4-9-6 Chuo, Aoba-Ku, Sendai 980-0021 Qu\u00e2\u0323n Miyagi", "lat": 38.257275, "lng": 140.88048, "ref_id": 9615895, "rating": -1, "num_reviews": 0, "website": null, "contact_phone": "+81 22-263-1229", "contact_email": null, "status": 1, "source_type": 1, "numberReviews": 0}, {"name": "Tana Gokoro", "type": "restaurant", "image": null, "address": "13-19 Ojimamachi, Shiogama 985-0021 Qu\u00e2\u0323n Miyagi", "lat": 38.315346, "lng": 141.02473, "ref_id": 9644663, "rating": -1, "num_reviews": 0, "website": null, "contact_phone": "+81 22-367-8132", "contact_email": null, "status": 1, "source_type": 1, "numberReviews": 0}, {"name": "Shabu Shabu Sendin Sendai Kokubuncho", "type": "restaurant", "image": null, "address": "2-10-10, Kokubuncho, Aoba-ku 2nd floor, Katsutoku Building, Sendai 980-0803 Qu\u00e2\u0323n Miyagi", "lat": 38.263664, "lng": 140.86995, "ref_id": 20935899, "rating": -1, "num_reviews": 0, "website": "https://shabu-sen.dwnj.co.jp/", "contact_phone": "+81 22-227-5877", "contact_email": null, "status": 1, "source_type": 1, "numberReviews": 0}, {"name": "Creative Cuisine Imo", "type": "restaurant", "image": null, "address": "2-14-25 Aoba-Ku Kokubuncho, Sendai 980-0803 Qu\u00e2\u0323n Miyagi", "lat": 38.265408, "lng": 140.8687, "ref_id": 13034962, "rating": -1, "num_reviews": 0, "website": null, "contact_phone": "+81 22-265-7050", "contact_email": null, "status": 1, "source_type": 1, "numberReviews": 0}, {"name": "Bacchus", "type": "restaurant", "image": null, "address": "4-4-8 Ichibancho, Aoba-ku, Sendai 980-0811 Qu\u00e2\u0323n Miyagi", "lat": 38.26376, "lng": 140.87042, "ref_id": 13813577, "rating": -1, "num_reviews": 0, "website": null, "contact_phone": "+81 22-261-6795", "contact_email": null, "status": 1, "source_type": 1, "numberReviews": 0}, {"name": "Kakure Shuka Musoya", "type": "restaurant", "image": null, "address": "2-1-11 Aobaku Kokubuncho Social Building 2F, Sendai 980-0803 Qu\u00e2\u0323n Miyagi", "lat": 38.262863, "lng": 140.87015, "ref_id": 17359013, "rating": -1, "num_reviews": 0, "website": null, "contact_phone": "+81 22-721-4150", "contact_email": null, "status": 1, "source_type": 1, "numberReviews": 0}, {"name": "Signature D", "type": "restaurant", "image": null, "address": "Aoba-Ku Omachi 2-6-17 Hal Bldg. 3F, Sendai 980-0804 Qu\u00e2\u0323n Miyagi", "lat": 38.260536, "lng": 140.86797, "ref_id": 9663477, "rating": -1, "num_reviews": 0, "website": null, "contact_phone": "+81 22-796-8793", "contact_email": null, "status": 1, "source_type": 1, "numberReviews": 0}, {"name": "Kiccho", "type": "restaurant", "image": null, "address": "3-1-52 Aoba-Ku Komatsushima, Sendai 981-0905 Qu\u00e2\u0323n Miyagi", "lat": 38.281113, "lng": 140.88785, "ref_id": 9694184, "rating": -1, "num_reviews": 0, "website": null, "contact_phone": "+81 22-728-5269", "contact_email": null, "status": 1, "source_type": 1, "numberReviews": 0}, {"name": "Naritaya Sano Ramen", "type": "restaurant", "image": null, "address": "2-1-16 Oritate, Aobaku, Sendai 982-0261 Qu\u00e2\u0323n Miyagi", "lat": 38.266937, "lng": 140.80792, "ref_id": 14856292, "rating": -1, "num_reviews": 0, "website": null, "contact_phone": "+81 22-302-2077", "contact_email": null, "status": 1, "source_type": 1, "numberReviews": 0}, {"name": "Sable", "type": "restaurant", "image": null, "address": "1-1-1 Shoyodai, Shiogama 985-0071 Qu\u00e2\u0323n Miyagi", "lat": 38.32942, "lng": 141.02866, "ref_id": 13035763, "rating": -1, "num_reviews": 0, "website": null, "contact_phone": "+81 22-364-9835", "contact_email": null, "status": 1, "source_type": 1, "numberReviews": 0}, {"name": "Rashinban", "type": "restaurant", "image": null, "address": "2-9-35 Kokubuncho, Aoba-Ku, Sendai 980-0803 Qu\u00e2\u0323n Miyagi", "lat": 38.26485, "lng": 140.86884, "ref_id": 9674263, "rating": -1, "num_reviews": 0, "website": null, "contact_phone": "+81 22-221-0489", "contact_email": null, "status": 1, "source_type": 1, "numberReviews": 0}, {"name": "M's Bar", "type": "restaurant", "image": null, "address": "Aoba-Ku Kokubuncho 2-2-22, Sendai 980-0803 Qu\u00e2\u0323n Miyagi", "lat": 38.26257, "lng": 140.86903, "ref_id": 9651311, "rating": -1, "num_reviews": 0, "website": null, "contact_phone": "+81 22-267-5377", "contact_email": null, "status": 1, "source_type": 1, "numberReviews": 0}, {"name": "Rozaru No Monkichi", "type": "restaurant", "image": null, "address": "1-14-32 Honcho Aobaku, Sendai 980-0014 Qu\u00e2\u0323n Miyagi", "lat": 38.26703, "lng": 140.8779, "ref_id": 19264892, "rating": -1, "num_reviews": 0, "website": null, "contact_phone": "+81 22-393-6885", "contact_email": null, "status": 1, "source_type": 1, "numberReviews": 0}, {"name": "Domino's Pizza Miyamachi 4CFhome", "type": "restaurant", "image": null, "address": "4-5-59 Miyamachi Aoba-ku, Sendai 980-0004 Qu\u00e2\u0323n Miyagi", "lat": 38.27451, "lng": 140.88214, "ref_id": 20357158, "rating": -1, "num_reviews": 0, "website": "https://www.dominos.jp/en/store/87231", "contact_phone": "+81 22-722-8782", "contact_email": "customer@dominos.jp", "status": 1, "source_type": 1, "numberReviews": 0}, {"name": "Menran Gashin", "type": "restaurant", "image": null, "address": "18-3 Hitokitanishi MoniwaTaihakuku, Sendai 982-0251 Qu\u00e2\u0323n Miyagi", "lat": 38.216488, "lng": 140.80008, "ref_id": 18544769, "rating": -1, "num_reviews": 0, "website": null, "contact_phone": null, "contact_email": null, "status": 1, "source_type": 1, "numberReviews": 0}, {"name": "Karaoke PacPac", "type": "restaurant", "image": null, "address": "6-7-35 Ayashi Higashi, Sendai 989-3127 Qu\u00e2\u0323n Miyagi", "lat": 38.27149, "lng": 140.76564, "ref_id": 14741978, "rating": -1, "num_reviews": 0, "website": null, "contact_phone": "+81 22-392-7453", "contact_email": null, "status": 1, "source_type": 1, "numberReviews": 0}, {"name": "Sushi Dokoro Iroha Zushi", "type": "restaurant", "image": "https://dynamic-media-cdn.tripadvisor.com/media/photo-o/05/d5/c6/a1/sushi-dokoro-iroha-zushi.jpg?w=1000&s=1", "address": "2-9-15 Ochiai Aoba-Ku, Sendai 989-3126 Qu\u00e2\u0323n Miyagi", "lat": 38.273663, "lng": 140.79236, "ref_id": 6059582, "rating": -1, "num_reviews": 0, "website": null, "contact_phone": "+81 22-392-2611", "contact_email": null, "status": 1, "source_type": 1, "numberReviews": 0}, {"name": "Kashiwa Sushi Akiu", "type": "restaurant", "image": null, "address": "32-1 Yumoto Yakushi Akiumachi Taihaku-Ku, Sendai Qu\u00e2\u0323n Miyagi", "lat": 38.228374, "lng": 140.71896, "ref_id": 7455003, "rating": -1, "num_reviews": 0, "website": null, "contact_phone": "+81 22-398-2873", "contact_email": null, "status": 1, "source_type": 1, "numberReviews": 0}, {"name": "Furuhon Cafe & Pub Suke Roku", "type": "restaurant", "image": null, "address": "3-65 Idomaki Aeon Keno 1F, Sendai 980-0014 Qu\u00e2\u0323n Miyagi", "lat": null, "lng": null, "ref_id": 9694055, "rating": -1, "num_reviews": 0, "website": null, "contact_phone": "+81 22-224-2483", "contact_email": null, "status": 1, "source_type": 1, "numberReviews": 0}, {"name": "Minowa", "type": "restaurant", "image": "https://dynamic-media-cdn.tripadvisor.com/media/photo-o/05/d4/d8/18/japanese-restaurant-minowa.jpg?w=1000&s=1", "address": "1554-2 Ikeda, Daigo-machi, Kuji-gun 319-3551 Ibaraki Prefecture", "lat": 36.782368, "lng": 140.35825, "ref_id": 6050816, "rating": 3.5, "num_reviews": 0, "website": null, "contact_phone": "+81 295-72-4435", "contact_email": null, "status": 1, "source_type": 1, "numberReviews": 2}, {"name": "Sobadokoro Masukoan", "type": "restaurant", "image": "https://dynamic-media-cdn.tripadvisor.com/media/photo-o/0f/48/21/da/caption.jpg?w=1000&s=1", "address": "2878-6 Konamase, Daigo-machi, Kuji-gun Ibaraki Prefecture", "lat": 36.76422, "lng": 140.41518, "ref_id": 7498375, "rating": 4, "num_reviews": 0, "website": null, "contact_phone": "+81 295-76-1028", "contact_email": null, "status": 1, "source_type": 1, "numberReviews": 1}, {"name": "Kappo Sengoku", "type": "restaurant", "image": "https://dynamic-media-cdn.tripadvisor.com/media/photo-o/0d/a8/ce/4c/caption.jpg?w=1000&s=1", "address": "631 Oaza Daigo, Daigo-machi, Kuji-gun Ibaraki Prefecture", "lat": 36.770763, "lng": 140.35641, "ref_id": 7498395, "rating": 4, "num_reviews": 0, "website": "http://www.kapposengoku.jp", "contact_phone": "+81 295-72-0200", "contact_email": null, "status": 1, "source_type": 1, "numberReviews": 1}, {"name": "Takakura", "type": "restaurant", "image": "https://dynamic-media-cdn.tripadvisor.com/media/photo-o/0d/03/62/55/caption.jpg?w=1000&s=1", "address": "706-1 Daigo, Daigo-machi, Kuji-gun Ibaraki Prefecture", "lat": 36.77103, "lng": 140.35373, "ref_id": 7498419, "rating": 4, "num_reviews": 0, "website": null, "contact_phone": "+81 295-72-0725", "contact_email": null, "status": 1, "source_type": 1, "numberReviews": 1}, {"name": "Drive-In Nakajima", "type": "restaurant", "image": "https://dynamic-media-cdn.tripadvisor.com/media/photo-o/05/d5/6f/4a/drive-in-nakajima.jpg?w=1000&s=1", "address": "279-1 Fukuroda Daigo-Machi, Daigo-machi, Kuji-gun 319-3523 Ibaraki Prefecture", "lat": 36.7628, "lng": 140.39833, "ref_id": 6059092, "rating": 4, "num_reviews": 0, "website": null, "contact_phone": "+81 295-72-3017", "contact_email": null, "status": 1, "source_type": 1, "numberReviews": 1}, {"name": "Ramen-Ya Yochan", "type": "restaurant", "image": null, "address": "734-1 Konakacho, Hitachiota Ibaraki Prefecture", "lat": 36.74359, "lng": 140.48883, "ref_id": 7569895, "rating": 3, "num_reviews": 0, "website": null, "contact_phone": "+81 294-82-3182", "contact_email": null, "status": 1, "source_type": 1, "numberReviews": 2}, {"name": "Bocage", "type": "restaurant", "image": null, "address": "1-4 Aza Miyatacho Oaza Hanawa, Hanawa-machi, Higashishirakawa-gun Fukushima Prefecture", "lat": 36.958336, "lng": 140.41258, "ref_id": 7497954, "rating": 3, "num_reviews": 0, "website": null, "contact_phone": "+81 247-43-4120", "contact_email": null, "status": 1, "source_type": 1, "numberReviews": 1}, {"name": "Kiraku Nikuten", "type": "restaurant", "image": "https://dynamic-media-cdn.tripadvisor.com/media/photo-o/0a/34/fe/29/caption.jpg?w=1000&s=1", "address": "810 Daigo, Daigo-machi, Kuji-gun Ibaraki Prefecture", "lat": 36.768543, "lng": 140.35565, "ref_id": 7498373, "rating": 3, "num_reviews": 0, "website": null, "contact_phone": "+81 295-72-1022", "contact_email": null, "status": 1, "source_type": 1, "numberReviews": 1}, {"name": "Shokuji Dokorotomikyu", "type": "restaurant", "image": null, "address": "2-18-1 Hanawa Omachi, Hanawa-machi, Higashishirakawa-gun Fukushima Prefecture", "lat": 36.958153, "lng": 140.40971, "ref_id": 7497956, "rating": 3, "num_reviews": 0, "website": null, "contact_phone": "+81 247-43-0327", "contact_email": null, "status": 1, "source_type": 1, "numberReviews": 1}, {"name": "Tsuruya", "type": "restaurant", "image": "https://dynamic-media-cdn.tripadvisor.com/media/photo-o/12/44/10/a9/caption.jpg?w=1000&s=1", "address": "120-14 Uchikawa Yamatsuri, Yamatsuri-machi, Higashishirakawa-gun Fukushima Prefecture", "lat": 36.85072, "lng": 140.39606, "ref_id": 7497926, "rating": 3, "num_reviews": 0, "website": null, "contact_phone": "+81 247-46-3081", "contact_email": null, "status": 1, "source_type": 1, "numberReviews": 1}, {"name": "Torihisa", "type": "restaurant", "image": null, "address": "15-5 Hagidaira Shimoyamamoto, Tanagura-machi, Higashishirakawa-gun Fukushima Prefecture", "lat": 36.996155, "lng": 140.3819, "ref_id": 7497922, "rating": 3, "num_reviews": 0, "website": null, "contact_phone": "+81 247-33-5980", "contact_email": null, "status": 1, "source_type": 1, "numberReviews": 1}, {"name": "Restaurant Kiki", "type": "restaurant", "image": "https://dynamic-media-cdn.tripadvisor.com/media/photo-o/05/d5/47/d8/restaurant-kiki.jpg?w=1000&s=1", "address": "Tanosawa Daigo-Machi, Daigo-machi, Kuji-gun 319-3536 Ibaraki Prefecture", "lat": 36.793377, "lng": 140.27943, "ref_id": 6072227, "rating": 3, "num_reviews": 0, "website": null, "contact_phone": "+81 295-72-8612", "contact_email": null, "status": 1, "source_type": 1, "numberReviews": 1}, {"name": "Teuchi Ishiusu Soba Fujita", "type": "restaurant", "image": null, "address": "628 Oaza Fukuroda, Daigo-machi, Kuji-gun Ibaraki Prefecture", "lat": 36.759205, "lng": 140.39401, "ref_id": 7498409, "rating": 3, "num_reviews": 0, "website": null, "contact_phone": "+81 295-72-3391", "contact_email": null, "status": 1, "source_type": 1, "numberReviews": 1}, {"name": "Uchitate Soba Dokoro Machitsuki", "type": "restaurant", "image": null, "address": "2549 Kamigo, Daigo-machi, Kuji-gun 319-3703 Ibaraki Prefecture", "lat": 36.83874, "lng": 140.35132, "ref_id": 10012573, "rating": 3, "num_reviews": 0, "website": null, "contact_phone": "+81 295-77-0124", "contact_email": null, "status": 1, "source_type": 1, "numberReviews": 1}, {"name": "Yubata Soba Semmonten", "type": "restaurant", "image": "https://dynamic-media-cdn.tripadvisor.com/media/photo-o/09/53/27/81/yubata-soba-semmonten.jpg?w=1000&s=1", "address": "631 Fukuroda, Daigo-machi, Kuji-gun Ibaraki Prefecture", "lat": 36.75957, "lng": 140.39383, "ref_id": 7498413, "rating": 3, "num_reviews": 0, "website": null, "contact_phone": "+81 295-72-3483", "contact_email": null, "status": 1, "source_type": 1, "numberReviews": 1}, {"name": "Nakazawa", "type": "restaurant", "image": "https://dynamic-media-cdn.tripadvisor.com/media/photo-o/14/0e/e9/d8/caption.jpg?w=1000&s=1", "address": "110 Oaza Uchikawa Aza Nishihara, Yamatsuri-machi, Higashishirakawa-gun Fukushima Prefecture", "lat": 36.844505, "lng": 140.3858, "ref_id": 7497929, "rating": 3, "num_reviews": 0, "website": null, "contact_phone": "+81 247-46-4606", "contact_email": null, "status": 1, "source_type": 1, "numberReviews": 1}, {"name": "Tsukiori Onsen Takimi No Yu Tsukiori Shokudo", "type": "restaurant", "image": null, "address": "2879-4 Konamase Tsukiori Hot Spring Takimi No Yu, Daigo-machi, Kuji-gun 319-3512 Ibaraki Prefecture", "lat": 36.763412, "lng": 140.41406, "ref_id": 10013510, "rating": 3, "num_reviews": 0, "website": null, "contact_phone": "+81 295-76-0373", "contact_email": null, "status": 1, "source_type": 1, "numberReviews": 2}, {"name": "Tantan", "type": "restaurant", "image": null, "address": "578 Kitatage, Daigo-machi, Kuji-gun Ibaraki Prefecture", "lat": 36.76496, "lng": 140.3591, "ref_id": 7498382, "rating": -1, "num_reviews": 0, "website": null, "contact_phone": "+81 295-72-1724", "contact_email": null, "status": 1, "source_type": 1, "numberReviews": 0}, {"name": "Seiji Suzuki Pastry", "type": "restaurant", "image": null, "address": "607 Oaza Daigo, Daigo-machi, Kuji-gun 319-3526 Ibaraki Prefecture", "lat": 36.77426, "lng": 140.35535, "ref_id": 13029624, "rating": -1, "num_reviews": 0, "website": null, "contact_phone": "+81 295-72-0252", "contact_email": null, "status": 1, "source_type": 1, "numberReviews": 0}, {"name": "Coffee Furatto", "type": "restaurant", "image": "https://dynamic-media-cdn.tripadvisor.com/media/photo-o/05/d6/05/1f/coffee-furatto.jpg?w=1000&s=1", "address": "903-4 Machitsuki Daigo-Machi, Daigo-machi, Kuji-gun 319-3702 Ibaraki Prefecture", "lat": 36.83868, "lng": 140.35396, "ref_id": 6071633, "rating": -1, "num_reviews": 0, "website": null, "contact_phone": "+81 295-77-0039", "contact_email": null, "status": 1, "source_type": 1, "numberReviews": 0}, {"name": "Sakuzo Pastry", "type": "restaurant", "image": null, "address": "46-2 Oaza Higashitate Jiyakata This, Yamatsuri-machi, Higashishirakawa-gun 963-5118 Fukushima Prefecture", "lat": 36.87317, "lng": 140.42438, "ref_id": 13071412, "rating": -1, "num_reviews": 0, "website": null, "contact_phone": "+81 247-46-2053", "contact_email": null, "status": 1, "source_type": 1, "numberReviews": 0}, {"name": "Yamatsuri Restaurant", "type": "restaurant", "image": null, "address": "120 Uchikawa Nishihara, Yamatsuri-machi, Higashishirakawa-gun 963-5322 Fukushima Prefecture", "lat": 36.85059, "lng": 140.39642, "ref_id": 10013395, "rating": -1, "num_reviews": 0, "website": null, "contact_phone": "+81 247-46-2856", "contact_email": null, "status": 1, "source_type": 1, "numberReviews": 0}, {"name": "Florist Innocent Tei", "type": "restaurant", "image": null, "address": "8-2 Oaza Hanawa Magistrate Cho, Hanawa-machi, Higashishirakawa-gun 963-5405 Fukushima Prefecture", "lat": 36.953796, "lng": 140.41347, "ref_id": 13070763, "rating": -1, "num_reviews": 0, "website": null, "contact_phone": "+81 247-43-0008", "contact_email": null, "status": 1, "source_type": 1, "numberReviews": 0}, {"name": "Dosankotaisho Sapporo Ramen", "type": "restaurant", "image": null, "address": "109-1 Yatsuki Hosaku, Tanagura-machi, Higashishirakawa-gun Fukushima Prefecture", "lat": 36.979, "lng": 140.39291, "ref_id": 7497883, "rating": -1, "num_reviews": 0, "website": null, "contact_phone": "+81 247-33-6117", "contact_email": null, "status": 1, "source_type": 1, "numberReviews": 0}, {"name": "Tomma", "type": "restaurant", "image": null, "address": "60 Hanawa Sakaecho, Hanawa-machi, Higashishirakawa-gun 963-5405 Fukushima Prefecture", "lat": 36.957542, "lng": 140.41235, "ref_id": 10009436, "rating": -1, "num_reviews": 0, "website": null, "contact_phone": "+81 247-43-2351", "contact_email": null, "status": 1, "source_type": 1, "numberReviews": 0}, {"name": "Uokane", "type": "restaurant", "image": null, "address": "674-1 Daigo, Daigo-machi, Kuji-gun 319-3526 Ibaraki Prefecture", "lat": 36.771538, "lng": 140.35153, "ref_id": 10018864, "rating": -1, "num_reviews": 0, "website": null, "contact_phone": "+81 295-72-0146", "contact_email": null, "status": 1, "source_type": 1, "numberReviews": 0}, {"name": "Kogen Restaurant Yamaboshi", "type": "restaurant", "image": null, "address": "863-35 Satogawacho, Hitachiota 311-0501 Ibaraki Prefecture", "lat": 36.800266, "lng": 140.53989, "ref_id": 9677478, "rating": -1, "num_reviews": 0, "website": null, "contact_phone": "+81 294-82-4221", "contact_email": null, "status": 1, "source_type": 1, "numberReviews": 0}, {"name": "Waterfall of House", "type": "restaurant", "image": null, "address": "210 Oaza Watase Jimaenosawa, Samegawa-mura, Higashishirakawa-gun 963-8405 Fukushima Prefecture", "lat": 36.97518, "lng": 140.46843, "ref_id": 13268569, "rating": -1, "num_reviews": 0, "website": null, "contact_phone": "+81 247-48-2256", "contact_email": null, "status": 1, "source_type": 1, "numberReviews": 0}, {"name": "Seiko", "type": "restaurant", "image": null, "address": "95 Toyosaku Iko, Hanawa-machi, Higashishirakawa-gun Fukushima Prefecture", "lat": 36.92516, "lng": 140.40791, "ref_id": 7637754, "rating": -1, "num_reviews": 0, "website": null, "contact_phone": "+81 247-43-0943", "contact_email": null, "status": 1, "source_type": 1, "numberReviews": 0}, {"name": "Taisei Shokudo", "type": "restaurant", "image": null, "address": "721 Daigo, Daigo-machi, Kuji-gun Ibaraki Prefecture", "lat": 36.77103, "lng": 140.35167, "ref_id": 7498402, "rating": -1, "num_reviews": 0, "website": null, "contact_phone": "+81 295-72-0307", "contact_email": null, "status": 1, "source_type": 1, "numberReviews": 0}, {"name": "Ishigama Bakery Birthday Rifusugayadai Honten", "type": "restaurant", "image": "https://dynamic-media-cdn.tripadvisor.com/media/photo-o/09/1f/32/ef/caption.jpg?w=1000&s=1", "address": "3-3-1 Sugayadai Rifu-Cho, Rifu-cho, Miyagi-gun 981-0135 Qu\u00e2\u0323n Miyagi", "lat": 38.33087, "lng": 140.95122, "ref_id": 6062525, "rating": 4, "num_reviews": 0, "website": "http://ishigama-birthday.jp/", "contact_phone": "+81 22-395-8660", "contact_email": null, "status": 1, "source_type": 1, "numberReviews": 11}, {"name": "Mukago", "type": "restaurant", "image": "https://dynamic-media-cdn.tripadvisor.com/media/photo-o/1b/36/3c/86/caption.jpg?w=1000&s=1", "address": "3-11 Morishita Fukuoka, Izumi-ku, Sendai 981-3225 Qu\u00e2\u0323n Miyagi", "lat": 38.370495, "lng": 140.7684, "ref_id": 7455081, "rating": 4, "num_reviews": 0, "website": "https://www.yamabousi.com/area-info/%E5%BA%83%E5%B3%B6%E9%A2%A8%E3%81%8A%E5%A5%BD%E3%81%BF%E7%84%BC%E3%81%8D%E3%80%80%E3%82%80%E3%81%8B%E3%81%94/", "contact_phone": "+81 22-379-4984", "contact_email": null, "status": 1, "source_type": 1, "numberReviews": 11}, {"name": "Restaurante Chef2 Chomeigaoka", "type": "restaurant", "image": "https://dynamic-media-cdn.tripadvisor.com/media/photo-o/08/03/34/4f/caption.jpg?w=1000&s=1", "address": "3-26-16 Chomeigaoka Izumi-Ku, Sendai 981-3212 Qu\u00e2\u0323n Miyagi", "lat": 38.31105, "lng": 140.83128, "ref_id": 6062229, "rating": 4.5, "num_reviews": 0, "website": "http://www.restaurant-chef2.com/", "contact_phone": "+81 22-377-2470", "contact_email": null, "status": 1, "source_type": 1, "numberReviews": 11}, {"name": "Kotora Rifu", "type": "restaurant", "image": null, "address": "4-3 Kase Aza Shin Maeyachi, Rifu-cho, Miyagi-gun 981-0111 Qu\u00e2\u0323n Miyagi", "lat": 38.32959, "lng": 140.97588, "ref_id": 10011075, "rating": 4, "num_reviews": 0, "website": "http://team-toranomon.com/shop-rifu/", "contact_phone": "+81 22-290-3848", "contact_email": null, "status": 1, "source_type": 1, "numberReviews": 7}, {"name": "Tebuchi Udon Kippei", "type": "restaurant", "image": "https://dynamic-media-cdn.tripadvisor.com/media/photo-o/0e/77/82/65/caption.jpg?w=1000&s=1", "address": "3-46-15 Kawadaira Aoba-Ku, Sendai Qu\u00e2\u0323n Miyagi", "lat": 38.30608, "lng": 140.83394, "ref_id": 7454945, "rating": 4.5, "num_reviews": 0, "website": null, "contact_phone": "+81 22-719-4532", "contact_email": null, "status": 1, "source_type": 1, "numberReviews": 6}, {"name": "Restaurant Greenhouse", "type": "restaurant", "image": "https://dynamic-media-cdn.tripadvisor.com/media/photo-o/1b/28/3e/45/dsc-3970-largejpg.jpg?w=1000&s=1", "address": "1-1-36 Sambongi Shimmachi, Osaki 989-6306 Qu\u00e2\u0323n Miyagi", "lat": 38.51991, "lng": 140.93628, "ref_id": 6045812, "rating": 4, "num_reviews": 0, "website": "http://japanized-western-food-restaurant-271.business.site/", "contact_phone": "+81 229-52-2264", "contact_email": null, "status": 1, "source_type": 1, "numberReviews": 15}, {"name": "Gyujin Sendai Izumi", "type": "restaurant", "image": "https://dynamic-media-cdn.tripadvisor.com/media/photo-o/17/27/b2/65/caption.jpg?w=1000&s=1", "address": "3-9-1 Osawa, Izumi-ku, Sendai 981-3137 Qu\u00e2\u0323n Miyagi", "lat": 38.353218, "lng": 140.87874, "ref_id": 8522918, "rating": 4.5, "num_reviews": 0, "website": null, "contact_phone": "+81 22-374-1129", "contact_email": null, "status": 1, "source_type": 1, "numberReviews": 8}, {"name": "Sobadokoro Mannosuke", "type": "restaurant", "image": "https://dynamic-media-cdn.tripadvisor.com/media/photo-o/17/25/67/51/photo0jpg.jpg?w=1000&s=1", "address": "12 Tateyashiki Sanezawa Izumi-Ku, Sendai Qu\u00e2\u0323n Miyagi", "lat": 38.319733, "lng": 140.8094, "ref_id": 7454338, "rating": 3.5, "num_reviews": 0, "website": null, "contact_phone": "+81 22-379-8223", "contact_email": null, "status": 1, "source_type": 1, "numberReviews": 14}, {"name": "Kentucky Fried Chicken Sendai Izumi Chuo", "type": "restaurant", "image": "https://dynamic-media-cdn.tripadvisor.com/media/photo-o/19/6a/5c/a4/dsc-2437-largejpg.jpg?w=1000&s=1", "address": "4-10-1 Izumichuo Izumi-Ku, Sendai Qu\u00e2\u0323n Miyagi", "lat": 38.321945, "lng": 140.88513, "ref_id": 7454257, "rating": 4, "num_reviews": 0, "website": null, "contact_phone": "+81 22-371-1163", "contact_email": null, "status": 1, "source_type": 1, "numberReviews": 10}, {"name": "Chateraise Tomiya", "type": "restaurant", "image": "https://dynamic-media-cdn.tripadvisor.com/media/photo-o/11/8a/15/34/caption.jpg?w=1000&s=1", "address": "2-22-3 Oshimizu, Tomiya 981-3329 Qu\u00e2\u0323n Miyagi", "lat": 38.3653, "lng": 140.88287, "ref_id": 13034919, "rating": 4, "num_reviews": 0, "website": "", "contact_phone": "+81 22-341-3943", "contact_email": null, "status": 1, "source_type": 1, "numberReviews": 6}, {"name": "Ulu Matsushima", "type": "restaurant", "image": "https://dynamic-media-cdn.tripadvisor.com/media/photo-o/24/04/79/fb/caption.jpg?w=1000&s=1", "address": "10-15 Namiuchihama, Matsushima-machi, Miyagi-gun 981-0213 Qu\u00e2\u0323n Miyagi", "lat": 38.368465, "lng": 141.05954, "ref_id": 24120230, "rating": 3, "num_reviews": 0, "website": null, "contact_phone": "+81 22-355-5352", "contact_email": null, "status": 1, "source_type": 1, "numberReviews": 1}, {"name": "Fuku Sushi", "type": "restaurant", "image": null, "address": "29-12 Aza Maeyachi Oaza Kominato, Hiranai-machi, Higashi Tsugaru-gun Aomori Prefecture", "lat": 40.928833, "lng": 140.96315, "ref_id": 7494806, "rating": -1, "num_reviews": 0, "website": null, "contact_phone": "+81 17-755-3067", "contact_email": null, "status": 1, "source_type": 1, "numberReviews": 0}, {"name": "Bangaichi", "type": "restaurant", "image": null, "address": "108-5 Horikae Hamago, Hiranai-machi, Higashi Tsugaru-gun Aomori Prefecture", "lat": 40.922287, "lng": 140.99062, "ref_id": 7494794, "rating": -1, "num_reviews": 0, "website": null, "contact_phone": "+81 17-755-3488", "contact_email": null, "status": 1, "source_type": 1, "numberReviews": 0}, {"name": "Makoto Sushi", "type": "restaurant", "image": null, "address": "285-1 Noheji, Noheji-machi, Kamikita-gun Aomori Prefecture", "lat": 40.86471, "lng": 141.12622, "ref_id": 7494968, "rating": -1, "num_reviews": 0, "website": null, "contact_phone": "+81 175-64-5084", "contact_email": null, "status": 1, "source_type": 1, "numberReviews": 0}, {"name": "Aqua Marine", "type": "restaurant", "image": null, "address": "162-1 Noheji, Noheji-machi, Kamikita-gun 039-3131 Aomori Prefecture", "lat": 40.865456, "lng": 141.12907, "ref_id": 14857776, "rating": -1, "num_reviews": 0, "website": null, "contact_phone": "+81 175-73-7393", "contact_email": null, "status": 1, "source_type": 1, "numberReviews": 0}, {"name": "Yakitoritoritake", "type": "restaurant", "image": null, "address": "36-17 Aza Numadate Oaza Kominato, Hiranai-machi, Higashi Tsugaru-gun Aomori Prefecture", "lat": 40.929543, "lng": 140.96046, "ref_id": 7494798, "rating": -1, "num_reviews": 0, "website": null, "contact_phone": "+81 17-755-4444", "contact_email": null, "status": 1, "source_type": 1, "numberReviews": 0}, {"name": "Sushi Kin", "type": "restaurant", "image": null, "address": "40-2 Numadate Kominato, Hiranai-machi, Higashi Tsugaru-gun Aomori Prefecture", "lat": 40.929, "lng": 140.96063, "ref_id": 7640033, "rating": -1, "num_reviews": 0, "website": null, "contact_phone": "+81 17-755-5195", "contact_email": null, "status": 1, "source_type": 1, "numberReviews": 0}, {"name": "Botan Nabe Marutake", "type": "restaurant", "image": null, "address": "39-7 Aza Shinzan Oaza Matsunoki, Hiranai-machi, Higashi Tsugaru-gun Aomori Prefecture", "lat": 40.911068, "lng": 141.00175, "ref_id": 7494802, "rating": -1, "num_reviews": 0, "website": null, "contact_phone": "+81 17-757-2901", "contact_email": null, "status": 1, "source_type": 1, "numberReviews": 0}, {"name": "Yu", "type": "restaurant", "image": null, "address": "30-4 Oaza Kominato Aza Maeyachi, Hiranai-machi, Higashi Tsugaru-gun 039-3321 Aomori Prefecture", "lat": 40.92828, "lng": 140.96439, "ref_id": 10010394, "rating": -1, "num_reviews": 0, "website": null, "contact_phone": "+81 17-755-5408", "contact_email": null, "status": 1, "source_type": 1, "numberReviews": 0}, {"name": "Tsubasaya", "type": "restaurant", "image": null, "address": "3-3-8 Nanukamachi, Yamagata 990-0042 Yamagata Prefecture", "lat": 38.254044, "lng": 140.34164, "ref_id": 6062896, "rating": -1, "num_reviews": 0, "website": null, "contact_phone": "+81 23-633-7088", "contact_email": null, "status": 1, "source_type": 1, "numberReviews": 0}, {"name": "Sushi\u00a0 Sen", "type": "restaurant", "image": null, "address": "1-4-30 Kanaoi, Kaminoyama Yamagata Prefecture", "lat": 38.148827, "lng": 140.28496, "ref_id": 7505916, "rating": -1, "num_reviews": 0, "website": null, "contact_phone": "+81 23-672-0897", "contact_email": null, "status": 1, "source_type": 1, "numberReviews": 0}, {"name": "Kozeni Sushi Kaminoyama", "type": "restaurant", "image": "https://dynamic-media-cdn.tripadvisor.com/media/photo-o/05/d7/51/9b/kozeni-sushi-kaminoyama.jpg?w=1000&s=1", "address": "3-37 Minamimachi Yamazawa Kamiyama, Kaminoyama 999-3135 Yamagata Prefecture", "lat": 38.150185, "lng": 140.2741, "ref_id": 6063069, "rating": -1, "num_reviews": 0, "website": null, "contact_phone": "+81 23-673-1349", "contact_email": null, "status": 1, "source_type": 1, "numberReviews": 0}, {"name": "Izakaya Tsumugi", "type": "restaurant", "image": null, "address": "2890-5 Akayu, Nanyo Yamagata Prefecture", "lat": 38.045883, "lng": 140.17154, "ref_id": 7506401, "rating": -1, "num_reviews": 0, "website": null, "contact_phone": "+81 238-43-7005", "contact_email": null, "status": 1, "source_type": 1, "numberReviews": 0}, {"name": "Izakaya Shirase", "type": "restaurant", "image": "https://dynamic-media-cdn.tripadvisor.com/media/photo-o/05/d6/52/54/izakaya-shirase.jpg?w=1000&s=1", "address": "793-1 Akayu, Nanyo 999-2211 Yamagata Prefecture", "lat": 38.04907, "lng": 140.16632, "ref_id": 6070904, "rating": -1, "num_reviews": 0, "website": null, "contact_phone": "+81 238-43-2477", "contact_email": null, "status": 1, "source_type": 1, "numberReviews": 0}, {"name": "Yabu", "type": "restaurant", "image": null, "address": "1014 Akayu, Nanyo Yamagata Prefecture", "lat": 38.05024, "lng": 140.16791, "ref_id": 7506374, "rating": -1, "num_reviews": 0, "website": null, "contact_phone": "+81 238-43-2311", "contact_email": null, "status": 1, "source_type": 1, "numberReviews": 0}, {"name": "Mels", "type": "restaurant", "image": null, "address": "2-7-38 Nanukamachi, Yamagata Yamagata Prefecture", "lat": 38.25244, "lng": 140.34041, "ref_id": 7661179, "rating": -1, "num_reviews": 0, "website": null, "contact_phone": "+81 23-664-1176", "contact_email": null, "status": 1, "source_type": 1, "numberReviews": 0}, {"name": "Ikinari Steak Yamagata Akanegaoka", "type": "restaurant", "image": null, "address": "1-15-1 Akanegaoka, Yamagata 990-2481 Yamagata Prefecture", "lat": 38.249897, "lng": 140.30963, "ref_id": 15116913, "rating": -1, "num_reviews": 0, "website": "http://ikinaristeak.com/shopinfo/yamagata-akanegaoka/", "contact_phone": "+81 23-676-6629", "contact_email": null, "status": 1, "source_type": 1, "numberReviews": 0}, {"name": "Majikko", "type": "restaurant", "image": null, "address": "1-1-52 Suzukawacho, Yamagata Yamagata Prefecture", "lat": 38.26217, "lng": 140.35417, "ref_id": 7536423, "rating": -1, "num_reviews": 0, "website": null, "contact_phone": "+81 23-632-0437", "contact_email": null, "status": 1, "source_type": 1, "numberReviews": 0}, {"name": "Akatombo", "type": "restaurant", "image": null, "address": "718 Aratoko, Shirataka-machi, Nishiokitama-gun Yamagata Prefecture", "lat": 38.180943, "lng": 140.09982, "ref_id": 7497391, "rating": -1, "num_reviews": 0, "website": null, "contact_phone": "+81 238-85-0252", "contact_email": null, "status": 1, "source_type": 1, "numberReviews": 0}, {"name": "Shinonometei", "type": "restaurant", "image": null, "address": "2-9-19 Higashiharamachi, Yamagata Yamagata Prefecture", "lat": 38.243576, "lng": 140.34602, "ref_id": 7536633, "rating": -1, "num_reviews": 0, "website": null, "contact_phone": "+81 23-634-6711", "contact_email": null, "status": 1, "source_type": 1, "numberReviews": 0}, {"name": "Izakaya Oniji", "type": "restaurant", "image": null, "address": "4-7-1 Hinokicho, Yamagata 990-0813 Yamagata Prefecture", "lat": 38.276176, "lng": 140.32686, "ref_id": 6066787, "rating": -1, "num_reviews": 0, "website": null, "contact_phone": "+81 23-681-9335", "contact_email": null, "status": 1, "source_type": 1, "numberReviews": 0}, {"name": "Uotomo", "type": "restaurant", "image": null, "address": "4-8-7 Nanukamachi, Yamagata 990-0042 Yamagata Prefecture", "lat": 38.253605, "lng": 140.34247, "ref_id": 9679286, "rating": -1, "num_reviews": 0, "website": null, "contact_phone": "+81 23-622-4350", "contact_email": null, "status": 1, "source_type": 1, "numberReviews": 0}, {"name": "Gohandesuyo Funayama", "type": "restaurant", "image": null, "address": "1-6-6 Shironishimachi, Yamagata Yamagata Prefecture", "lat": 38.255863, "lng": 140.32391, "ref_id": 7536290, "rating": -1, "num_reviews": 0, "website": null, "contact_phone": "+81 23-644-1811", "contact_email": null, "status": 1, "source_type": 1, "numberReviews": 0}, {"name": "Marumatsu Wakabayashi", "type": "restaurant", "image": "https://dynamic-media-cdn.tripadvisor.com/media/photo-o/1b/0e/68/16/caption.jpg?w=1000&s=1", "address": "3-5-59 Wakabayashi Wakabayashi-Ku, Sendai Qu\u00e2\u0323n Miyagi", "lat": 38.25284, "lng": 140.88385, "ref_id": 7454537, "rating": 3, "num_reviews": 0, "website": null, "contact_phone": "+81 22-282-0122", "contact_email": null, "status": 1, "source_type": 1, "numberReviews": 3}, {"name": "Karaagetei", "type": "restaurant", "image": "https://dynamic-media-cdn.tripadvisor.com/media/photo-o/1a/3a/18/9a/caption.jpg?w=1000&s=1", "address": "5-6 Shimizukoji, Wakabayashi-ku Estate Itsutsubashi 1F, Sendai 984-0075 Qu\u00e2\u0323n Miyagi", "lat": 38.251686, "lng": 140.88145, "ref_id": 19620402, "rating": 3, "num_reviews": 0, "website": null, "contact_phone": "+81 22-398-5428", "contact_email": null, "status": 1, "source_type": 1, "numberReviews": 1}, {"name": "Gindako", "type": "restaurant", "image": null, "address": "2-1-25 Tsutsujigaoka Miyagino-ku, Sendai 983-0852 Qu\u00e2\u0323n Miyagi", "lat": 38.26107, "lng": 140.88368, "ref_id": 19887411, "rating": 3, "num_reviews": 0, "website": "https://stores.gindaco.com/1010424", "contact_phone": "+81 22-742-3922", "contact_email": null, "status": 1, "source_type": 1, "numberReviews": 1}, {"name": "Za Watami, Sendai Station West Exit Play Building", "type": "restaurant", "image": null, "address": "4-1-3 Chuo, Aoba-ku Play Bldg. 1F, Sendai 980-0021 Qu\u00e2\u0323n Miyagi", "lat": 38.2586, "lng": 140.88011, "ref_id": 13036119, "rating": 3, "num_reviews": 0, "website": "http://zawatami-sendaiekinishiguchiplaybuild.com/", "contact_phone": "+81 22-212-7631", "contact_email": null, "status": 1, "source_type": 1, "numberReviews": 1}, {"name": "Sen'nin'ya", "type": "restaurant", "image": "https://dynamic-media-cdn.tripadvisor.com/media/photo-o/13/78/b3/68/caption.jpg?w=1000&s=1", "address": "3-1-3 Kokubuncho, Aoba-Ku, Sendai 980-0803 Qu\u00e2\u0323n Miyagi", "lat": 38.266197, "lng": 140.86987, "ref_id": 13268205, "rating": 3, "num_reviews": 0, "website": null, "contact_phone": "+81 22-796-3480", "contact_email": null, "status": 1, "source_type": 1, "numberReviews": 1}, {"name": "Ramen Daishiken Rifu", "type": "restaurant", "image": "https://dynamic-media-cdn.tripadvisor.com/media/photo-o/28/96/9b/49/caption.jpg?w=1000&s=1", "address": "76 Shinoyachi, Rifu, Rifu-cho, Miyagi-gun Qu\u00e2\u0323n Miyagi", "lat": null, "lng": null, "ref_id": 23788747, "rating": 3.5, "num_reviews": 0, "website": "http://taishiken.jp/information/", "contact_phone": "+81 22-290-9932", "contact_email": null, "status": 1, "source_type": 1, "numberReviews": 6}, {"name": "Men Ya Maru", "type": "restaurant", "image": "https://dynamic-media-cdn.tripadvisor.com/media/photo-o/1c/9d/a2/dc/photo0jpg.jpg?w=1000&s=1", "address": "2-8-1 Heisei Third Mukai Yamabiru, Sendai 983-0037 Qu\u00e2\u0323n Miyagi", "lat": 38.271374, "lng": 140.91737, "ref_id": 14741828, "rating": 3, "num_reviews": 0, "website": null, "contact_phone": "+81 22-222-2810", "contact_email": null, "status": 1, "source_type": 1, "numberReviews": 1}, {"name": "Sagaemon", "type": "restaurant", "image": "https://dynamic-media-cdn.tripadvisor.com/media/photo-o/1a/9a/b2/84/caption.jpg?w=1000&s=1", "address": "11-17 Futsukamachi, Aoba-ku, Sendai 980-0802 Qu\u00e2\u0323n Miyagi", "lat": 38.27073, "lng": 140.86757, "ref_id": 18849518, "rating": 3, "num_reviews": 0, "website": "https://sagaemon.jp/#home", "contact_phone": "+81 22-724-7781", "contact_email": null, "status": 1, "source_type": 1, "numberReviews": 1}, {"name": "Hinotori Nankodai", "type": "restaurant", "image": "https://dynamic-media-cdn.tripadvisor.com/media/photo-o/29/f2/42/03/caption.jpg?w=1000&s=1", "address": "2-15-15 Nankodai, Izumi-Ku, Sendai 981-8003 Qu\u00e2\u0323n Miyagi", "lat": 38.294197, "lng": 140.89438, "ref_id": 26447789, "rating": 3, "num_reviews": 0, "website": "https://www.instagram.com/hinotori_nankoudai/", "contact_phone": "+81 22-344-9115", "contact_email": null, "status": 1, "source_type": 1, "numberReviews": 1}, {"name": "Totoya", "type": "restaurant", "image": null, "address": "1-8-31 Aobaku Chuo 2F, Sendai 980-0021 Qu\u00e2\u0323n Miyagi", "lat": 38.261826, "lng": 140.88019, "ref_id": 15334359, "rating": 3, "num_reviews": 0, "website": null, "contact_phone": "+81 22-265-8860", "contact_email": null, "status": 1, "source_type": 1, "numberReviews": 1}, {"name": "Old Pal", "type": "restaurant", "image": null, "address": "3-8-7 Kokubuncho Aoba-Ku, Sendai Qu\u00e2\u0323n Miyagi", "lat": 38.267227, "lng": 140.86853, "ref_id": 7454184, "rating": 3, "num_reviews": 0, "website": null, "contact_phone": "+81 22-211-7750", "contact_email": null, "status": 1, "source_type": 1, "numberReviews": 1}, {"name": "Chotohairu", "type": "restaurant", "image": null, "address": "4-28-33 Nitta, Miyagino-Ku, Sendai 983-0038 Qu\u00e2\u0323n Miyagi", "lat": 38.27709, "lng": 140.9271, "ref_id": 9639369, "rating": 3, "num_reviews": 0, "website": null, "contact_phone": "+81 22-238-6602", "contact_email": null, "status": 1, "source_type": 1, "numberReviews": 1}, {"name": "Yamagata-Ya Seimen Soba Restauranttsurugaoka", "type": "restaurant", "image": "https://dynamic-media-cdn.tripadvisor.com/media/photo-o/19/eb/3b/7f/caption.jpg?w=1000&s=1", "address": "2-8-1 Tsurugaya Miyagino-Ku, Sendai Qu\u00e2\u0323n Miyagi", "lat": 38.29025, "lng": 140.91502, "ref_id": 7454907, "rating": 3, "num_reviews": 0, "website": null, "contact_phone": "+81 22-251-5488", "contact_email": null, "status": 1, "source_type": 1, "numberReviews": 1}, {"name": "Marumatsu Arai", "type": "restaurant", "image": "https://dynamic-media-cdn.tripadvisor.com/media/photo-o/19/ee/60/be/caption.jpg?w=1000&s=1", "address": "Arai, Wakabayashi-ku, Sendai 984-0032 Qu\u00e2\u0323n Miyagi", "lat": 38.246384, "lng": 140.95107, "ref_id": 13162368, "rating": 3, "num_reviews": 0, "website": null, "contact_phone": "+81 22-390-5589", "contact_email": null, "status": 1, "source_type": 1, "numberReviews": 1}, {"name": "Pizzeria Cielo", "type": "restaurant", "image": "https://dynamic-media-cdn.tripadvisor.com/media/photo-o/05/d5/0c/9a/pizzeria-cielo.jpg?w=1000&s=1", "address": "1-10-25 Chuo Aoba-Ku Eden, Sendai 980-0021 Qu\u00e2\u0323n Miyagi", "lat": 38.26066, "lng": 140.88013, "ref_id": 6044370, "rating": 3, "num_reviews": 0, "website": null, "contact_phone": "+81 22-748-4510", "contact_email": null, "status": 1, "source_type": 1, "numberReviews": 3}, {"name": "Neneya Tagajo", "type": "restaurant", "image": "https://dynamic-media-cdn.tripadvisor.com/media/photo-o/2a/81/5b/17/caption.jpg?w=1000&s=1", "address": "1-3-46 Yawata, Tagajo 985-0874 Qu\u00e2\u0323n Miyagi", "lat": 38.28548, "lng": 140.99477, "ref_id": 9694297, "rating": 3, "num_reviews": 0, "website": "https://www.d-neneya.com/", "contact_phone": "+81 22-366-9574", "contact_email": null, "status": 1, "source_type": 1, "numberReviews": 2}, {"name": "Orai", "type": "restaurant", "image": "https://dynamic-media-cdn.tripadvisor.com/media/photo-o/13/11/01/54/caption.jpg?w=1000&s=1", "address": "3-4-23 Ichibancho, Aoba-Ku, Sendai 980-0811 Qu\u00e2\u0323n Miyagi", "lat": 38.260834, "lng": 140.87144, "ref_id": 13788046, "rating": 3, "num_reviews": 0, "website": null, "contact_phone": "+81 22-395-7306", "contact_email": null, "status": 1, "source_type": 1, "numberReviews": 1}, {"name": "Cantine Reposer Aeon style Senda Oroshimachi", "type": "restaurant", "image": "https://dynamic-media-cdn.tripadvisor.com/media/photo-o/18/59/2e/8f/caption.jpg?w=1000&s=1", "address": "1-1-1 Oroshimachi Wakabaku Aeon style Senda Oroshimachi 1F, Sendai 984-0015 Qu\u00e2\u0323n Miyagi", "lat": 38.252075, "lng": 140.91792, "ref_id": 15125099, "rating": 3, "num_reviews": 0, "website": null, "contact_phone": "+81 22-232-6077", "contact_email": null, "status": 1, "source_type": 1, "numberReviews": 1}, {"name": "Chinryu", "type": "restaurant", "image": null, "address": "2-4-20 Machimae, Tagajo Qu\u00e2\u0323n Miyagi", "lat": 38.285965, "lng": 141.00629, "ref_id": 7632581, "rating": 3, "num_reviews": 0, "website": null, "contact_phone": "+81 22-364-9083", "contact_email": null, "status": 1, "source_type": 1, "numberReviews": 1}, {"name": "Aikamu", "type": "restaurant", "image": null, "address": "2-6-8 Toshogu, Aoba-Ku, Sendai 981-0908 Qu\u00e2\u0323n Miyagi", "lat": 38.27961, "lng": 140.88777, "ref_id": 9663381, "rating": 3, "num_reviews": 0, "website": null, "contact_phone": "+81 22-274-2982", "contact_email": null, "status": 1, "source_type": 1, "numberReviews": 1}, {"name": "Wagokoro Kuukan Mamemoyashi", "type": "restaurant", "image": null, "address": "2-7-7 Kokubuncho Aoba-Ku Andersen Bldg. B1, Sendai 980-0803 Qu\u00e2\u0323n Miyagi", "lat": 38.263226, "lng": 140.8684, "ref_id": 6059052, "rating": 3, "num_reviews": 0, "website": null, "contact_phone": "+81 22-721-5234", "contact_email": null, "status": 1, "source_type": 1, "numberReviews": 5}, {"name": "Tachigui Tachinomi Gonchan", "type": "restaurant", "image": "https://dynamic-media-cdn.tripadvisor.com/media/photo-o/18/62/db/75/caption.jpg?w=1000&s=1", "address": "3-8-3 Haranomachi, Miyagino-Ku, Sendai 983-0841 Qu\u00e2\u0323n Miyagi", "lat": 38.26758, "lng": 140.91168, "ref_id": 9674248, "rating": 3, "num_reviews": 0, "website": null, "contact_phone": "+81 22-355-8544", "contact_email": null, "status": 1, "source_type": 1, "numberReviews": 1}, {"name": "Sushi Haru", "type": "restaurant", "image": null, "address": "1-24-14 Yoshinari, Aoba-Ku, Sendai 989-3205 Qu\u00e2\u0323n Miyagi", "lat": 38.292557, "lng": 140.82245, "ref_id": 10655575, "rating": 3, "num_reviews": 0, "website": null, "contact_phone": "+81 22-279-3274", "contact_email": null, "status": 1, "source_type": 1, "numberReviews": 1}, {"name": "Toritaira", "type": "restaurant", "image": null, "address": "1-4-32 Kamisugi, Aoba-Ku, Sendai 980-0011 Qu\u00e2\u0323n Miyagi", "lat": 38.26923, "lng": 140.87123, "ref_id": 13268865, "rating": 3, "num_reviews": 0, "website": null, "contact_phone": "+81 22-265-9780", "contact_email": null, "status": 1, "source_type": 1, "numberReviews": 1}, {"name": "Minato Hanten", "type": "restaurant", "image": null, "address": "26 Aza-Sunayama Minatohama, Shichigahama-machi, Miyagi-gun Qu\u00e2\u0323n Miyagi", "lat": 38.285812, "lng": 141.04646, "ref_id": 7496821, "rating": 3, "num_reviews": 0, "website": null, "contact_phone": "+81 22-357-3440", "contact_email": null, "status": 1, "source_type": 1, "numberReviews": 1}, {"name": "Marumatsu Jonan", "type": "restaurant", "image": "https://dynamic-media-cdn.tripadvisor.com/media/photo-o/19/63/d1/46/caption.jpg?w=1000&s=1", "address": "2-15-7 Jonan, Tagajo 985-0865 Qu\u00e2\u0323n Miyagi", "lat": 38.296387, "lng": 140.99196, "ref_id": 9644695, "rating": 3, "num_reviews": 0, "website": null, "contact_phone": "+81 22-309-1755", "contact_email": null, "status": 1, "source_type": 1, "numberReviews": 1}, {"name": "Enatsu", "type": "restaurant", "image": "https://dynamic-media-cdn.tripadvisor.com/media/photo-o/05/2f/a9/9c/caption.jpg?w=1000&s=1", "address": "1-4-5 Otemachi, Natori Qu\u00e2\u0323n Miyagi", "lat": 38.170547, "lng": 140.8814, "ref_id": 1693310, "rating": 4, "num_reviews": 0, "website": "", "contact_phone": "+81 22-384-9584", "contact_email": "", "status": 1, "source_type": 1, "numberReviews": 6}, {"name": "Guranbuffenatori", "type": "restaurant", "image": "https://dynamic-media-cdn.tripadvisor.com/media/photo-o/2a/64/9e/bb/caption.jpg?w=1000&s=1", "address": "Masuda, Natori 981-1224 Qu\u00e2\u0323n Miyagi", "lat": 38.163692, "lng": 140.89589, "ref_id": 1680102, "rating": 3.5, "num_reviews": 0, "website": "", "contact_phone": "+81 22-382-9478", "contact_email": "", "status": 1, "source_type": 1, "numberReviews": 6}, {"name": "Noodles and Kotobuki", "type": "restaurant", "image": "https://dynamic-media-cdn.tripadvisor.com/media/photo-o/1a/cb/86/ef/caption.jpg?w=1000&s=1", "address": "2-1-16 Oritate, Aobaku, Sendai 982-0261 Qu\u00e2\u0323n Miyagi", "lat": 38.266953, "lng": 140.80794, "ref_id": 13035625, "rating": 4.5, "num_reviews": 0, "website": null, "contact_phone": "+81 22-797-8805", "contact_email": null, "status": 1, "source_type": 1, "numberReviews": 3}, {"name": "Tokiwatei Uesugi", "type": "restaurant", "image": "https://dynamic-media-cdn.tripadvisor.com/media/photo-o/19/e0/62/6d/caption.jpg?w=1000&s=1", "address": "3-3-9 Uesugi Aoba-Ku, Sendai Qu\u00e2\u0323n Miyagi", "lat": 38.26993, "lng": 140.87492, "ref_id": 7454383, "rating": 3.5, "num_reviews": 0, "website": null, "contact_phone": "+81 22-713-8173", "contact_email": null, "status": 1, "source_type": 1, "numberReviews": 8}, {"name": "European Style Tapas Bar Ichinoi", "type": "restaurant", "image": "https://dynamic-media-cdn.tripadvisor.com/media/photo-o/13/b2/0a/82/caption.jpg?w=1000&s=1", "address": "4-3-3 Ichibancho Aoba-Ku KI Bldg. 1F, Sendai 980-0811 Qu\u00e2\u0323n Miyagi", "lat": 38.26253, "lng": 140.8708, "ref_id": 6066136, "rating": 4.5, "num_reviews": 0, "website": null, "contact_phone": "+81 22-722-6303", "contact_email": null, "status": 1, "source_type": 1, "numberReviews": 3}, {"name": "Jam Cafe", "type": "restaurant", "image": null, "address": "4-5-20 Ichibancho, Aoba-ku Matsubaya Bldg. 2F, Sendai 980-0811 Qu\u00e2\u0323n Miyagi", "lat": 38.264385, "lng": 140.87086, "ref_id": 10850349, "rating": 4, "num_reviews": 0, "website": null, "contact_phone": "+81 22-221-7210", "contact_email": null, "status": 1, "source_type": 1, "numberReviews": 5}, {"name": "Caf\u00e9 Misty", "type": "restaurant", "image": "https://dynamic-media-cdn.tripadvisor.com/media/photo-o/1d/5b/78/5e/caption.jpg?w=1000&s=1", "address": "2-6-10 Chuo, Sendai Qu\u00e2\u0323n Miyagi", "lat": 38.261803, "lng": 140.8775, "ref_id": 3881566, "rating": 3.5, "num_reviews": 0, "website": null, "contact_phone": "+81 22-265-7777", "contact_email": null, "status": 1, "source_type": 1, "numberReviews": 10}, {"name": "Le Lien", "type": "restaurant", "image": "https://dynamic-media-cdn.tripadvisor.com/media/photo-o/10/f9/73/16/dsc-0024-largejpg.jpg?w=1000&s=1", "address": "2-2-23 Kokubuncho Aobaku 2F Lemon Chateau Building, Sendai 980-0803 Qu\u00e2\u0323n Miyagi", "lat": 38.26259, "lng": 140.86917, "ref_id": 12201255, "rating": 4, "num_reviews": 0, "website": "https://www.facebook.com/LeLien.jp/", "contact_phone": "+81 22-263-1392", "contact_email": null, "status": 1, "source_type": 1, "numberReviews": 4}, {"name": "Il Destino", "type": "restaurant", "image": "https://dynamic-media-cdn.tripadvisor.com/media/photo-o/14/b6/f6/41/photo0jpg.jpg?w=1000&s=1", "address": "2-5-31 Ichibancho, Aoba-Ku 3F, Sudo Bldg, Sendai 980-0811 Qu\u00e2\u0323n Miyagi", "lat": 38.26235, "lng": 140.87814, "ref_id": 7454157, "rating": 3.5, "num_reviews": 0, "website": "https://ildestinosendai.wixsite.com/ildestino", "contact_phone": "+81 22-262-1869", "contact_email": null, "status": 1, "source_type": 1, "numberReviews": 8}, {"name": "Yoshinoya Sendai EbeanS", "type": "restaurant", "image": "https://dynamic-media-cdn.tripadvisor.com/media/photo-o/09/99/51/be/caption.jpg?w=1000&s=1", "address": "4-1-1 Chuo, Aoba-ku, Sendai 980-0021 Qu\u00e2\u0323n Miyagi", "lat": 38.25873, "lng": 140.87975, "ref_id": 6051679, "rating": 3, "num_reviews": 0, "website": "https://stores.yoshinoya.com/ysn_046921", "contact_phone": "+81 22-302-4114", "contact_email": null, "status": 1, "source_type": 1, "numberReviews": 22}, {"name": "Kaikatsu Club Yonezawa", "type": "restaurant", "image": null, "address": "8-1-7 Kanaike, Yonezawa 992-0012 Yamagata Prefecture", "lat": 37.92966, "lng": 140.11786, "ref_id": 14742065, "rating": -1, "num_reviews": 0, "website": null, "contact_phone": "+81 238-37-8168", "contact_email": null, "status": 1, "source_type": 1, "numberReviews": 0}, {"name": "Izakaya Merci", "type": "restaurant", "image": null, "address": "4632-5 Yamaguchi, Shirataka-machi, Nishiokitama-gun Yamagata Prefecture", "lat": 38.18744, "lng": 140.06592, "ref_id": 7497387, "rating": -1, "num_reviews": 0, "website": null, "contact_phone": "+81 238-85-3583", "contact_email": null, "status": 1, "source_type": 1, "numberReviews": 0}, {"name": "Sako", "type": "restaurant", "image": null, "address": "3002 Akayu, Nanyo 999-2211 Yamagata Prefecture", "lat": 38.048576, "lng": 140.16953, "ref_id": 13266860, "rating": -1, "num_reviews": 0, "website": null, "contact_phone": "+81 238-43-2392", "contact_email": null, "status": 1, "source_type": 1, "numberReviews": 0}, {"name": "Himawari Yamazawa Nanyo", "type": "restaurant", "image": null, "address": "578 Koriyama Yamazawa Nanyang, Nanyo 999-2241 Yamagata Prefecture", "lat": 38.04343, "lng": 140.15486, "ref_id": 14966454, "rating": -1, "num_reviews": 0, "website": null, "contact_phone": "+81 238-50-1122", "contact_email": null, "status": 1, "source_type": 1, "numberReviews": 0}, {"name": "Karaoke Studio Vocal", "type": "restaurant", "image": null, "address": "850-1 Oaza Komatsu, Kawanishi-machi, Higashiokitama-gun 999-0133 Yamagata Prefecture", "lat": 38.024883, "lng": 140.05695, "ref_id": 13252777, "rating": -1, "num_reviews": 0, "website": null, "contact_phone": "+81 120-462-136", "contact_email": null, "status": 1, "source_type": 1, "numberReviews": 0}, {"name": "Kurashiki Beer Dining Hopman", "type": "restaurant", "image": null, "address": "19-21 Kawanishimachi, Kurashiki 710-0821 Okayama Prefecture", "lat": 38.004433, "lng": 140.04585, "ref_id": 23557179, "rating": -1, "num_reviews": 0, "website": "http://www.kurashiki-hopman.com/", "contact_phone": null, "contact_email": null, "status": 1, "source_type": 1, "numberReviews": 0}, {"name": "Kimoto", "type": "restaurant", "image": null, "address": "2-9-10 Koyacho, Nagai 993-0085 Yamagata Prefecture", "lat": 38.109383, "lng": 140.03581, "ref_id": 9680327, "rating": -1, "num_reviews": 0, "website": null, "contact_phone": "+81 238-84-1551", "contact_email": null, "status": 1, "source_type": 1, "numberReviews": 0}, {"name": "Teuchisoba Itabashi", "type": "restaurant", "image": null, "address": "119-1 Oaza Sunoshima, Kawanishi-machi, Higashiokitama-gun 999-0211 Yamagata Prefecture", "lat": 38.009594, "lng": 140.10942, "ref_id": 13267247, "rating": -1, "num_reviews": 0, "website": null, "contact_phone": "+81 238-44-2783", "contact_email": null, "status": 1, "source_type": 1, "numberReviews": 0}, {"name": "Decchiya", "type": "restaurant", "image": null, "address": "1571-3 Hagyu, Iide-machi, Nishiokitama-gun Yamagata Prefecture", "lat": 38.06762, "lng": 139.99036, "ref_id": 7497395, "rating": -1, "num_reviews": 0, "website": null, "contact_phone": "+81 238-72-3918", "contact_email": null, "status": 1, "source_type": 1, "numberReviews": 0}, {"name": "Rice Factory Come Come", "type": "restaurant", "image": null, "address": "2170-2 Narita, Nagai 993-0075 Yamagata Prefecture", "lat": 38.120255, "lng": 140.03311, "ref_id": 9680323, "rating": -1, "num_reviews": 0, "website": null, "contact_phone": "+81 238-84-1387", "contact_email": null, "status": 1, "source_type": 1, "numberReviews": 0}, {"name": "Seki No Chaya", "type": "restaurant", "image": null, "address": "747-4 Akayu, Nanyo Yamagata Prefecture", "lat": 38.049835, "lng": 140.16858, "ref_id": 7506431, "rating": -1, "num_reviews": 0, "website": null, "contact_phone": "+81 237-75-2555", "contact_email": null, "status": 1, "source_type": 1, "numberReviews": 0}, {"name": "Kasahara", "type": "restaurant", "image": null, "address": "3512 Miyauchi, Nanyo Yamagata Prefecture", "lat": 38.075024, "lng": 140.1392, "ref_id": 7672776, "rating": -1, "num_reviews": 0, "website": null, "contact_phone": "+81 238-47-2023", "contact_email": null, "status": 1, "source_type": 1, "numberReviews": 0}, {"name": "Sukiya No. 287 Nagai", "type": "restaurant", "image": null, "address": "6-31 Higashi-Machi, Nagai 993-0003 Yamagata Prefecture", "lat": 38.10232, "lng": 140.04315, "ref_id": 17843645, "rating": -1, "num_reviews": 0, "website": null, "contact_phone": "+81 120-498-007", "contact_email": null, "status": 1, "source_type": 1, "numberReviews": 0}, {"name": "Michinoku Soba", "type": "restaurant", "image": null, "address": "Oaza Niijuku Tazawa 4030-1, Takahata-machi, Higashiokitama-gun 992-0301 Yamagata Prefecture", "lat": 38.026188, "lng": 140.25446, "ref_id": 10010180, "rating": -1, "num_reviews": 0, "website": null, "contact_phone": "+81 238-52-2820", "contact_email": null, "status": 1, "source_type": 1, "numberReviews": 0}, {"name": "Asakusa Ramen", "type": "restaurant", "image": null, "address": "3104 Akayu, Nanyo Yamagata Prefecture", "lat": 38.04956, "lng": 140.17123, "ref_id": 7506411, "rating": -1, "num_reviews": 0, "website": null, "contact_phone": "+81 238-40-3376", "contact_email": null, "status": 1, "source_type": 1, "numberReviews": 0}, {"name": "Men Kobo Ryu Shanghai", "type": "restaurant", "image": null, "address": "2-3 Niirone, Nanyo 999-2231 Yamagata Prefecture", "lat": 38.05014, "lng": 140.16347, "ref_id": 9680361, "rating": -1, "num_reviews": 0, "website": null, "contact_phone": "+81 238-43-6422", "contact_email": null, "status": 1, "source_type": 1, "numberReviews": 0}, {"name": "Niku No Hanaya", "type": "restaurant", "image": null, "address": "2746 Miyauchi, Nanyo 992-0472 Yamagata Prefecture", "lat": 38.0715, "lng": 140.1364, "ref_id": 9680352, "rating": -1, "num_reviews": 0, "website": null, "contact_phone": "+81 238-47-2047", "contact_email": null, "status": 1, "source_type": 1, "numberReviews": 0}, {"name": "Ramen Shogosan", "type": "restaurant", "image": null, "address": "137 Miyauchi, Nanyo 992-0472 Yamagata Prefecture", "lat": 38.06045, "lng": 140.1478, "ref_id": 19263564, "rating": -1, "num_reviews": 0, "website": null, "contact_phone": "+81 238-49-8222", "contact_email": null, "status": 1, "source_type": 1, "numberReviews": 0}, {"name": "Masanoya", "type": "restaurant", "image": null, "address": "53 Oaza Takenomori, Takahata-machi, Higashiokitama-gun Yamagata Prefecture", "lat": 38.01394, "lng": 140.17886, "ref_id": 7497302, "rating": -1, "num_reviews": 0, "website": null, "contact_phone": "+81 238-52-0036", "contact_email": null, "status": 1, "source_type": 1, "numberReviews": 0}, {"name": "Yoshimi Shokudo", "type": "restaurant", "image": null, "address": "2673 Miyauchi, Nanyo Yamagata Prefecture", "lat": 38.073997, "lng": 140.13655, "ref_id": 7636256, "rating": -1, "num_reviews": 0, "website": null, "contact_phone": "+81 238-47-2526", "contact_email": null, "status": 1, "source_type": 1, "numberReviews": 0}, {"name": "Matsutake Kaikan", "type": "restaurant", "image": null, "address": "1693 Motowada, Takahata-machi, Higashiokitama-gun Yamagata Prefecture", "lat": 37.96497, "lng": 140.22147, "ref_id": 7497305, "rating": -1, "num_reviews": 0, "website": null, "contact_phone": "+81 238-56-3082", "contact_email": null, "status": 1, "source_type": 1, "numberReviews": 0}, {"name": "Kappo Maruta", "type": "restaurant", "image": null, "address": "2834-3 Takehara, Nanyo 992-0478 Yamagata Prefecture", "lat": 38.055637, "lng": 140.09848, "ref_id": 14742090, "rating": -1, "num_reviews": 0, "website": null, "contact_phone": "+81 238-47-7651", "contact_email": null, "status": 1, "source_type": 1, "numberReviews": 0}, {"name": "Ikoi", "type": "restaurant", "image": null, "address": "688 Oaza Takahata Saiwaicho, Takahata-machi, Higashiokitama-gun Yamagata Prefecture", "lat": 38.00671, "lng": 140.19421, "ref_id": 7497274, "rating": -1, "num_reviews": 0, "website": null, "contact_phone": "+81 238-52-0242", "contact_email": null, "status": 1, "source_type": 1, "numberReviews": 0}, {"name": "Cafe Rest Hana X Hana", "type": "restaurant", "image": "https://dynamic-media-cdn.tripadvisor.com/media/photo-o/05/d5/d6/ce/cafe-rest-hana-x-hana.jpg?w=1000&s=1", "address": "747-4 Akayu, Nanyo 999-2211 Yamagata Prefecture", "lat": 38.049828, "lng": 140.16862, "ref_id": 6070654, "rating": -1, "num_reviews": 0, "website": null, "contact_phone": "+81 238-49-7778", "contact_email": null, "status": 1, "source_type": 1, "numberReviews": 0}, {"name": "Genki", "type": "restaurant", "image": null, "address": "1-4-35 Motomachi, Nagai 993-0007 Yamagata Prefecture", "lat": 38.106674, "lng": 140.03838, "ref_id": 13259418, "rating": -1, "num_reviews": 0, "website": null, "contact_phone": "+81 238-88-1171", "contact_email": null, "status": 1, "source_type": 1, "numberReviews": 0}, {"name": "Fukuchan Shokudo", "type": "restaurant", "image": null, "address": "1960-1 Oaza Fukanuma, Takahata-machi, Higashiokitama-gun Yamagata Prefecture", "lat": 38.029716, "lng": 140.16817, "ref_id": 7497318, "rating": -1, "num_reviews": 0, "website": null, "contact_phone": "+81 238-52-2266", "contact_email": null, "status": 1, "source_type": 1, "numberReviews": 0}, {"name": "Ramen Miyauchi", "type": "restaurant", "image": "https://dynamic-media-cdn.tripadvisor.com/media/photo-o/05/d6/1c/83/ramen-miyauchi.jpg?w=1000&s=1", "address": "1021 Miyauchi, Nanyo 992-0472 Yamagata Prefecture", "lat": 38.071503, "lng": 140.13876, "ref_id": 6043728, "rating": -1, "num_reviews": 0, "website": null, "contact_phone": "+81 238-47-5755", "contact_email": null, "status": 1, "source_type": 1, "numberReviews": 0}, {"name": "Shirataka", "type": "restaurant", "image": null, "address": "929 Aratoko, Shiratakamachi, Shirataka-machi, Nishiokitama-gun 992-0831 Yamagata Prefecture", "lat": 38.18475, "lng": 140.09761, "ref_id": 10649247, "rating": -1, "num_reviews": 0, "website": null, "contact_phone": "+81 238-85-2360", "contact_email": null, "status": 1, "source_type": 1, "numberReviews": 0}, {"name": "Nakayoshi", "type": "restaurant", "image": null, "address": "3350-2 Miyauchi, Nanyo Yamagata Prefecture", "lat": 38.07459, "lng": 140.13564, "ref_id": 7506368, "rating": -1, "num_reviews": 0, "website": null, "contact_phone": "+81 238-47-3565", "contact_email": null, "status": 1, "source_type": 1, "numberReviews": 0}, {"name": "Tatsukichi", "type": "restaurant", "image": null, "address": "69 Izumioka, Takahata-machi, Higashiokitama-gun 992-0315 Yamagata Prefecture", "lat": 37.996754, "lng": 140.18916, "ref_id": 10013988, "rating": -1, "num_reviews": 0, "website": null, "contact_phone": "+81 238-52-3925", "contact_email": null, "status": 1, "source_type": 1, "numberReviews": 0}, {"name": "Genjibotaru Rice Cracker", "type": "restaurant", "image": null, "address": "1-1-35 Tsukidateyakushi, Kurihara 987-2252 Qu\u00e2\u0323n Miyagi", "lat": 38.73126, "lng": 141.02222, "ref_id": 13035090, "rating": -1, "num_reviews": 0, "website": null, "contact_phone": "+81 228-22-1523", "contact_email": null, "status": 1, "source_type": 1, "numberReviews": 0}, {"name": "Palette", "type": "restaurant", "image": null, "address": "4-7-15 Tsukidateizu, Kurihara 987-2216 Qu\u00e2\u0323n Miyagi", "lat": 38.72949, "lng": 141.02383, "ref_id": 13035685, "rating": -1, "num_reviews": 0, "website": null, "contact_phone": "+81 120-028-010", "contact_email": null, "status": 1, "source_type": 1, "numberReviews": 0}, {"name": "Konosuke", "type": "restaurant", "image": null, "address": "71-6 Tsukidate Terukoshi Yongping, Kurihara 987-2233 Qu\u00e2\u0323n Miyagi", "lat": 38.71106, "lng": 141.01904, "ref_id": 13035424, "rating": -1, "num_reviews": 0, "website": null, "contact_phone": "+81 228-24-7729", "contact_email": null, "status": 1, "source_type": 1, "numberReviews": 0}, {"name": "Kikunoya Confectionery", "type": "restaurant", "image": null, "address": "3-7-26 Tsukidateyakushi, Kurihara 987-2252 Qu\u00e2\u0323n Miyagi", "lat": 38.73499, "lng": 141.01907, "ref_id": 13035392, "rating": -1, "num_reviews": 0, "website": null, "contact_phone": "+81 228-22-2815", "contact_email": null, "status": 1, "source_type": 1, "numberReviews": 0}, {"name": "Shanmansan", "type": "restaurant", "image": null, "address": "Tsukidate Takada 2-1-51, Kurihara 987-2215 Qu\u00e2\u0323n Miyagi", "lat": 38.728992, "lng": 141.02205, "ref_id": 9679532, "rating": -1, "num_reviews": 0, "website": null, "contact_phone": "+81 228-22-7882", "contact_email": null, "status": 1, "source_type": 1, "numberReviews": 0}, {"name": "Hotto Motto Tsukidate Izu-Cho", "type": "restaurant", "image": null, "address": "1-1-5 Tsukidateizu, Kurihara 987-2216 Qu\u00e2\u0323n Miyagi", "lat": 38.73319, "lng": 141.02309, "ref_id": 13035225, "rating": -1, "num_reviews": 0, "website": null, "contact_phone": "+81 228-23-6721", "contact_email": null, "status": 1, "source_type": 1, "numberReviews": 0}, {"name": "Aroma Gate", "type": "restaurant", "image": "https://dynamic-media-cdn.tripadvisor.com/media/photo-o/05/d7/37/05/aroma-gate.jpg?w=1000&s=1", "address": "2-10 Tsukidate Fujiki, Kurihara 987-2251 Qu\u00e2\u0323n Miyagi", "lat": 38.736774, "lng": 141.0196, "ref_id": 6053483, "rating": -1, "num_reviews": 0, "website": null, "contact_phone": "+81 228-22-6237", "contact_email": null, "status": 1, "source_type": 1, "numberReviews": 0}, {"name": "Fukutokuen", "type": "restaurant", "image": "https://dynamic-media-cdn.tripadvisor.com/media/photo-o/1a/67/26/0f/caption.jpg?w=1000&s=1", "address": "4-3 Shiwahime Horiguchi Genko, Kurihara 989-5625 Qu\u00e2\u0323n Miyagi", "lat": 38.737595, "lng": 141.03352, "ref_id": 9679522, "rating": 4, "num_reviews": 0, "website": null, "contact_phone": "+81 228-23-0429", "contact_email": null, "status": 1, "source_type": 1, "numberReviews": 1}, {"name": "Terasawa Pastry Shop Shoshindo", "type": "restaurant", "image": "https://dynamic-media-cdn.tripadvisor.com/media/photo-o/1a/27/64/34/caption.jpg?w=1000&s=1", "address": "2-5 Toyosato-Cho Higashimachiishita, Tome 987-0362 Qu\u00e2\u0323n Miyagi", "lat": 38.585445, "lng": 141.24849, "ref_id": 13035962, "rating": 4, "num_reviews": 0, "website": null, "contact_phone": "+81 225-76-2582", "contact_email": null, "status": 1, "source_type": 1, "numberReviews": 1}, {"name": "Furin", "type": "restaurant", "image": "https://dynamic-media-cdn.tripadvisor.com/media/photo-o/17/79/7e/f4/caption.jpg?w=1000&s=1", "address": "4-9-39 Tsukidate Yakushi, Kurihara 987-2252 Qu\u00e2\u0323n Miyagi", "lat": 38.734726, "lng": 141.0223, "ref_id": 7514790, "rating": 4, "num_reviews": 0, "website": null, "contact_phone": "+81 228-23-6755", "contact_email": null, "status": 1, "source_type": 1, "numberReviews": 1}, {"name": "Sushi Yoshi", "type": "restaurant", "image": null, "address": "186-1 Tsuyamacho Yanaizu Honcho, Tome Qu\u00e2\u0323n Miyagi", "lat": 38.61106, "lng": 141.30168, "ref_id": 7514648, "rating": 4, "num_reviews": 0, "website": null, "contact_phone": "+81 225-68-2435", "contact_email": null, "status": 1, "source_type": 1, "numberReviews": 1}, {"name": "McDonald's Sanuma", "type": "restaurant", "image": null, "address": "2-12-13 Hasamacho Sanuma, Tome 987-0511 Qu\u00e2\u0323n Miyagi", "lat": 38.685688, "lng": 141.18622, "ref_id": 6054173, "rating": 3.5, "num_reviews": 0, "website": null, "contact_phone": "+81 220-23-1424", "contact_email": null, "status": 1, "source_type": 1, "numberReviews": 8}, {"name": "Gomen Tsukidate", "type": "restaurant", "image": null, "address": "12-1 Miwatari, Shiwahime Horiguchi, Kurihara 989-5625 Qu\u00e2\u0323n Miyagi", "lat": 38.737125, "lng": 141.02156, "ref_id": 9679525, "rating": -1, "num_reviews": 0, "website": null, "contact_phone": "+81 228-22-0161", "contact_email": null, "status": 1, "source_type": 1, "numberReviews": 0}, {"name": "Joyfull", "type": "restaurant", "image": null, "address": "1-33-2 Tsukidate Izu, Kurihara Qu\u00e2\u0323n Miyagi", "lat": 38.734917, "lng": 141.02315, "ref_id": 7631824, "rating": -1, "num_reviews": 0, "website": null, "contact_phone": "+81 228-21-2131", "contact_email": null, "status": 1, "source_type": 1, "numberReviews": 0}, {"name": "Nambuyashikitsukidate", "type": "restaurant", "image": null, "address": "4-6-42 Tsukidate Izu, Kurihara Qu\u00e2\u0323n Miyagi", "lat": 38.72966, "lng": 141.02248, "ref_id": 7514764, "rating": -1, "num_reviews": 0, "website": null, "contact_phone": "+81 228-22-4326", "contact_email": null, "status": 1, "source_type": 1, "numberReviews": 0}, {"name": "Mameya", "type": "restaurant", "image": null, "address": "12-1 Jumonji Shiwahime Horiguchi, Kurihara Qu\u00e2\u0323n Miyagi", "lat": 38.736153, "lng": 141.02663, "ref_id": 7514744, "rating": -1, "num_reviews": 0, "website": null, "contact_phone": "+81 228-23-0017", "contact_email": null, "status": 1, "source_type": 1, "numberReviews": 0}, {"name": "China Restaurant Yokohama", "type": "restaurant", "image": "https://dynamic-media-cdn.tripadvisor.com/media/photo-o/15/b3/95/24/caption.jpg?w=1000&s=1", "address": "5-9-13 Nakae Sanuma Aza Hasamacho, Tome Qu\u00e2\u0323n Miyagi", "lat": 38.69062, "lng": 141.18312, "ref_id": 7514579, "rating": 4, "num_reviews": 0, "website": null, "contact_phone": "+81 220-22-5701", "contact_email": null, "status": 1, "source_type": 1, "numberReviews": 1}, {"name": "Sultan Sanuma", "type": "restaurant", "image": "https://dynamic-media-cdn.tripadvisor.com/media/photo-o/15/7a/1f/b0/photo0jpg.jpg?w=1000&s=1", "address": "46-1 Minamikatamachi Shinshimamae, Tome 987-0404 Qu\u00e2\u0323n Miyagi", "lat": 38.683384, "lng": 141.18356, "ref_id": 13114618, "rating": 4, "num_reviews": 0, "website": null, "contact_phone": "+81 220-23-1523", "contact_email": null, "status": 1, "source_type": 1, "numberReviews": 1}, {"name": "Manpukuya", "type": "restaurant", "image": "https://dynamic-media-cdn.tripadvisor.com/media/photo-o/15/70/79/8f/caption.jpg?w=1000&s=1", "address": "130-2 Aza Nishiki, Sanuma, Hasamacho, Tome 987-0511 Qu\u00e2\u0323n Miyagi", "lat": 38.689392, "lng": 141.19933, "ref_id": 9679514, "rating": 4, "num_reviews": 0, "website": null, "contact_phone": "+81 220-22-3157", "contact_email": null, "status": 1, "source_type": 1, "numberReviews": 1}, {"name": "Narukohanten Branch Store", "type": "restaurant", "image": null, "address": "5-1-4 Nakae Sanuma Hasamacho, Tome Qu\u00e2\u0323n Miyagi", "lat": 38.691067, "lng": 141.18706, "ref_id": 7514710, "rating": 4, "num_reviews": 0, "website": null, "contact_phone": "+81 220-22-4044", "contact_email": null, "status": 1, "source_type": 1, "numberReviews": 1}, {"name": "Nantamaya Aeon Super Center Kurihara Shiwahime", "type": "restaurant", "image": null, "address": "11 Shiwahime Shinkumaya, Kurihara 989-5612 Qu\u00e2\u0323n Miyagi", "lat": 38.748974, "lng": 141.06836, "ref_id": 13114418, "rating": 4, "num_reviews": 0, "website": null, "contact_phone": "+81 228-21-2870", "contact_email": null, "status": 1, "source_type": 1, "numberReviews": 1}, {"name": "Kabbo Shikano", "type": "restaurant", "image": null, "address": "138 Nishi Sanuma, Sanuma, Hasamacho, Tome 987-0511 Qu\u00e2\u0323n Miyagi", "lat": 38.68477, "lng": 141.19623, "ref_id": 9623726, "rating": 4, "num_reviews": 0, "website": null, "contact_phone": "+81 220-22-2437", "contact_email": null, "status": 1, "source_type": 1, "numberReviews": 1}, {"name": "Kappa-Zushi Sanuma", "type": "restaurant", "image": "https://dynamic-media-cdn.tripadvisor.com/media/photo-o/0c/af/fe/31/1472115592871-largejpg.jpg?w=1000&s=1", "address": "2-3-2 Aza Nakae, Sanuma, Hasamacho, Tome 987-0511 Qu\u00e2\u0323n Miyagi", "lat": 38.690586, "lng": 141.19041, "ref_id": 9656752, "rating": 3.5, "num_reviews": 0, "website": null, "contact_phone": "+81 220-21-5821", "contact_email": null, "status": 1, "source_type": 1, "numberReviews": 4}, {"name": "Miyagi Fumino", "type": "restaurant", "image": "https://dynamic-media-cdn.tripadvisor.com/media/photo-o/10/40/d0/73/photo1jpg.jpg?w=1000&s=1", "address": "20-1 Aza Terukoshi Kamita Tsukidate, Kurihara Qu\u00e2\u0323n Miyagi", "lat": 38.713863, "lng": 141.02115, "ref_id": 7514746, "rating": 3.5, "num_reviews": 0, "website": null, "contact_phone": "+81 228-22-6066", "contact_email": null, "status": 1, "source_type": 1, "numberReviews": 2}, {"name": "Cuccie Cafe la Bonte", "type": "restaurant", "image": "https://dynamic-media-cdn.tripadvisor.com/media/photo-o/0f/2e/bf/9a/1493954124051-largejpg.jpg?w=1000&s=1", "address": "6-3 Tomeba Sakuramachi Tsukidate, Kurihara Qu\u00e2\u0323n Miyagi", "lat": 38.74525, "lng": 141.01843, "ref_id": 7514715, "rating": 4.5, "num_reviews": 0, "website": null, "contact_phone": "+81 228-22-7622", "contact_email": null, "status": 1, "source_type": 1, "numberReviews": 3}, {"name": "Hormone Hatsune", "type": "restaurant", "image": null, "address": "287-1 Minamigo Takamori Ishikoshimachi, Tome Qu\u00e2\u0323n Miyagi", "lat": 38.76298, "lng": 141.176, "ref_id": 7514594, "rating": 4, "num_reviews": 0, "website": null, "contact_phone": "+81 228-34-3260", "contact_email": null, "status": 1, "source_type": 1, "numberReviews": 1}, {"name": "Umai Sushikan Sanuma-Branch", "type": "restaurant", "image": "https://dynamic-media-cdn.tripadvisor.com/media/photo-o/05/d6/2f/d6/umai-sushikan-sanuma.jpg?w=1000&s=1", "address": "6 Hasamacho Sanuma, Tome 987-0511 Qu\u00e2\u0323n Miyagi", "lat": 38.68056, "lng": 141.18362, "ref_id": 6068845, "rating": 4, "num_reviews": 0, "website": "http://sushikan.co.jp", "contact_phone": "+81 220-21-6771", "contact_email": null, "status": 1, "source_type": 1, "numberReviews": 1}, {"name": "Shirakawateuchi Chuka Kashima", "type": "restaurant", "image": null, "address": "139 Sakuramachi, Shirakawa 961-0911 Fukushima Prefecture", "lat": 37.123203, "lng": 140.2226, "ref_id": 24853956, "rating": 4, "num_reviews": 0, "website": "http://www.instagram.com/kashima.shirakawateuchi/", "contact_phone": "+81 248-23-8868", "contact_email": null, "status": 1, "source_type": 1, "numberReviews": 1}, {"name": "Mon Cheri Nishigo", "type": "restaurant", "image": null, "address": "58 Kumakura Orikuchihara, Nishigo-mura, Nishishirakawa-gun Fukushima Prefecture", "lat": 37.13955, "lng": 140.15717, "ref_id": 7497810, "rating": 5, "num_reviews": 0, "website": null, "contact_phone": "+81 248-25-3213", "contact_email": null, "status": 1, "source_type": 1, "numberReviews": 1}, {"name": "Daifukuya", "type": "restaurant", "image": "https://dynamic-media-cdn.tripadvisor.com/media/photo-o/09/c4/36/b9/caption.jpg?w=1000&s=1", "address": "2-2 Otemachi, Shirakawa Fukushima Prefecture", "lat": 37.129013, "lng": 140.21432, "ref_id": 7435796, "rating": 3.5, "num_reviews": 0, "website": null, "contact_phone": "+81 248-23-3021", "contact_email": null, "status": 1, "source_type": 1, "numberReviews": 5}, {"name": "Korinbo", "type": "restaurant", "image": "https://dynamic-media-cdn.tripadvisor.com/media/photo-o/24/ed/0d/81/caption.jpg?w=1000&s=1", "address": "1 160 Shinshirakawa, Shirakawa 961-0856 Fukushima Prefecture", "lat": 37.124107, "lng": 140.19559, "ref_id": 1667410, "rating": 4, "num_reviews": 0, "website": "", "contact_phone": "+81 248-23-4577", "contact_email": "", "status": 1, "source_type": 1, "numberReviews": 1}, {"name": "Hanabun", "type": "restaurant", "image": "https://dynamic-media-cdn.tripadvisor.com/media/photo-o/24/da/fa/da/caption.jpg?w=1000&s=1", "address": "137 Ikeshita Ura, Shirakawa 961-0826 Fukushima Prefecture", "lat": 37.107086, "lng": 140.21632, "ref_id": 9676593, "rating": 4, "num_reviews": 0, "website": null, "contact_phone": "+81 248-22-0165", "contact_email": null, "status": 1, "source_type": 1, "numberReviews": 2}, {"name": "Abukuma Parking Area (Kudari Sen) Snack Corner", "type": "restaurant", "image": "https://dynamic-media-cdn.tripadvisor.com/media/photo-o/0c/9e/f0/83/caption.jpg?w=1000&s=1", "address": "1-6 Izumida Komikubo Tohoku Expressway Outbound Abukuma PA, Shirakawa 961-0003 Fukushima Prefecture", "lat": 37.151245, "lng": 140.24136, "ref_id": 9676587, "rating": 3.5, "num_reviews": 0, "website": null, "contact_phone": "+81 248-22-5517", "contact_email": null, "status": 1, "source_type": 1, "numberReviews": 3}, {"name": "Kakoi Shokudo", "type": "restaurant", "image": "https://dynamic-media-cdn.tripadvisor.com/media/photo-o/10/53/02/61/caption.jpg?w=1000&s=1", "address": "65 Nakamachi, Shirakawa 961-0951 Fukushima Prefecture", "lat": 37.127712, "lng": 140.21236, "ref_id": 12813001, "rating": 5, "num_reviews": 0, "website": null, "contact_phone": "+81 248-24-7380", "contact_email": null, "status": 1, "source_type": 1, "numberReviews": 1}, {"name": "Tonkatsu Seisho", "type": "restaurant", "image": "https://dynamic-media-cdn.tripadvisor.com/media/photo-o/10/1b/33/4c/photo0jpg.jpg?w=1000&s=1", "address": "37 Ishizuka Kita, Nishigo-mura, Nishishirakawa-gun 961-8044 Fukushima Prefecture", "lat": 37.124573, "lng": 140.18068, "ref_id": 7497802, "rating": 4, "num_reviews": 0, "website": "http://nidaime-seisyo.gorp.jp/", "contact_phone": "+81 248-23-8880", "contact_email": null, "status": 1, "source_type": 1, "numberReviews": 2}, {"name": "Ramen Dokoro Kikuchu", "type": "restaurant", "image": "https://dynamic-media-cdn.tripadvisor.com/media/photo-o/05/d4/fe/6b/ramen-dokoro-kikuchu.jpg?w=1000&s=1", "address": "146 Kitanakagawara, Shirakawa 961-0054 Fukushima Prefecture", "lat": 37.122944, "lng": 140.22598, "ref_id": 6050100, "rating": 3.5, "num_reviews": 0, "website": null, "contact_phone": "+81 248-23-2829", "contact_email": null, "status": 1, "source_type": 1, "numberReviews": 6}, {"name": "Shichifuku", "type": "restaurant", "image": null, "address": "181-1 Hachimancho, Yabuki-machi, Nishishirakawa-gun Fukushima Prefecture", "lat": 37.196342, "lng": 140.32802, "ref_id": 7497860, "rating": 5, "num_reviews": 0, "website": null, "contact_phone": "+81 248-42-3571", "contact_email": null, "status": 1, "source_type": 1, "numberReviews": 1}, {"name": "Shirakawaya", "type": "restaurant", "image": null, "address": "22-1 Minami Mabune, Shirakawa 961-0982 Fukushima Prefecture", "lat": 37.130875, "lng": 140.19366, "ref_id": 9618372, "rating": 4, "num_reviews": 0, "website": null, "contact_phone": "+81 248-24-4977", "contact_email": null, "status": 1, "source_type": 1, "numberReviews": 1}, {"name": "Saizeriya Mega Stage Shirakawa", "type": "restaurant", "image": "https://dynamic-media-cdn.tripadvisor.com/media/photo-o/0b/10/f0/90/caption.jpg?w=1000&s=1", "address": "2-2-2 Shintakayama, Shirakawa 961-0853 Fukushima Prefecture", "lat": 37.11884, "lng": 140.19472, "ref_id": 9653597, "rating": 3.5, "num_reviews": 0, "website": "http://shop.saizeriya.co.jp/sz_restaurant/spot/detail?code=0189", "contact_phone": "+81 248-22-5137", "contact_email": null, "status": 1, "source_type": 1, "numberReviews": 3}, {"name": "Mensho Shirakawa", "type": "restaurant", "image": null, "address": "5-1 Ishiamida Shirasaka, Shirakawa Fukushima Prefecture", "lat": 37.09929, "lng": 140.21017, "ref_id": 7435862, "rating": 4, "num_reviews": 0, "website": null, "contact_phone": "+81 248-23-1066", "contact_email": null, "status": 1, "source_type": 1, "numberReviews": 2}, {"name": "Restaurant Fantasia", "type": "restaurant", "image": "https://dynamic-media-cdn.tripadvisor.com/media/photo-o/0f/31/3d/96/caption.jpg?w=1000&s=1", "address": "232 Toyohara Hei, Nasu-machi, Nasu-gun 329-3225 Tochigi Prefecture", "lat": 37.072186, "lng": 140.12578, "ref_id": 8549143, "rating": 3.5, "num_reviews": 0, "website": null, "contact_phone": "+81 287-72-5781", "contact_email": null, "status": 1, "source_type": 1, "numberReviews": 5}, {"name": "Wan Wan Ro", "type": "restaurant", "image": "https://dynamic-media-cdn.tripadvisor.com/media/photo-o/0d/33/d9/14/caption.jpg?w=1000&s=1", "address": "105-1 Tateishi, Shirakawa 961-0972 Fukushima Prefecture", "lat": 37.128418, "lng": 140.19887, "ref_id": 6043890, "rating": 4, "num_reviews": 0, "website": null, "contact_phone": "+81 248-22-1979", "contact_email": null, "status": 1, "source_type": 1, "numberReviews": 4}, {"name": "Maguroya", "type": "restaurant", "image": "https://dynamic-media-cdn.tripadvisor.com/media/photo-o/1b/58/98/55/photo2jpg.jpg?w=1000&s=1", "address": "25-1 Gobanchogawara Shirakawa in the Public Market, Shirakawa 961-0076 Fukushima Prefecture", "lat": 37.1348, "lng": 140.20084, "ref_id": 14741340, "rating": 4, "num_reviews": 0, "website": null, "contact_phone": "+81 248-23-6664", "contact_email": null, "status": 1, "source_type": 1, "numberReviews": 1}, {"name": "Kameya", "type": "restaurant", "image": "https://dynamic-media-cdn.tripadvisor.com/media/photo-o/1a/c4/1a/52/photo1jpg.jpg?w=1000&s=1", "address": "30 Dojo-Machi, Shirakawa Fukushima Prefecture", "lat": 37.128254, "lng": 140.20505, "ref_id": 7635701, "rating": 4, "num_reviews": 0, "website": null, "contact_phone": "+81 248-22-0460", "contact_email": null, "status": 1, "source_type": 1, "numberReviews": 1}, {"name": "Ikinari Steak Mega Stage Shirakawa", "type": "restaurant", "image": null, "address": "36-2 Shintakayama, Shirakawa 961-0853 Fukushima Prefecture", "lat": 37.118435, "lng": 140.19511, "ref_id": 15009402, "rating": 4, "num_reviews": 0, "website": "http://ikinaristeak.com/shopinfo/mega-sirakawa/", "contact_phone": "+81 248-21-5299", "contact_email": null, "status": 1, "source_type": 1, "numberReviews": 1}, {"name": "Sekimoritei", "type": "restaurant", "image": null, "address": "7-2 Hatajuku Shirakawauchi, Shirakawa Fukushima Prefecture", "lat": 37.04592, "lng": 140.22958, "ref_id": 7435847, "rating": 5, "num_reviews": 0, "website": null, "contact_phone": "+81 248-32-2922", "contact_email": null, "status": 1, "source_type": 1, "numberReviews": 1}, {"name": "Shokudo Agarane", "type": "restaurant", "image": null, "address": "214 Koyama Odagiri Isawa-Ku, Oshu Iwate Prefecture", "lat": 39.08517, "lng": 141.05199, "ref_id": 7533796, "rating": -1, "num_reviews": 0, "website": null, "contact_phone": "+81 197-47-2345", "contact_email": null, "status": 1, "source_type": 1, "numberReviews": 0}, {"name": "Kaga", "type": "restaurant", "image": null, "address": "23-2 Mizusawa-Ku Yokomachi, Oshu Iwate Prefecture", "lat": 39.139996, "lng": 141.1406, "ref_id": 7533572, "rating": -1, "num_reviews": 0, "website": null, "contact_phone": "+81 197-23-3275", "contact_email": null, "status": 1, "source_type": 1, "numberReviews": 0}, {"name": "Maruya Dumpling", "type": "restaurant", "image": null, "address": "4-13 Terakoji, Mizusawa-Ku, Oshu 023-0054 Iwate Prefecture", "lat": 39.143063, "lng": 141.13974, "ref_id": 13032361, "rating": -1, "num_reviews": 0, "website": null, "contact_phone": "+81 197-23-4394", "contact_email": null, "status": 1, "source_type": 1, "numberReviews": 0}, {"name": "Japanese Dining Shirokujichu Maesawa", "type": "restaurant", "image": null, "address": "2-85 Maesawa Mukaida Aeon Maesawa 2F, Oshu 029-4204 Iwate Prefecture", "lat": 39.052162, "lng": 141.12962, "ref_id": 14767659, "rating": -1, "num_reviews": 0, "website": "http://www.aeoneaheart.co.jp/wadining/index.html", "contact_phone": "+81 197-41-3163", "contact_email": null, "status": 1, "source_type": 1, "numberReviews": 0}, {"name": "Night Spot Swing", "type": "restaurant", "image": null, "address": "2-71 Terakoji Mizusawa-Ku, Oshu Iwate Prefecture", "lat": 39.140507, "lng": 141.14395, "ref_id": 7533616, "rating": -1, "num_reviews": 0, "website": null, "contact_phone": "+81 197-22-4767", "contact_email": null, "status": 1, "source_type": 1, "numberReviews": 0}, {"name": "Pizza&Bar122", "type": "restaurant", "image": null, "address": "112 Nakamachi, Mizusawa-Ku, Oshu 023-0813 Iwate Prefecture", "lat": 39.13938, "lng": 141.14557, "ref_id": 10657656, "rating": -1, "num_reviews": 0, "website": null, "contact_phone": "+81 90-5350-0122", "contact_email": null, "status": 1, "source_type": 1, "numberReviews": 0}, {"name": "Legend", "type": "restaurant", "image": null, "address": "23-41 Nakamachi, Mizusawa-ku, Oshu 023-0813 Iwate Prefecture", "lat": 39.138847, "lng": 141.14401, "ref_id": 13931910, "rating": -1, "num_reviews": 0, "website": null, "contact_phone": "+81 197-25-6688", "contact_email": null, "status": 1, "source_type": 1, "numberReviews": 0}, {"name": "Mizusaki Note", "type": "restaurant", "image": "https://dynamic-media-cdn.tripadvisor.com/media/photo-o/12/ae/ec/09/caption.jpg?w=1000&s=1", "address": "595-2 Aza Mizusaki Inase Esashi, Oshu 023-1132 Iwate Prefecture", "lat": 39.229923, "lng": 141.11674, "ref_id": 7533637, "rating": -1, "num_reviews": 0, "website": "http://www.facebook.com/mizusakinote/", "contact_phone": "+81 197-35-8548", "contact_email": "shop@mizusaki-note.com", "status": 1, "source_type": 1, "numberReviews": 0}, {"name": "Ijindori", "type": "restaurant", "image": null, "address": "42-2 Terakoji, Mizusawa-Ku, Oshu 023-0054 Iwate Prefecture", "lat": 39.14309, "lng": 141.13882, "ref_id": 13032204, "rating": -1, "num_reviews": 0, "website": null, "contact_phone": "+81 197-23-3936", "contact_email": null, "status": 1, "source_type": 1, "numberReviews": 0}, {"name": "Utagawa", "type": "restaurant", "image": null, "address": "56-5 Maeda Sakurakawa, Mizusawa-ku, Oshu 023-0003 Iwate Prefecture", "lat": 39.14743, "lng": 141.14761, "ref_id": 14771489, "rating": -1, "num_reviews": 0, "website": null, "contact_phone": "+81 197-25-2566", "contact_email": null, "status": 1, "source_type": 1, "numberReviews": 0}, {"name": "Chidasho Confectionery", "type": "restaurant", "image": null, "address": "8-26 Esashi-Ku Nakamachi, Oshu 023-1113 Iwate Prefecture", "lat": 39.550503, "lng": 141.65051, "ref_id": 13032084, "rating": -1, "num_reviews": 0, "website": null, "contact_phone": "+81 197-35-2336", "contact_email": null, "status": 1, "source_type": 1, "numberReviews": 0}, {"name": "Tokimi", "type": "restaurant", "image": null, "address": "25 Mizusawa-Ku Aza Terawaki, Oshu Iwate Prefecture", "lat": 39.14166, "lng": 141.14618, "ref_id": 7533607, "rating": -1, "num_reviews": 0, "website": null, "contact_phone": "+81 197-24-7209", "contact_email": null, "status": 1, "source_type": 1, "numberReviews": 0}, {"name": "Sobadokoro Momiji", "type": "restaurant", "image": null, "address": "2-1 Yokomachi Mizusawa-Ku, Oshu Iwate Prefecture", "lat": 39.14078, "lng": 141.14119, "ref_id": 7533604, "rating": -1, "num_reviews": 0, "website": null, "contact_phone": "+81 197-23-6623", "contact_email": null, "status": 1, "source_type": 1, "numberReviews": 0}, {"name": "Tsuge", "type": "restaurant", "image": null, "address": "2-6-41 Hanazonocho Mizusawa-Ku, Oshu Iwate Prefecture", "lat": 39.14141, "lng": 141.15715, "ref_id": 7664784, "rating": -1, "num_reviews": 0, "website": null, "contact_phone": "+81 197-23-6051", "contact_email": null, "status": 1, "source_type": 1, "numberReviews": 0}, {"name": "Shokuraku-En", "type": "restaurant", "image": null, "address": "1-11 Mizusawa Naka-Ku, Oshu Iwate Prefecture", "lat": 39.139977, "lng": 141.14465, "ref_id": 7533799, "rating": -1, "num_reviews": 0, "website": null, "contact_phone": "+81 197-24-8577", "contact_email": null, "status": 1, "source_type": 1, "numberReviews": 0}, {"name": "Tamaya", "type": "restaurant", "image": null, "address": "1-1 Gogota Maezawa-Ku, Oshu Iwate Prefecture", "lat": 39.052868, "lng": 141.13315, "ref_id": 7533771, "rating": -1, "num_reviews": 0, "website": null, "contact_phone": "+81 197-56-2192", "contact_email": null, "status": 1, "source_type": 1, "numberReviews": 0}, {"name": "Domburitei", "type": "restaurant", "image": null, "address": "6-39 Nishi Shinsaimachi, Tsuruoka 997-0045 Yamagata Prefecture", "lat": 38.734932, "lng": 139.811, "ref_id": 13813047, "rating": -1, "num_reviews": 0, "website": null, "contact_phone": "+81 235-25-8515", "contact_email": null, "status": 1, "source_type": 1, "numberReviews": 0}, {"name": "Shimeya", "type": "restaurant", "image": null, "address": "1-8-9 Honcho, Tsuruoka 997-0034 Yamagata Prefecture", "lat": 38.72594, "lng": 139.83195, "ref_id": 9669013, "rating": -1, "num_reviews": 0, "website": null, "contact_phone": "+81 235-22-0503", "contact_email": null, "status": 1, "source_type": 1, "numberReviews": 0}, {"name": "Shusaikou", "type": "restaurant", "image": null, "address": "2-1-6 Oyama, Tsuruoka 997-1124 Yamagata Prefecture", "lat": 38.74737, "lng": 139.7668, "ref_id": 13260129, "rating": -1, "num_reviews": 0, "website": null, "contact_phone": "+81 235-33-1567", "contact_email": null, "status": 1, "source_type": 1, "numberReviews": 0}, {"name": "Kumonoito Tsuruoka No.2", "type": "restaurant", "image": null, "address": "7-48 Showamachi, Tsuruoka 997-0027 Yamagata Prefecture", "lat": 38.72636, "lng": 139.83311, "ref_id": 15603712, "rating": -1, "num_reviews": 0, "website": "https://www.mokkedanofoods.com/", "contact_phone": null, "contact_email": null, "status": 1, "source_type": 1, "numberReviews": 0}, {"name": "Maruden Raamen", "type": "restaurant", "image": null, "address": "11-9 Nishishinsaimachi, Tsuruoka 997-0045 Yamagata Prefecture", "lat": 38.736904, "lng": 139.81316, "ref_id": 13263708, "rating": -1, "num_reviews": 0, "website": null, "contact_phone": "+81 235-33-8138", "contact_email": null, "status": 1, "source_type": 1, "numberReviews": 0}, {"name": "Bimi", "type": "restaurant", "image": null, "address": "188 Fudooka, Tsuruoka Yamagata Prefecture", "lat": 38.715412, "lng": 139.882, "ref_id": 7639119, "rating": -1, "num_reviews": 0, "website": null, "contact_phone": "+81 235-62-4855", "contact_email": null, "status": 1, "source_type": 1, "numberReviews": 0}, {"name": "Shakosakaba Haikara Hall Bistro", "type": "restaurant", "image": null, "address": "13-30 Suehiromachi, Tsuruoka 997-0015 Yamagata Prefecture", "lat": 38.7386, "lng": 139.83713, "ref_id": 13267211, "rating": -1, "num_reviews": 0, "website": null, "contact_phone": "+81 235-22-9121", "contact_email": null, "status": 1, "source_type": 1, "numberReviews": 0}, {"name": "Kibunya", "type": "restaurant", "image": null, "address": "26-51 Onishicho, Tsuruoka 997-0831 Yamagata Prefecture", "lat": 38.72684, "lng": 139.80922, "ref_id": 13259019, "rating": -1, "num_reviews": 0, "website": null, "contact_phone": "+81 235-25-8830", "contact_email": null, "status": 1, "source_type": 1, "numberReviews": 0}, {"name": "Bimi", "type": "restaurant", "image": null, "address": "18-1 Aza Miyanoshita Hie, Tsuruoka Yamagata Prefecture", "lat": 38.713715, "lng": 139.82008, "ref_id": 7629675, "rating": -1, "num_reviews": 0, "website": null, "contact_phone": "+81 235-25-4188", "contact_email": null, "status": 1, "source_type": 1, "numberReviews": 0}, {"name": "Obakoshokudo", "type": "restaurant", "image": null, "address": "6-11 Hiyoshimachi, Tsuruoka 997-0029 Yamagata Prefecture", "lat": 38.73531, "lng": 139.83423, "ref_id": 1698640, "rating": -1, "num_reviews": 0, "website": "", "contact_phone": "+81 235-22-6307", "contact_email": "", "status": 1, "source_type": 1, "numberReviews": 0}, {"name": "Robatayaki Tairyo", "type": "restaurant", "image": "https://dynamic-media-cdn.tripadvisor.com/media/photo-o/05/d5/cc/c4/robatayaki-tairyo.jpg?w=1000&s=1", "address": "10-2 Suehiromachi, Tsuruoka 997-0015 Yamagata Prefecture", "lat": 38.73763, "lng": 139.83723, "ref_id": 6043729, "rating": -1, "num_reviews": 0, "website": null, "contact_phone": "+81 235-25-1107", "contact_email": null, "status": 1, "source_type": 1, "numberReviews": 0}, {"name": "Anmol India Nepal Restaurant", "type": "restaurant", "image": null, "address": "56-1 Koyodokawa Aza Yachida, Tsuruoka 997-0853 Yamagata Prefecture", "lat": 38.733845, "lng": 139.79533, "ref_id": 13257141, "rating": -1, "num_reviews": 0, "website": null, "contact_phone": "+81 235-64-0336", "contact_email": null, "status": 1, "source_type": 1, "numberReviews": 0}, {"name": "Ichiryu Ramentsuruoka", "type": "restaurant", "image": null, "address": "26-13 Johokumachi, Tsuruoka Yamagata Prefecture", "lat": 38.736317, "lng": 139.81969, "ref_id": 7506572, "rating": -1, "num_reviews": 0, "website": null, "contact_phone": "+81 235-29-7750", "contact_email": null, "status": 1, "source_type": 1, "numberReviews": 0}, {"name": "Shokutsu", "type": "restaurant", "image": null, "address": "24-23 Choyocho, Tsuruoka Yamagata Prefecture", "lat": 38.726715, "lng": 139.84688, "ref_id": 7506720, "rating": -1, "num_reviews": 0, "website": null, "contact_phone": "+81 235-24-8908", "contact_email": null, "status": 1, "source_type": 1, "numberReviews": 0}, {"name": "Dosanko Hinode", "type": "restaurant", "image": null, "address": "1-4-8 Hinode, Tsuruoka Yamagata Prefecture", "lat": 38.72307, "lng": 139.84245, "ref_id": 7506497, "rating": -1, "num_reviews": 0, "website": null, "contact_phone": "+81 235-23-7046", "contact_email": null, "status": 1, "source_type": 1, "numberReviews": 0}, {"name": "Hanasaki", "type": "restaurant", "image": null, "address": "2-15-31 Honcho, Tsuruoka Yamagata Prefecture", "lat": 38.72294, "lng": 139.82735, "ref_id": 7506699, "rating": -1, "num_reviews": 0, "website": null, "contact_phone": "+81 235-25-6088", "contact_email": null, "status": 1, "source_type": 1, "numberReviews": 0}, {"name": "Furusato", "type": "restaurant", "image": null, "address": "3-34 Sengoku-Machi, Tsuruoka Yamagata Prefecture", "lat": 38.71872, "lng": 139.82986, "ref_id": 7633767, "rating": -1, "num_reviews": 0, "website": null, "contact_phone": "+81 235-24-8280", "contact_email": null, "status": 1, "source_type": 1, "numberReviews": 0}, {"name": "Matsunoya", "type": "restaurant", "image": null, "address": "1-3-20 Honcho, Tsuruoka Yamagata Prefecture", "lat": 38.728294, "lng": 139.83363, "ref_id": 7506663, "rating": -1, "num_reviews": 0, "website": null, "contact_phone": "+81 235-29-4150", "contact_email": null, "status": 1, "source_type": 1, "numberReviews": 0}, {"name": "Kikuta Genghis Khan House", "type": "restaurant", "image": null, "address": "43-2 Toge Haguro, Hagurocho, Tsuruoka 997-0211 Yamagata Prefecture", "lat": 38.68522, "lng": 139.9823, "ref_id": 9680364, "rating": -1, "num_reviews": 0, "website": null, "contact_phone": "+81 235-62-4559", "contact_email": null, "status": 1, "source_type": 1, "numberReviews": 0}, {"name": "Pub Rest Colony", "type": "restaurant", "image": null, "address": "1-20 Higashiharamachi, Tsuruoka 997-0801 Yamagata Prefecture", "lat": 38.721977, "lng": 139.84361, "ref_id": 19263562, "rating": -1, "num_reviews": 0, "website": null, "contact_phone": "+81 235-29-0228", "contact_email": null, "status": 1, "source_type": 1, "numberReviews": 0}, {"name": "Arima", "type": "restaurant", "image": null, "address": "6-14 Mutsumimachi, Tsuruoka 997-0817 Yamagata Prefecture", "lat": 38.72057, "lng": 139.82881, "ref_id": 13270299, "rating": -1, "num_reviews": 0, "website": null, "contact_phone": "+81 235-25-6505", "contact_email": null, "status": 1, "source_type": 1, "numberReviews": 0}, {"name": "Yakitori Hatsumago", "type": "restaurant", "image": null, "address": "2-2-60 Honcho, Tsuruoka Yamagata Prefecture", "lat": 38.725517, "lng": 139.82915, "ref_id": 7506554, "rating": -1, "num_reviews": 0, "website": null, "contact_phone": "+81 235-22-0815", "contact_email": null, "status": 1, "source_type": 1, "numberReviews": 0}, {"name": "Tonkatsu Ichidai", "type": "restaurant", "image": "https://dynamic-media-cdn.tripadvisor.com/media/photo-o/14/31/5e/32/photo1jpg.jpg?w=1000&s=1", "address": "2-17-35 Yawata, Tagajo Qu\u00e2\u0323n Miyagi", "lat": 38.28539, "lng": 141.00249, "ref_id": 7514449, "rating": 3.5, "num_reviews": 0, "website": null, "contact_phone": "+81 22-367-9088", "contact_email": null, "status": 1, "source_type": 1, "numberReviews": 2}, {"name": "Kourakuen Izumi Yaotome", "type": "restaurant", "image": "https://dynamic-media-cdn.tripadvisor.com/media/photo-o/18/a0/29/f8/caption.jpg?w=1000&s=1", "address": "1-4 Matsumori Maeda Izumi-Ku, Sendai 981-3111 Qu\u00e2\u0323n Miyagi", "lat": 38.307785, "lng": 140.90193, "ref_id": 7643106, "rating": 3, "num_reviews": 0, "website": "https://stores.kourakuen.co.jp/20622", "contact_phone": "+81 22-771-6722", "contact_email": null, "status": 1, "source_type": 1, "numberReviews": 6}, {"name": "Yatai Ramen Kashimadai", "type": "restaurant", "image": "https://dynamic-media-cdn.tripadvisor.com/media/photo-o/07/58/3c/a7/caption.jpg?w=1000&s=1", "address": "237-1 Koyachi, Kashimadaikimazuka, Osaki 989-4102 Qu\u00e2\u0323n Miyagi", "lat": 38.47838, "lng": 141.1039, "ref_id": 7692356, "rating": 4, "num_reviews": 0, "website": null, "contact_phone": "+81 229-56-5518", "contact_email": null, "status": 1, "source_type": 1, "numberReviews": 1}, {"name": "Kodaikomeya Restaurant Green Geiburu", "type": "restaurant", "image": null, "address": "1-22-1 Takasaki, Tagajo Qu\u00e2\u0323n Miyagi", "lat": 38.29968, "lng": 140.99408, "ref_id": 7636209, "rating": 3.5, "num_reviews": 0, "website": null, "contact_phone": "+81 22-368-0101", "contact_email": null, "status": 1, "source_type": 1, "numberReviews": 2}, {"name": "Cafe 336", "type": "restaurant", "image": null, "address": "2-22-1 Oshimizu S-Court Oshimizu Shopping Center, Tomiya 981-3329 Qu\u00e2\u0323n Miyagi", "lat": 38.365616, "lng": 140.88187, "ref_id": 7613154, "rating": 4, "num_reviews": 0, "website": null, "contact_phone": "+81 22-341-3035", "contact_email": null, "status": 1, "source_type": 1, "numberReviews": 1}, {"name": "Shiogamatei", "type": "restaurant", "image": null, "address": "1-14-1 Shinhamacho, Shiogama Qu\u00e2\u0323n Miyagi", "lat": 38.326073, "lng": 141.03992, "ref_id": 1694245, "rating": 4, "num_reviews": 0, "website": null, "contact_phone": "+81 22-363-1331", "contact_email": "", "status": 1, "source_type": 1, "numberReviews": 1}, {"name": "Kyotoen", "type": "restaurant", "image": null, "address": "2-21 Shirahagimachi, Shiogama 985-0032 Qu\u00e2\u0323n Miyagi", "lat": 38.309444, "lng": 141.01175, "ref_id": 3829796, "rating": 4, "num_reviews": 0, "website": null, "contact_phone": "+81 22-364-8974", "contact_email": null, "status": 1, "source_type": 1, "numberReviews": 1}, {"name": "Kourakuen Sendai Nakano", "type": "restaurant", "image": "https://dynamic-media-cdn.tripadvisor.com/media/photo-o/12/16/0b/d2/kimg0101-largejpg.jpg?w=1000&s=1", "address": "4-1-7 Nakano Miyagino-Ku, Sendai 983-0013 Qu\u00e2\u0323n Miyagi", "lat": 38.267883, "lng": 140.97652, "ref_id": 7454927, "rating": 3, "num_reviews": 0, "website": "https://stores.kourakuen.co.jp/20619", "contact_phone": "+81 22-388-9380", "contact_email": null, "status": 1, "source_type": 1, "numberReviews": 5}, {"name": "Uotami Taga Castle", "type": "restaurant", "image": "https://dynamic-media-cdn.tripadvisor.com/media/photo-o/0d/a4/84/dd/caption.jpg?w=1000&s=1", "address": "1-2-35 Yawata Across Plaza Tagajo 1F, Tagajo 985-0874 Qu\u00e2\u0323n Miyagi", "lat": 38.28441, "lng": 140.99362, "ref_id": 9679499, "rating": 3.5, "num_reviews": 0, "website": null, "contact_phone": "+81 22-366-3988", "contact_email": null, "status": 1, "source_type": 1, "numberReviews": 3}, {"name": "Shoginan", "type": "restaurant", "image": "https://dynamic-media-cdn.tripadvisor.com/media/photo-o/12/d9/96/cf/photo0jpg.jpg?w=1000&s=1", "address": "75-14 Matsushima Matsushima-Machi 3f, Matsushima-machi, Miyagi-gun 981-0213 Qu\u00e2\u0323n Miyagi", "lat": 38.369984, "lng": 141.06227, "ref_id": 6070694, "rating": 3, "num_reviews": 0, "website": null, "contact_phone": "+81 22-355-0611", "contact_email": null, "status": 1, "source_type": 1, "numberReviews": 9}, {"name": "Tenka Ippin Akashidai", "type": "restaurant", "image": "https://dynamic-media-cdn.tripadvisor.com/media/photo-o/15/1a/47/70/caption.jpg?w=1000&s=1", "address": "6-1 Akashidai, Tomiya Qu\u00e2\u0323n Miyagi", "lat": 38.348053, "lng": 140.8931, "ref_id": 7496932, "rating": 3, "num_reviews": 0, "website": null, "contact_phone": "+81 22-346-0639", "contact_email": null, "status": 1, "source_type": 1, "numberReviews": 10}, {"name": "Shunkai", "type": "restaurant", "image": null, "address": "51-2 Chonai, Matsushima-machi, Miyagi-gun 981-0213 Qu\u00e2\u0323n Miyagi", "lat": 38.37023, "lng": 141.06001, "ref_id": 7671101, "rating": 3, "num_reviews": 0, "website": "http://www.sensinan.co.jp/syunkai/", "contact_phone": "+81 22-353-4131", "contact_email": null, "status": 1, "source_type": 1, "numberReviews": 3}, {"name": "McDonald's Tagajo", "type": "restaurant", "image": "https://dynamic-media-cdn.tripadvisor.com/media/photo-o/15/19/dd/bf/2018-10-20-12-23-50-largejpg.jpg?w=1000&s=1", "address": "2-3-12 Machimae, Tagajo 985-0845 Qu\u00e2\u0323n Miyagi", "lat": 38.286037, "lng": 141.0051, "ref_id": 8418963, "rating": 3, "num_reviews": 0, "website": "http://map.mcdonalds.co.jp/map/04552", "contact_phone": "+81 22-366-2530", "contact_email": null, "status": 1, "source_type": 1, "numberReviews": 9}, {"name": "Chikutei Main Store", "type": "restaurant", "image": "https://dynamic-media-cdn.tripadvisor.com/media/photo-o/18/3a/cf/0e/photo1jpg.jpg?w=1000&s=1", "address": "1-53-22 Nankodaihigashi Izumi-Ku, Sendai Qu\u00e2\u0323n Miyagi", "lat": 38.296616, "lng": 140.90746, "ref_id": 7455129, "rating": 3, "num_reviews": 0, "website": null, "contact_phone": "+81 22-252-5030", "contact_email": null, "status": 1, "source_type": 1, "numberReviews": 7}, {"name": "Koryu", "type": "restaurant", "image": "https://dynamic-media-cdn.tripadvisor.com/media/photo-o/16/3c/1d/da/photo0jpg.jpg?w=1000&s=1", "address": "433-7 Kawado Yamoto, Higashimatsushima 981-0503 Qu\u00e2\u0323n Miyagi", "lat": 38.420597, "lng": 141.20683, "ref_id": 13156346, "rating": 3, "num_reviews": 0, "website": null, "contact_phone": "+81 225-83-1253", "contact_email": null, "status": 1, "source_type": 1, "numberReviews": 2}, {"name": "Ikoi No Kukan Men Koi", "type": "restaurant", "image": "https://dynamic-media-cdn.tripadvisor.com/media/photo-o/2a/0b/69/88/caption.jpg?w=1000&s=1", "address": "3-3-23 Machimae, Tagajo 985-0845 Qu\u00e2\u0323n Miyagi", "lat": 38.28777, "lng": 141.01015, "ref_id": 14856295, "rating": 3, "num_reviews": 0, "website": "http://snack-bar-1156.business.site/", "contact_phone": "+81 22-354-1956", "contact_email": null, "status": 1, "source_type": 1, "numberReviews": 1}, {"name": "Shina Soba Isaribi", "type": "restaurant", "image": null, "address": "2-9-26 Geba, Tagajo 985-0835 Qu\u00e2\u0323n Miyagi", "lat": 38.305553, "lng": 141.0167, "ref_id": 13035830, "rating": 3, "num_reviews": 0, "website": null, "contact_phone": "+81 22-366-7312", "contact_email": null, "status": 1, "source_type": 1, "numberReviews": 1}, {"name": "McDonald's Route 45 Shiogama", "type": "restaurant", "image": null, "address": "3-1-1 Suginoiri, Shiogama 985-0005 Qu\u00e2\u0323n Miyagi", "lat": 38.33157, "lng": 141.03812, "ref_id": 6060313, "rating": 3, "num_reviews": 0, "website": null, "contact_phone": "+81 22-361-7806", "contact_email": null, "status": 1, "source_type": 1, "numberReviews": 2}, {"name": "Shokuji Dokoro Takaraya", "type": "restaurant", "image": null, "address": "78-2 Nakamura Yashikimae, Osato-cho, Kurokawa-gun 981-3521 Qu\u00e2\u0323n Miyagi", "lat": 38.4165, "lng": 141.00072, "ref_id": 10014275, "rating": 3, "num_reviews": 0, "website": null, "contact_phone": "+81 22-359-5510", "contact_email": null, "status": 1, "source_type": 1, "numberReviews": 1}, {"name": "Kourakuen Shiogama", "type": "restaurant", "image": null, "address": "7-15, Shintomicho, Shiogama 985-0022 Qu\u00e2\u0323n Miyagi", "lat": 38.313828, "lng": 141.02502, "ref_id": 7514163, "rating": 3, "num_reviews": 0, "website": "https://stores.kourakuen.co.jp/20459", "contact_phone": "+81 22-361-3383", "contact_email": null, "status": 1, "source_type": 1, "numberReviews": 2}, {"name": "Yakitori Daikichitagajo", "type": "restaurant", "image": null, "address": "2-4-30 Geba, Tagajo Qu\u00e2\u0323n Miyagi", "lat": 38.303177, "lng": 141.01653, "ref_id": 7514465, "rating": 3, "num_reviews": 0, "website": null, "contact_phone": "+81 22-362-7135", "contact_email": null, "status": 1, "source_type": 1, "numberReviews": 1},