[{"name": "Waffle Factory Mayol", "type": "restaurant", "image": "https://dynamic-media-cdn.tripadvisor.com/media/photo-o/1a/cc/69/37/miamm.jpg?w=1000&s=1", "address": "Rue du Murier Centre Commercial Mayol, 83000 Toulon France", "lat": 43.120293, "lng": 5.93521, "ref_id": 19951755, "rating": 4, "num_reviews": 0, "website": "http://toulon.wafflefactory.com", "contact_phone": "+33 4 94 87 63 85", "contact_email": "toulon@wafflefactory.com", "status": 1, "source_type": 1, "numberReviews": 7}, {"name": "La Kasbah restaurant", "type": "restaurant", "image": "https://dynamic-media-cdn.tripadvisor.com/media/photo-o/2a/77/16/4a/caption.jpg?w=1000&s=1", "address": "Quai de Sinse, Toulon France", "lat": 43.11917, "lng": 5.93411, "ref_id": 25694254, "rating": 3.5, "num_reviews": 0, "website": null, "contact_phone": null, "contact_email": null, "status": 1, "source_type": 1, "numberReviews": 14}, {"name": "Snack St Anne", "type": "restaurant", "image": null, "address": "33 boulevard Sainte Anne, 83000 Toulon France", "lat": 43.13146, "lng": 5.93249, "ref_id": 12537617, "rating": 4.5, "num_reviews": 0, "website": null, "contact_phone": null, "contact_email": null, "status": 1, "source_type": 1, "numberReviews": 4}, {"name": "Il Pizza\u00efolo", "type": "restaurant", "image": "https://dynamic-media-cdn.tripadvisor.com/media/photo-o/14/09/a5/bb/img-20180720-204814-largejpg.jpg?w=1000&s=1", "address": "10 Place Paul Flamencq, 83220 Le Pradet France", "lat": 43.10638, "lng": 6.022023, "ref_id": 7234621, "rating": 3.5, "num_reviews": 0, "website": "http://www.pizza-du-pradet.fr/", "contact_phone": "+33 4 94 14 07 02", "contact_email": null, "status": 1, "source_type": 1, "numberReviews": 34}, {"name": "Beausset pizza", "type": "restaurant", "image": "https://dynamic-media-cdn.tripadvisor.com/media/photo-o/14/36/ea/03/photo0jpg.jpg?w=1000&s=1", "address": "40 boulevard Chanzy, 83330 Le Beausset France", "lat": 43.19643, "lng": 5.80556, "ref_id": 4580495, "rating": 3.5, "num_reviews": 0, "website": "http://www.facebook.com/pages/BEAUSSET-PIZZA/214859181175", "contact_phone": "+33 4 94 90 11 11", "contact_email": null, "status": 1, "source_type": 1, "numberReviews": 42}, {"name": "Lucas Pizza", "type": "restaurant", "image": "https://dynamic-media-cdn.tripadvisor.com/media/photo-o/2c/88/9b/a6/caption.jpg?w=1000&s=1", "address": "319 Avenue La\u00ebnnec, 83140, Six-Fours-les-Plages France", "lat": 43.092236, "lng": 5.831696, "ref_id": 23263157, "rating": 5, "num_reviews": 0, "website": "https://www.facebook.com/110722640707405", "contact_phone": "+33 4 94 34 61 44", "contact_email": "lulu07121998@gmail.com", "status": 1, "source_type": 1, "numberReviews": 2}, {"name": "Cr\u00eapes 4 You", "type": "restaurant", "image": "https://dynamic-media-cdn.tripadvisor.com/media/photo-o/1c/2e/a5/e4/bubble-waffle-chanilly.jpg?w=1000&s=1", "address": "38 quai Lazare Hoche, 83500 La Seyne-sur-Mer France", "lat": 43.10272, "lng": 5.88132, "ref_id": 20208769, "rating": 3.5, "num_reviews": 0, "website": "http://crepes4you.fr", "contact_phone": "+33 4 89 79 44 39", "contact_email": null, "status": 1, "source_type": 1, "numberReviews": 11}, {"name": "Sushi or not Sushi", "type": "restaurant", "image": "https://dynamic-media-cdn.tripadvisor.com/media/photo-o/16/dc/d8/ac/pour-venir-dejeuner-diner.jpg?w=1000&s=1", "address": "3 B rue Giboin, 83110 Sanary-sur-Mer France", "lat": 43.1173, "lng": 5.804901, "ref_id": 10537379, "rating": 3.5, "num_reviews": 0, "website": "http://www.sushiornotsushi.com", "contact_phone": "+33 4 94 32 28 78", "contact_email": "sushiornotsushisana@gmail.com", "status": 1, "source_type": 1, "numberReviews": 56}, {"name": "Coudou Snack", "type": "restaurant", "image": "https://dynamic-media-cdn.tripadvisor.com/media/photo-o/0c/43/aa/00/20160727-215239-largejpg.jpg?w=1000&s=1", "address": "La Coudouliere Centre Commercial de Port Helena, 83140, Six-Fours-les-Plages France", "lat": 43.09845, "lng": 5.82143, "ref_id": 6953445, "rating": 3.5, "num_reviews": 0, "website": "https://www.coudouliere.fr/commerces/coudou-snack.html", "contact_phone": "+33 6 03 68 65 12", "contact_email": null, "status": 1, "source_type": 1, "numberReviews": 17}, {"name": "Cabana Pizza", "type": "restaurant", "image": "https://dynamic-media-cdn.tripadvisor.com/media/photo-o/16/bb/7b/aa/cabana-pizza.jpg?w=1000&s=1", "address": "3219 avenue de la Resistance, 83000 Toulon France", "lat": 43.10994, "lng": 5.97991, "ref_id": 5981512, "rating": 4.5, "num_reviews": 0, "website": "http://www.cabanapizza.com/", "contact_phone": "+33 4 94 65 19 73", "contact_email": null, "status": 1, "source_type": 1, "numberReviews": 5}, {"name": "Au Boucanier", "type": "restaurant", "image": "https://dynamic-media-cdn.tripadvisor.com/media/photo-o/12/66/be/39/au-boucanier-depuis-1965.jpg?w=1000&s=1", "address": "13 rue du Docteur Louis Marcon, 83150, Bandol France", "lat": 43.137234, "lng": 5.756811, "ref_id": 1171363, "rating": 3, "num_reviews": 0, "website": "http://www.facebook.com/pages/Au%20Boucanier/152810334750953/", "contact_phone": "+33 4 94 29 46 28", "contact_email": "", "status": 1, "source_type": 1, "numberReviews": 419}, {"name": "La Civette des Sports", "type": "restaurant", "image": "https://dynamic-media-cdn.tripadvisor.com/media/photo-o/08/cd/49/41/civette-des-sports.jpg?w=1000&s=1", "address": "486 avenue Colonel Picot, 83100 Toulon France", "lat": 43.1272, "lng": 5.962364, "ref_id": 7649594, "rating": 5, "num_reviews": 0, "website": null, "contact_phone": "+33 4 94 27 35 66", "contact_email": null, "status": 1, "source_type": 1, "numberReviews": 6}, {"name": "Chamas Tacos Grand Var", "type": "restaurant", "image": "https://dynamic-media-cdn.tripadvisor.com/media/photo-o/28/f9/ca/37/chamas-tacos-grand-var.jpg?w=1000&s=1", "address": "Centre Commercial Grand Var Est 1120 Chemin des Plantades, 83130 La Garde France", "lat": 43.14077, "lng": 6.018048, "ref_id": 25453631, "rating": 3.5, "num_reviews": 0, "website": "https://chamas-tacos.com/", "contact_phone": "+33 4 22 80 57 30", "contact_email": "chamastacoslagarde@gmail.com", "status": 1, "source_type": 1, "numberReviews": 9}, {"name": "Napoli Pizza", "type": "restaurant", "image": "https://dynamic-media-cdn.tripadvisor.com/media/photo-o/1c/f8/41/a0/bombon-camembert.jpg?w=1000&s=1", "address": "97 Rue De La R\u00e9publique 83210 Derri\u00e8re l \u00e9glise sur la terrasse de la broche farledoise, 83210 La Farlede France", "lat": 43.16154, "lng": 6.04238, "ref_id": 23381347, "rating": 5, "num_reviews": 0, "website": null, "contact_phone": "+33 6 14 72 90 34", "contact_email": null, "status": 1, "source_type": 1, "numberReviews": 2}, {"name": "La F\u00e9licita", "type": "restaurant", "image": "https://dynamic-media-cdn.tripadvisor.com/media/photo-o/1d/d5/21/49/felicita.jpg?w=1000&s=1", "address": "59 quai Charles de Gaulle, 83150, Bandol France", "lat": 43.13698, "lng": 5.76009, "ref_id": 23631192, "rating": 4, "num_reviews": 0, "website": null, "contact_phone": "+33 9 87 77 25 88", "contact_email": null, "status": 1, "source_type": 1, "numberReviews": 5}, {"name": "Bar le Royal", "type": "restaurant", "image": "https://dynamic-media-cdn.tripadvisor.com/media/photo-o/18/54/16/cb/bar-le-royal-a-toulon.jpg?w=1000&s=1", "address": "3 rue Bertholet, 83000 Toulon France", "lat": 43.12472, "lng": 5.93032, "ref_id": 17728754, "rating": 5, "num_reviews": 0, "website": "http://www.barleroyal.com/", "contact_phone": "+33 6 29 69 20 96", "contact_email": null, "status": 1, "source_type": 1, "numberReviews": 3}, {"name": "Le Wizz", "type": "restaurant", "image": "https://dynamic-media-cdn.tripadvisor.com/media/photo-o/1a/ff/5e/9d/brochette-de-chiperons.jpg?w=1000&s=1", "address": "Avenue Marechal Alphonse Juin, 83160 La Valette-du-Var France", "lat": 43.13756, "lng": 6.002429, "ref_id": 17387880, "rating": 4.5, "num_reviews": 0, "website": "https://www.facebook.com/Le-Wizz-Squash-Club-Restaurant-210924102430980/", "contact_phone": "+33 4 94 21 38 72", "contact_email": "contact@le-wizz.com", "status": 1, "source_type": 1, "numberReviews": 4}, {"name": "La Sagno", "type": "restaurant", "image": "https://dynamic-media-cdn.tripadvisor.com/media/photo-o/07/41/cd/a6/la-sagno.jpg?w=1000&s=1", "address": "10 quai Saturnin Fabre, 83500 La Seyne-sur-Mer France", "lat": 43.10156, "lng": 5.88152, "ref_id": 1331362, "rating": 3, "num_reviews": 0, "website": "http://www.facebook.com/NAULAGURME/", "contact_phone": "+33 4 94 06 75 99", "contact_email": "", "status": 1, "source_type": 1, "numberReviews": 72}, {"name": "L'Emporter", "type": "restaurant", "image": null, "address": "227 Chemin de la Reppe, 83330 Evenos France", "lat": 43.17506, "lng": 5.828744, "ref_id": 19746491, "rating": 4.5, "num_reviews": 0, "website": "https://www.facebook.com/pages/category/Sandwich-Shop/LEmporter-1755366094749422/", "contact_phone": "+33 4 98 03 05 79", "contact_email": null, "status": 1, "source_type": 1, "numberReviews": 3}, {"name": "Impression de Vin", "type": "restaurant", "image": null, "address": "rue Lauzet-A\u00een\u00e9, Sanary-sur-Mer France", "lat": 43.11722, "lng": 5.80003, "ref_id": 3707708, "rating": 5, "num_reviews": 0, "website": null, "contact_phone": null, "contact_email": null, "status": 1, "source_type": 1, "numberReviews": 7}, {"name": "Mano Divino", "type": "restaurant", "image": null, "address": "11 rue Pierre Semard Place de L'Equerre, 83000 Toulon France", "lat": 43.12272, "lng": 5.930548, "ref_id": 25569964, "rating": 3.5, "num_reviews": 0, "website": "https://www.facebook.com/119844807721559", "contact_phone": "+33 6 02 04 97 74", "contact_email": null, "status": 1, "source_type": 1, "numberReviews": 7}, {"name": "Rinetta Pizzeria", "type": "restaurant", "image": "https://dynamic-media-cdn.tripadvisor.com/media/photo-o/1a/d9/dd/fa/getlstd-property-photo.jpg?w=1000&s=1", "address": "143 rue de la Republique, 83210 Sollies-Pont France", "lat": 43.18702, "lng": 6.04015, "ref_id": 20088516, "rating": 5, "num_reviews": 0, "website": "http://rinetta-pizzeria.business.site/?utm_source=gmb&utm_medium=referral", "contact_phone": "+33 4 94 13 01 98", "contact_email": null, "status": 1, "source_type": 1, "numberReviews": 2}, {"name": "Bar Tabac du Plan", "type": "restaurant", "image": "https://dynamic-media-cdn.tripadvisor.com/media/photo-o/0f/08/da/03/le-bar-a-cote.jpg?w=1000&s=1", "address": "84 rue des Micocouliers, 83330 Le Castellet France", "lat": 43.17687, "lng": 5.77363, "ref_id": 12006362, "rating": 4, "num_reviews": 0, "website": null, "contact_phone": "+33 4 94 07 63 53", "contact_email": null, "status": 1, "source_type": 1, "numberReviews": 13}, {"name": "Le Bellevue", "type": "restaurant", "image": "https://dynamic-media-cdn.tripadvisor.com/media/photo-o/18/98/e3/00/le-bellevue.jpg?w=1000&s=1", "address": "26 quai Jules Guesde, 83430 Saint-Mandrier-sur-Mer France", "lat": 43.078743, "lng": 5.923388, "ref_id": 14790561, "rating": 4, "num_reviews": 0, "website": "https://www.facebook.com/Le-Bellevue-229882000992056/", "contact_phone": "+33 4 94 63 92 72", "contact_email": null, "status": 1, "source_type": 1, "numberReviews": 11}, {"name": "Le Besagne", "type": "restaurant", "image": "https://dynamic-media-cdn.tripadvisor.com/media/photo-o/25/19/6b/95/logo.jpg?w=1000&s=1", "address": "9 Rue Dutasta, 83000 Toulon France", "lat": 43.11907, "lng": 5.935334, "ref_id": 24832267, "rating": 5, "num_reviews": 0, "website": "https://www.facebook.com/lebesagne/?_rdr", "contact_phone": "+33 6 12 33 25 99", "contact_email": "Lebesagne.toulon@gmail.com", "status": 1, "source_type": 1, "numberReviews": 2}, {"name": "Pizz'atomic", "type": "restaurant", "image": null, "address": "1 avenue Mirasouleou, 83160 La Valette-du-Var France", "lat": 43.135185, "lng": 5.977786, "ref_id": 23544593, "rating": 5, "num_reviews": 0, "website": "http://www.pizzatomic.fr", "contact_phone": "+33 4 94 20 69 36", "contact_email": "sascowabunga@gmail.com", "status": 1, "source_type": 1, "numberReviews": 2}, {"name": "Le Cazou Croc'bar D\u00e9lice", "type": "restaurant", "image": "https://dynamic-media-cdn.tripadvisor.com/media/photo-o/18/80/f3/10/le-cazou-croc-bar-delice.jpg?w=1000&s=1", "address": "2110 route des 3 pins RD 559 Carqueiranne, 83320 Carqueiranne France", "lat": 43.10766, "lng": 6.04954, "ref_id": 17778102, "rating": 4.5, "num_reviews": 0, "website": null, "contact_phone": "+33 7 67 51 20 09", "contact_email": null, "status": 1, "source_type": 1, "numberReviews": 4}, {"name": "Chez Francky", "type": "restaurant", "image": "https://dynamic-media-cdn.tripadvisor.com/media/photo-o/18/f3/d8/64/img-20190826-090943-largejpg.jpg?w=1000&s=1", "address": "Chemin de l'Enclos Parking caisse d'epargne, 83210 Sollies-Pont France", "lat": 43.19288, "lng": 6.03922, "ref_id": 13374182, "rating": 4, "num_reviews": 0, "website": "https://www.facebook.com/chezfrancky83210/", "contact_phone": "+33 4 94 08 50 49", "contact_email": null, "status": 1, "source_type": 1, "numberReviews": 6}, {"name": "Emirates Burger", "type": "restaurant", "image": "https://dynamic-media-cdn.tripadvisor.com/media/photo-o/1b/c8/62/2b/photo2jpg.jpg?w=1000&s=1", "address": "2 Rue Gambetta, 83500 La Seyne-sur-Mer France", "lat": 43.1024, "lng": 5.87977, "ref_id": 10770362, "rating": 4, "num_reviews": 0, "website": "https://www.facebook.com/EmiratesBurger/", "contact_phone": null, "contact_email": null, "status": 1, "source_type": 1, "numberReviews": 13}, {"name": "\u00c0 Table ! Chez Marinette.", "type": "restaurant", "image": "https://dynamic-media-cdn.tripadvisor.com/media/photo-o/2b/f3/53/60/caption.jpg?w=1000&s=1", "address": "Place De L'ormeau, 11300 Pieusse France", "lat": 43.2029, "lng": 5.775459, "ref_id": 27700710, "rating": 4.5, "num_reviews": 0, "website": "www.atablechezmarinette.fr", "contact_phone": "+33 6 83 13 93 64", "contact_email": "contact@atablechezmarinette.fr", "status": 1, "source_type": 1, "numberReviews": 2}, {"name": "Les Pins Penches", "type": "restaurant", "image": "https://dynamic-media-cdn.tripadvisor.com/media/photo-o/26/32/13/7e/une-des-terrasse.jpg?w=1000&s=1", "address": "3182 Avenue de la Resistance, 83000 Toulon France", "lat": 43.108986, "lng": 5.979832, "ref_id": 819661, "rating": 4, "num_reviews": 0, "website": "https://www.facebook.com/LesPinsPenches", "contact_phone": "+33 4 94 27 98 98", "contact_email": "contact@lespinspenches.com", "status": 1, "source_type": 1, "numberReviews": 1017}, {"name": "Dijo", "type": "restaurant", "image": "https://dynamic-media-cdn.tripadvisor.com/media/photo-o/13/09/38/ab/dans-un-ancien-moulin.jpg?w=1000&s=1", "address": "15 avenue Baptistin Autran, 83130 La Garde France", "lat": 43.12544, "lng": 6.011138, "ref_id": 10903573, "rating": 4.5, "num_reviews": 0, "website": "http://www.facebook.com/onnestpaslapouretreicii/", "contact_phone": "+33 9 86 67 32 56", "contact_email": "dimitri.drioli@gmail.com", "status": 1, "source_type": 1, "numberReviews": 214}, {"name": "La Bastide Enchant\u00e9e", "type": "restaurant", "image": "https://dynamic-media-cdn.tripadvisor.com/media/photo-o/12/f9/00/a1/souffle-aux-gambas-mai.jpg?w=1000&s=1", "address": "Les Hauts de Guiran, 83210 Sollies-Toucas France", "lat": 43.225857, "lng": 6.015429, "ref_id": 1494704, "rating": 4, "num_reviews": 0, "website": "http://www.restaurant-labastideenchantee.com/", "contact_phone": "+33 4 94 48 95 55", "contact_email": "info@restaurant-labastideenchantee.com", "status": 1, "source_type": 1, "numberReviews": 936}, {"name": "L'oustaou", "type": "restaurant", "image": "https://dynamic-media-cdn.tripadvisor.com/media/photo-o/1d/bb/d9/16/20210828-204009-largejpg.jpg?w=1000&s=1", "address": "Esplanade Henri Boeuf, 83500 La Seyne-sur-Mer France", "lat": 43.078773, "lng": 5.893973, "ref_id": 4782582, "rating": 4, "num_reviews": 0, "website": "http://saveurs.oustaou.free.fr/accueil/index.htm", "contact_phone": "+33 4 94 06 44 39", "contact_email": "resto-oustaou@neuf.fr", "status": 1, "source_type": 1, "numberReviews": 493}, {"name": "La Petite Cabane", "type": "restaurant", "image": "https://dynamic-media-cdn.tripadvisor.com/media/photo-o/21/ab/2c/32/brunch-dimanche-12-decembre.jpg?w=1000&s=1", "address": "326 Prom Charles de Gaulle, 83140, Six-Fours-les-Plages France", "lat": 43.11069, "lng": 5.812698, "ref_id": 23730642, "rating": 4.5, "num_reviews": 0, "website": "https://bookings.zenchef.com/results?rid=363098&pid=1001", "contact_phone": "+33 4 94 07 15 84", "contact_email": "lapetitecabane1@gmail.com", "status": 1, "source_type": 1, "numberReviews": 79}, {"name": "La Colombe", "type": "restaurant", "image": "https://dynamic-media-cdn.tripadvisor.com/media/photo-o/15/03/a2/2e/gambas.jpg?w=1000&s=1", "address": "663 route de Toulon La Bayorre, 83400, Hyeres France", "lat": 43.126163, "lng": 6.099165, "ref_id": 1783060, "rating": 4, "num_reviews": 0, "website": "http://www.restaurantlacolombe.com", "contact_phone": "+33 4 94 35 35 16", "contact_email": "contact@restaurantlacolombe.com", "status": 1, "source_type": 1, "numberReviews": 410}, {"name": "O Sushi Bar", "type": "restaurant", "image": "https://dynamic-media-cdn.tripadvisor.com/media/photo-o/0c/f8/a3/f4/vanavond-wederom-heerlijk.jpg?w=1000&s=1", "address": "898 Nouvelle Route du Beausset, 83150, Bandol France", "lat": 43.146454, "lng": 5.766026, "ref_id": 8399778, "rating": 4.5, "num_reviews": 0, "website": "http://www.osushibar.fr", "contact_phone": "+33 4 89 66 49 58", "contact_email": "osushibar83@gmail.com", "status": 1, "source_type": 1, "numberReviews": 186}, {"name": "Cr\u00eaperie des Iles", "type": "restaurant", "image": "https://dynamic-media-cdn.tripadvisor.com/media/photo-o/05/42/62/fa/creperie-des-iles.jpg?w=1000&s=1", "address": "22 quai de la Prudhomie Port du Brusc, 83140, Six-Fours-les-Plages France", "lat": 43.0772, "lng": 5.804135, "ref_id": 1113431, "rating": 4, "num_reviews": 0, "website": "http://www.la-creperie-des-iles.com/", "contact_phone": "+33 4 94 34 04 50", "contact_email": "lesiles83@free.fr", "status": 1, "source_type": 1, "numberReviews": 877}, {"name": "La Grange du B.", "type": "restaurant", "image": "https://dynamic-media-cdn.tripadvisor.com/media/photo-o/16/f8/55/a7/panoramique.jpg?w=1000&s=1", "address": "34 boulevard Chanzy, 83330 Le Beausset France", "lat": 43.196682, "lng": 5.805251, "ref_id": 797915, "rating": 4.5, "num_reviews": 0, "website": "https://www.facebook.com/lagrangedubeausset/", "contact_phone": "+33 9 51 84 97 01", "contact_email": "lagrangedubeausset@gmail.com", "status": 1, "source_type": 1, "numberReviews": 253}, {"name": "L'air Du Temps", "type": "restaurant", "image": "https://dynamic-media-cdn.tripadvisor.com/media/photo-o/14/83/dd/df/burger-camembert-un-delice.jpg?w=1000&s=1", "address": "171 Quai Stalingrad, 83000 Toulon France", "lat": 43.120224, "lng": 5.932307, "ref_id": 3730528, "rating": 4, "num_reviews": 0, "website": "https://www.facebook.com/pages/category/French-Restaurant/LAir-du-Temps-202390576498454/", "contact_phone": "+33 4 94 24 55 93", "contact_email": null, "status": 1, "source_type": 1, "numberReviews": 349}, {"name": "Bistro Fregate", "type": "restaurant", "image": "https://dynamic-media-cdn.tripadvisor.com/media/photo-o/19/f6/64/bb/img-20191107-232921-627.jpg?w=1000&s=1", "address": "933 Promenade Gal Charles de Gaulle Plage de Bonnegr\u00e2ce, 83140, Six-Fours-les-Plages France", "lat": 43.115265, "lng": 5.808448, "ref_id": 3486819, "rating": 4, "num_reviews": 0, "website": "http://www.eden-fregate.com/", "contact_phone": "+33 4 94 07 76 12", "contact_email": null, "status": 1, "source_type": 1, "numberReviews": 680}, {"name": "H\u00f4tel Restaurant de la Tour", "type": "restaurant", "image": "https://dynamic-media-cdn.tripadvisor.com/media/photo-o/0f/a3/8c/54/emplacement-de-l-hotel.jpg?w=1000&s=1", "address": "24 Quai General de Gaulle, 83110 Sanary-sur-Mer France", "lat": 43.11762, "lng": 5.800481, "ref_id": 2347255, "rating": 4, "num_reviews": 0, "website": "http://www.sanary-hoteldelatour.com/restaurant.html", "contact_phone": "+33 4 94 74 10 10", "contact_email": "la.tour.sanary@wanadoo.fr", "status": 1, "source_type": 1, "numberReviews": 783}, {"name": "Les Jardins du Sidi Bou Said", "type": "restaurant", "image": "https://dynamic-media-cdn.tripadvisor.com/media/photo-o/14/fc/33/a4/les-jardins-du-sidi-bou.jpg?w=1000&s=1", "address": "90 rue Antoine Groignard, 83200 Toulon France", "lat": 43.140667, "lng": 5.903724, "ref_id": 3393250, "rating": 4.5, "num_reviews": 0, "website": "https://www.facebook.com/LesJardinsDeSidiBouSaid", "contact_phone": "+33 4 83 57 23 52", "contact_email": null, "status": 1, "source_type": 1, "numberReviews": 161}, {"name": "Le Comptoir du Cuneo", "type": "restaurant", "image": "https://dynamic-media-cdn.tripadvisor.com/media/photo-o/2a/34/3e/5f/caption.jpg?w=1000&s=1", "address": "191 Boulevard du Docteur Cuneo, 83000 Toulon France", "lat": 43.10748, "lng": 5.933564, "ref_id": 4552658, "rating": 5, "num_reviews": 0, "website": "http://cuneotoulon.fr/", "contact_phone": "+33 4 83 57 76 27", "contact_email": "lecomptoirducuneo@gmail.com", "status": 1, "source_type": 1, "numberReviews": 44}, {"name": "Le Cafe Des Arts", "type": "restaurant", "image": "https://dynamic-media-cdn.tripadvisor.com/media/photo-o/0f/f2/d8/f0/cafe-des-arts.jpg?w=1000&s=1", "address": "8 Rue Cyrus Hugues, 83500 La Seyne-sur-Mer France", "lat": 43.10139, "lng": 5.880833, "ref_id": 12633078, "rating": 5, "num_reviews": 0, "website": "https://www.facebook.com/121889189199384", "contact_phone": "+33 6 12 37 42 11", "contact_email": null, "status": 1, "source_type": 1, "numberReviews": 60}, {"name": "Neny Bay", "type": "restaurant", "image": "https://dynamic-media-cdn.tripadvisor.com/media/photo-o/1b/ee/82/c8/neny-bay.jpg?w=1000&s=1", "address": "364 avenue de Forbin, 83100 Toulon France", "lat": 43.1238, "lng": 5.9684, "ref_id": 21252538, "rating": 4.5, "num_reviews": 0, "website": "www.facebook.com/NenyBay", "contact_phone": "+33 4 83 89 16 83", "contact_email": "nenybay@hotmail.com", "status": 1, "source_type": 1, "numberReviews": 82}, {"name": "Gaetano Le Port", "type": "restaurant", "image": "https://dynamic-media-cdn.tripadvisor.com/media/photo-o/15/5d/f7/ed/salle-interieure.jpg?w=1000&s=1", "address": "158 avenue de la Republique, 83000 Toulon France", "lat": 43.120583, "lng": 5.930833, "ref_id": 3491426, "rating": 4, "num_reviews": 0, "website": "http://www.gaetano-pizza.com/le-port", "contact_phone": "+33 4 94 93 02 02", "contact_email": "charlottejoffrin@hotmail.fr", "status": 1, "source_type": 1, "numberReviews": 286}, {"name": "Feel Food", "type": "restaurant", "image": "https://dynamic-media-cdn.tripadvisor.com/media/photo-o/1c/2d/01/49/feel-food.jpg?w=1000&s=1", "address": "8 rue Bon Pasteur, 83000 Toulon France", "lat": 43.123768, "lng": 5.931351, "ref_id": 16648879, "rating": 5, "num_reviews": 0, "website": "https://www.facebook.com/toulonfeelfood/", "contact_phone": "+33 6 09 99 08 23", "contact_email": "feelfood83@laposte.net", "status": 1, "source_type": 1, "numberReviews": 54}, {"name": "Macsyms", "type": "restaurant", "image": "https://dynamic-media-cdn.tripadvisor.com/media/photo-o/05/54/ad/57/mac-syms-cafe.jpg?w=1000&s=1", "address": "10 quai du Gal Charles de Gaulle, 83110 Sanary-sur-Mer France", "lat": 43.117813, "lng": 5.800672, "ref_id": 2267209, "rating": 4, "num_reviews": 0, "website": "https://www.facebook.com/196470350391609", "contact_phone": "+33 4 94 74 45 34", "contact_email": "", "status": 1, "source_type": 1, "numberReviews": 545}, {"name": "Au Tonnelier", "type": "restaurant", "image": "https://dynamic-media-cdn.tripadvisor.com/media/photo-o/26/d5/d0/6f/caption.jpg?w=1000&s=1", "address": "19 Rue des Tonneliers, 83150, Bandol France", "lat": 43.136456, "lng": 5.754124, "ref_id": 24116094, "rating": 5, "num_reviews": 0, "website": "http://www.instagram.com/au_tonnelier_bandol/?igsh=ndnknxv6axhtzw94", "contact_phone": "+33 4 89 79 48 48", "contact_email": "", "status": 1, "source_type": 1, "numberReviews": 54}, {"name": "Creperie au Roy d'Ys", "type": "restaurant", "image": "https://dynamic-media-cdn.tripadvisor.com/media/photo-o/06/28/c0/ad/entrecote.jpg?w=1000&s=1", "address": "18 quai Jean Jaures, 83430 Saint-Mandrier-sur-Mer France", "lat": 43.079334, "lng": 5.927088, "ref_id": 3942996, "rating": 4, "num_reviews": 0, "website": "http://www.facebook.com/CreperieRoyDYs/", "contact_phone": "+33 4 94 63 92 01", "contact_email": null, "status": 1, "source_type": 1, "numberReviews": 364}, {"name": "Carr\u00e9 Plage", "type": "restaurant", "image": "https://dynamic-media-cdn.tripadvisor.com/media/photo-o/0c/72/cc/15/20160809-141642-largejpg.jpg?w=1000&s=1", "address": "Plage des Sablettes Parc Braudel, 83500 La Seyne-sur-Mer France", "lat": 43.078335, "lng": 5.897553, "ref_id": 3540107, "rating": 4, "num_reviews": 0, "website": "http://Lecarreplage.fr", "contact_phone": "+33 4 94 90 09 43", "contact_email": "lecarreplage@gmail.com", "status": 1, "source_type": 1, "numberReviews": 287}, {"name": "Lasagnerie Carqueiranne", "type": "restaurant", "image": "https://dynamic-media-cdn.tripadvisor.com/media/photo-o/0d/ee/d0/4b/3-fromages.jpg?w=1000&s=1", "address": "715 D 559, 83320 Carqueiranne France", "lat": 43.099667, "lng": 6.062674, "ref_id": 7741592, "rating": 5, "num_reviews": 0, "website": "https://www.lasagnerie.fr/", "contact_phone": "+33 6 58 37 76 16", "contact_email": "lasagnerie@gmail.com", "status": 1, "source_type": 1, "numberReviews": 110}, {"name": "Restaurant Le Relais de la Cal\u00e8che", "type": "restaurant", "image": "https://dynamic-media-cdn.tripadvisor.com/media/photo-o/29/cb/fa/5e/salle-du-restaurant.jpg?w=1000&s=1", "address": "46 route Nationale 8, 83330 Le Beausset France", "lat": 43.196102, "lng": 5.806246, "ref_id": 8095433, "rating": 4.5, "num_reviews": 0, "website": "https://lerelaisdelacaleche.com/", "contact_phone": "+33 4 94 98 70 18", "contact_email": "lacalechelebeausset@orange.fr", "status": 1, "source_type": 1, "numberReviews": 170}, {"name": "Ceno Cafe", "type": "restaurant", "image": "https://dynamic-media-cdn.tripadvisor.com/media/photo-o/19/e9/34/e7/photo1jpg.jpg?w=1000&s=1", "address": "2271 Corniche Georges Pompidou, 83500 La Seyne-sur-Mer France", "lat": 43.08063, "lng": 5.893978, "ref_id": 10047571, "rating": 5, "num_reviews": 0, "website": "http://www.facebook.com/pages/category/Coffee-Shop/C%C3%A9no-Caf%C3%A9-1639986326280479", "contact_phone": "+33 6 15 96 98 24", "contact_email": null, "status": 1, "source_type": 1, "numberReviews": 91}, {"name": "Mazavaroo Restaurant", "type": "restaurant", "image": "https://dynamic-media-cdn.tripadvisor.com/media/photo-o/12/c7/8d/25/terrasse-mazavaroo-restaurant.jpg?w=1000&s=1", "address": "917 avenue des Palmiers le Brusc, 83140, Six-Fours-les-Plages France", "lat": 43.076992, "lng": 5.804904, "ref_id": 12587995, "rating": 4.5, "num_reviews": 0, "website": "http://www.facebook.com/mazavaroo.france", "contact_phone": "+33 9 54 85 02 34", "contact_email": "mazavaroo@yahoo.fr", "status": 1, "source_type": 1, "numberReviews": 159}, {"name": "Natha Thai", "type": "restaurant", "image": "https://dynamic-media-cdn.tripadvisor.com/media/photo-o/1b/fa/35/8d/photo0jpg.jpg?w=1000&s=1", "address": "30 rue Chartreuse de Montrieux, 83000 Toulon France", "lat": 43.111454, "lng": 5.940286, "ref_id": 3862857, "rating": 4.5, "num_reviews": 0, "website": "http://www.nathathai-restaurant-toulon.fr/fr", "contact_phone": "+33 4 94 87 60 56", "contact_email": "jf_dekorsak@yahoo.fr", "status": 1, "source_type": 1, "numberReviews": 133}, {"name": "L'Envie", "type": "restaurant", "image": "https://dynamic-media-cdn.tripadvisor.com/media/photo-o/18/5d/38/59/pintions-de-crevettes.jpg?w=1000&s=1", "address": "75 Quai Charles de Gaulle, 83150, Bandol France", "lat": 43.13711, "lng": 5.759656, "ref_id": 17750844, "rating": 4.5, "num_reviews": 0, "website": "https://www.instagram.com/_lenvie_bandol_/", "contact_phone": "+33 7 49 72 40 98", "contact_email": "launoy431@gmail.com", "status": 1, "source_type": 1, "numberReviews": 212}, {"name": "Bistrot des Remparts", "type": "restaurant", "image": "https://dynamic-media-cdn.tripadvisor.com/media/photo-o/0d/da/2b/4f/le-foie-gras-de-carnard.jpg?w=1000&s=1", "address": "1 Place Armand Valle Porte d'Italie, 83000 Toulon France", "lat": 43.121666, "lng": 5.93641, "ref_id": 3677807, "rating": 4.5, "num_reviews": 0, "website": null, "contact_phone": "+33 6 43 86 13 32", "contact_email": "seyoan@gmail.com", "status": 1, "source_type": 1, "numberReviews": 148}, {"name": "Okinawa Sushi", "type": "restaurant", "image": "https://dynamic-media-cdn.tripadvisor.com/media/photo-o/11/73/bb/e8/california-tobiko.jpg?w=1000&s=1", "address": "101 rue Orves, 83000 Toulon France", "lat": 43.111748, "lng": 5.940039, "ref_id": 4664230, "rating": 4.5, "num_reviews": 0, "website": "http://www.okinawasushi.fr", "contact_phone": "+33 4 98 03 85 23", "contact_email": "contact@okinawasushi.fr", "status": 1, "source_type": 1, "numberReviews": 204}, {"name": "Bella-pizza", "type": "restaurant", "image": "https://dynamic-media-cdn.tripadvisor.com/media/photo-o/27/e0/05/9a/depuis-plus-de-21-ans.jpg?w=1000&s=1", "address": "2 Avenue Du 8 Mai 1946, 83260 La Crau France", "lat": 43.149754, "lng": 6.07397, "ref_id": 25264313, "rating": -1, "num_reviews": 0, "website": "https://www.facebook.com/BellaPizzaLaCrau/", "contact_phone": "+33 4 94 35 14 18", "contact_email": null, "status": 1, "source_type": 1, "numberReviews": 0}, {"name": "Restaurant de l'H\u00f4tel de la FARANDOLE", "type": "restaurant", "image": null, "address": "Plage de la GORGUETTE, 83110 Sanary-sur-Mer France", "lat": 43.12897, "lng": 5.780403, "ref_id": 26578549, "rating": -1, "num_reviews": 0, "website": null, "contact_phone": null, "contact_email": null, "status": 1, "source_type": 1, "numberReviews": 0}, {"name": "Pizzeria Del Stadio", "type": "restaurant", "image": null, "address": "Avenue de La Mer, 83140, Six-Fours-les-Plages France", "lat": 43.09995, "lng": 5.8253, "ref_id": 10712646, "rating": -1, "num_reviews": 0, "website": null, "contact_phone": null, "contact_email": null, "status": 1, "source_type": 1, "numberReviews": 0}, {"name": "L\u00e9na'zur", "type": "restaurant", "image": null, "address": "92 Boulevard Enseigne De Vaisseau Gu\u00e9s, 83100 Toulon France", "lat": 43.11666, "lng": 5.98077, "ref_id": 27335594, "rating": -1, "num_reviews": 0, "website": "https://www.lenazur.com/", "contact_phone": "", "contact_email": null, "status": 1, "source_type": 1, "numberReviews": 0}, {"name": "L'oasis", "type": "restaurant", "image": "https://dynamic-media-cdn.tripadvisor.com/media/photo-o/1d/e7/b9/fd/l-oasis-bar-restaurant.jpg?w=1000&s=1", "address": "1 avenue du 1er Bataillon de Choc, 83200 Toulon France", "lat": 43.12911, "lng": 5.909628, "ref_id": 23636682, "rating": -1, "num_reviews": 0, "website": null, "contact_phone": "+33 6 62 49 05 26", "contact_email": "selimjebahi@hotmail.com", "status": 1, "source_type": 1, "numberReviews": 0}, {"name": "Le Tr\u00e9sor Des Copines", "type": "restaurant", "image": null, "address": "12 Rue Lamalgue, 83000 Toulon France", "lat": 43.11167, "lng": 5.938757, "ref_id": 27263974, "rating": -1, "num_reviews": 0, "website": "https://www.facebook.com/100451015874317", "contact_phone": "+33 4 94 93 48 04", "contact_email": null, "status": 1, "source_type": 1, "numberReviews": 0}, {"name": "Boulangerie Campi", "type": "restaurant", "image": null, "address": "155 Rue Vincent Raspail, 83130 La Garde France", "lat": 43.125008, "lng": 6.009551, "ref_id": 27188458, "rating": -1, "num_reviews": 0, "website": "https://www.facebook.com/114182372410809", "contact_phone": "+33 4 94 21 82 72", "contact_email": null, "status": 1, "source_type": 1, "numberReviews": 0}, {"name": "Maison Thiriet", "type": "restaurant", "image": null, "address": "495 Avenue Robespierre, 83130 La Garde France", "lat": 43.13472, "lng": 6.025481, "ref_id": 27188382, "rating": -1, "num_reviews": 0, "website": "https://www.thiriet.com/", "contact_phone": "", "contact_email": null, "status": 1, "source_type": 1, "numberReviews": 0}, {"name": "O boudha", "type": "restaurant", "image": null, "address": "Rue calmette, 83400 La Valette-du-Var France", "lat": 43.15157, "lng": 6.043805, "ref_id": 27106999, "rating": -1, "num_reviews": 0, "website": null, "contact_phone": null, "contact_email": null, "status": 1, "source_type": 1, "numberReviews": 0}, {"name": "Maison Folius P\u00e2tisserie Artisanale V\u00e9g\u00e9tale", "type": "restaurant", "image": null, "address": "52 Avenue G\u00e9n\u00e9ral De Gaulle, 83320 Carqueiranne France", "lat": 43.08823, "lng": 6.077373, "ref_id": 27189314, "rating": -1, "num_reviews": 0, "website": "https://www.maisonfolius.com/", "contact_phone": "+33 6 24 75 40 30", "contact_email": null, "status": 1, "source_type": 1, "numberReviews": 0}, {"name": "Mybioshop Sanary", "type": "restaurant", "image": null, "address": "670 Route De Bandol, 83110 Sanary-sur-Mer France", "lat": 43.12691, "lng": 5.787076, "ref_id": 27274141, "rating": -1, "num_reviews": 0, "website": "http://www.mybioshop.fr", "contact_phone": "+33 4 94 88 72 73", "contact_email": null, "status": 1, "source_type": 1, "numberReviews": 0}, {"name": "Le petit creux", "type": "restaurant", "image": null, "address": "80 rue Laurent germain, 83160 La Valette-du-Var France", "lat": 43.137924, "lng": 5.982219, "ref_id": 26616021, "rating": -1, "num_reviews": 0, "website": null, "contact_phone": "+33 7 65 63 62 52", "contact_email": "lepetitcreux83@hotmail.com", "status": 1, "source_type": 1, "numberReviews": 0}, {"name": "Boulangerie P\u00e2tisserie Girard", "type": "restaurant", "image": null, "address": "498 Route De La Gare, 83110 Sanary-sur-Mer France", "lat": 43.12074, "lng": 5.81625, "ref_id": 27284301, "rating": -1, "num_reviews": 0, "website": "https://www.facebook.com/1743872355869342", "contact_phone": "+33 4 94 26 47 85", "contact_email": null, "status": 1, "source_type": 1, "numberReviews": 0}, {"name": "L'escale", "type": "restaurant", "image": null, "address": "10 Rue bis ter num\u00e9robis du personnel, 83140, Six-Fours-les-Plages France", "lat": 43.09332, "lng": 5.84312, "ref_id": 26689783, "rating": -1, "num_reviews": 0, "website": null, "contact_phone": "+33 6 40 86 04 38", "contact_email": null, "status": 1, "source_type": 1, "numberReviews": 0}, {"name": "La Grillade Kebab Ege", "type": "restaurant", "image": null, "address": "37 Boulevard Bazeilles, 83000 Toulon France", "lat": 43.112972, "lng": 5.939786, "ref_id": 27290033, "rating": -1, "num_reviews": 0, "website": "https://www.facebook.com/130011237048822", "contact_phone": "+33 6 15 60 97 96", "contact_email": null, "status": 1, "source_type": 1, "numberReviews": 0}, {"name": "Pizza Yellow", "type": "restaurant", "image": null, "address": "25 Avenue Jean Jaur\u00e8s, 83320 Carqueiranne France", "lat": 43.0939, "lng": 6.07511, "ref_id": 27188294, "rating": -1, "num_reviews": 0, "website": "https://www.facebook.com/348964968842675", "contact_phone": "+33 4 94 58 87 12", "contact_email": null, "status": 1, "source_type": 1, "numberReviews": 0}, {"name": "Brasserie l'Oasis", "type": "restaurant", "image": null, "address": "305 Place de la Libert\u00e9, 83000 Toulon France", "lat": 43.12535, "lng": 5.931141, "ref_id": 27186698, "rating": -1, "num_reviews": 0, "website": null, "contact_phone": "+1494922764", "contact_email": "claudebarbaroux@yahoo.fr", "status": 1, "source_type": 1, "numberReviews": 0}, {"name": "Les comptoirs de la Bio La Garde", "type": "restaurant", "image": null, "address": "545 Avenue Robespierre, 83130 La Garde France", "lat": 43.134747, "lng": 6.024731, "ref_id": 27188352, "rating": -1, "num_reviews": 0, "website": "https://magasins.lescomptoirsdelabio.fr/fr/les-comptoirs-de-la-bio-la-garde-105483", "contact_phone": "+33 4 94 01 28 31", "contact_email": null, "status": 1, "source_type": 1, "numberReviews": 0}, {"name": "Boulangerie Bernard David", "type": "restaurant", "image": null, "address": "74 Avenue De La R\u00e9sistance, 83190 Ollioules France", "lat": 43.135735, "lng": 5.846631, "ref_id": 27263559, "rating": -1, "num_reviews": 0, "website": "https://fr-fr.facebook.com/public/patisserie-bernard", "contact_phone": "+33 4 94 63 49 51", "contact_email": null, "status": 1, "source_type": 1, "numberReviews": 0}, {"name": "La civette de la Loubi\u00e8re", "type": "restaurant", "image": null, "address": "2 Boulevard Georges Richard, 83000 Toulon France", "lat": 43.127525, "lng": 5.942457, "ref_id": 27189602, "rating": -1, "num_reviews": 0, "website": "https://www.facebook.com/132177130180391", "contact_phone": "+33 4 98 01 20 37", "contact_email": null, "status": 1, "source_type": 1, "numberReviews": 0}, {"name": "La Cervoiserie", "type": "restaurant", "image": null, "address": "860 Chemin Des Plantades, 83130 La Garde France", "lat": 43.14308, "lng": 6.021776, "ref_id": 27188387, "rating": -1, "num_reviews": 0, "website": "https://lacervoiserie.com/", "contact_phone": "+33 4 94 23 34 90", "contact_email": null, "status": 1, "source_type": 1, "numberReviews": 0}, {"name": "La Civette De La Palasse", "type": "restaurant", "image": null, "address": "346 avenue Palamede de Forbin, 83100 Toulon France", "lat": 43.12387, "lng": 5.96823, "ref_id": 5799788, "rating": -1, "num_reviews": 0, "website": null, "contact_phone": "+33 4 89 09 55 01", "contact_email": null, "status": 1, "source_type": 1, "numberReviews": 0}, {"name": "Restaurant Sapa", "type": "restaurant", "image": null, "address": "42 Boulevard Chanzy, 83330 Le Beausset France", "lat": 43.196247, "lng": 5.805854, "ref_id": 27842266, "rating": -1, "num_reviews": 0, "website": null, "contact_phone": "+33 4 94 02 75 11", "contact_email": null, "status": 1, "source_type": 1, "numberReviews": 0}, {"name": "La Table \u00c0 Emporter", "type": "restaurant", "image": null, "address": "7 Rue de la Fraternit\u00e9, 83000 Toulon France", "lat": 43.120068, "lng": 5.933414, "ref_id": 27186073, "rating": -1, "num_reviews": 0, "website": null, "contact_phone": "+10751571348", "contact_email": "latable.aemporter@outlook.fr", "status": 1, "source_type": 1, "numberReviews": 0}, {"name": "Bouillon L'entracte", "type": "restaurant", "image": null, "address": "Rue Adolphe Guiol, 83000 Toulon France", "lat": 43.125008, "lng": 5.929663, "ref_id": 27747006, "rating": -1, "num_reviews": 0, "website": null, "contact_phone": null, "contact_email": null, "status": 1, "source_type": 1, "numberReviews": 0}, {"name": "Le Thai Sur Mer", "type": "restaurant", "image": "https://dynamic-media-cdn.tripadvisor.com/media/photo-o/2c/a4/77/a8/caption.jpg?w=1000&s=1", "address": "1 Rue Jacques Laurent, 83500 La Seyne-sur-Mer France", "lat": 43.10201, "lng": 5.898398, "ref_id": 27974378, "rating": -1, "num_reviews": 0, "website": null, "contact_phone": null, "contact_email": null, "status": 1, "source_type": 1, "numberReviews": 1}, {"name": "Mava", "type": "restaurant", "image": null, "address": "805 Route De La Gare, 83110 Sanary-sur-Mer France", "lat": 43.12172, "lng": 5.820081, "ref_id": 27727456, "rating": -1, "num_reviews": 0, "website": null, "contact_phone": "+33 7 89 08 43 24", "contact_email": null, "status": 1, "source_type": 1, "numberReviews": 0}, {"name": "McDonald's", "type": "restaurant", "image": null, "address": "81 avenue Antoine Becquerel, 83130 Vert-Toulon France", "lat": 43.1376, "lng": 6.027705, "ref_id": 21400055, "rating": -1, "num_reviews": 0, "website": null, "contact_phone": null, "contact_email": null, "status": 1, "source_type": 1, "numberReviews": 0}, {"name": "House Of Chicken", "type": "restaurant", "image": null, "address": "2 Avenue De L'infanterie De Marine, 83000 Toulon France", "lat": 43.11695, "lng": 5.93575, "ref_id": 27335720, "rating": -1, "num_reviews": 0, "website": "https://www.facebook.com/102422045355979", "contact_phone": "+33 4 22 44 21 29", "contact_email": null, "status": 1, "source_type": 1, "numberReviews": 0}, {"name": "Caf\u00e9 des Moulins", "type": "restaurant", "image": null, "address": "660 Avenue Des Meuniers, 83200 Toulon France", "lat": 43.158615, "lng": 5.918083, "ref_id": 27189526, "rating": -1, "num_reviews": 0, "website": "https://www.facebook.com/102356415851999", "contact_phone": "+33 4 94 46 43 93", "contact_email": null, "status": 1, "source_type": 1, "numberReviews": 0}, {"name": "Grill Kebab", "type": "restaurant", "image": null, "address": "6bis Boulevard Pierre Toesca, 83000 Toulon France", "lat": 43.128162, "lng": 5.92877, "ref_id": 27845984, "rating": -1, "num_reviews": 0, "website": "http://grillkebab.fr", "contact_phone": "+33 9 52 64 02 00", "contact_email": null, "status": 1, "source_type": 1, "numberReviews": 0}, {"name": "Maison Lugari", "type": "restaurant", "image": null, "address": "60 All\u00e9e Franc Lugarie 83220, 83220 Le Pradet France", "lat": 43.10862, "lng": 6.03195, "ref_id": 17709204, "rating": -1, "num_reviews": 0, "website": null, "contact_phone": "+33 7 71 13 21 73", "contact_email": null, "status": 1, "source_type": 1, "numberReviews": 0}, {"name": "Pizza'D\u00e9lices", "type": "restaurant", "image": null, "address": "1479 Avenue Ganzin, 83220 Le Pradet France", "lat": 43.10951, "lng": 6.043448, "ref_id": 27189349, "rating": -1, "num_reviews": 0, "website": "https://www.pizzadelices-pradet.fr/", "contact_phone": "+33 9 70 35 75 71", "contact_email": null, "status": 1, "source_type": 1, "numberReviews": 0}, {"name": "Capri Pizza", "type": "restaurant", "image": null, "address": "476 Avenue G\u00e9n\u00e9ral Pruneau, 83000 Toulon France", "lat": 43.12096, "lng": 5.955688, "ref_id": 27841034, "rating": -1, "num_reviews": 0, "website": "https://www.facebook.com/543334882367024", "contact_phone": "+33 4 94 12 26 56", "contact_email": null, "status": 1, "source_type": 1, "numberReviews": 0}, {"name": "La Table Haute", "type": "restaurant", "image": null, "address": "142 impasse des Raynauds, 83210 Sollies-Toucas France", "lat": 43.20195, "lng": 6.02465, "ref_id": 15694527, "rating": -1, "num_reviews": 0, "website": "https://www.facebook.com/pages/category/Restaurant/La-Table-Haute-832538133466915/", "contact_phone": "+33 6 11 63 61 10", "contact_email": null, "status": 1, "source_type": 1, "numberReviews": 0}, {"name": "Rayons De Miels", "type": "restaurant", "image": null, "address": "6 Rue Louis Blanc, 83110 Sanary-sur-Mer France", "lat": 43.11834, "lng": 5.80205, "ref_id": 27223315, "rating": -1, "num_reviews": 0, "website": "https://www.rayonsdemiels.com", "contact_phone": "+33 9 82 35 46 70", "contact_email": null, "status": 1, "source_type": 1, "numberReviews": 0}, {"name": "Le Brazza", "type": "restaurant", "image": null, "address": "37 Place Carnot, 83160 La Valette-du-Var France", "lat": 43.13818, "lng": 5.982747, "ref_id": 27304378, "rating": -1, "num_reviews": 0, "website": "https://www.facebook.com/219263941436987", "contact_phone": "+33 4 94 38 39 94", "contact_email": null, "status": 1, "source_type": 1, "numberReviews": 0}, {"name": "Boucherie Charcuterie Lyonnaise", "type": "restaurant", "image": null, "address": "11 Rue Lamalgue, 83000 Toulon France", "lat": 43.11157, "lng": 5.93883, "ref_id": 27263852, "rating": -1, "num_reviews": 0, "website": "https://www.facebook.com/606251699469857", "contact_phone": "+33 4 94 41 36 90", "contact_email": null, "status": 1, "source_type": 1, "numberReviews": 0}, {"name": "Cr\u00eaperie Tata Suzette Carqueiranne", "type": "restaurant", "image": null, "address": "4 Avenue \u00c9lie Gautier, 83320 Carqueiranne France", "lat": 43.08808, "lng": 6.077038, "ref_id": 27188316, "rating": -1, "num_reviews": 0, "website": "https://www.facebook.com/292633204161270", "contact_phone": "+33 4 83 42 56 84", "contact_email": null, "status": 1, "source_type": 1, "numberReviews": 0}, {"name": "Herbi'diol", "type": "restaurant", "image": null, "address": "40 Rue De La Gare, 83210 La Farlede France", "lat": 43.166912, "lng": 6.044797, "ref_id": 27272349, "rating": -1, "num_reviews": 0, "website": "https://www.herbidiol.fr/", "contact_phone": "+33 6 04 10 36 98", "contact_email": null, "status": 1, "source_type": 1, "numberReviews": 0}, {"name": "La Cave JOA", "type": "restaurant", "image": null, "address": "340 cours Toussaint Merle, 83500 La Seyne-sur-Mer France", "lat": 43.1014, "lng": 5.89278, "ref_id": 21328422, "rating": -1, "num_reviews": 0, "website": "https://www.joa.fr/casinos/la-seyne/restauration-bars/la-cave-joa", "contact_phone": "+33 4 94 29 16 67", "contact_email": null, "status": 1, "source_type": 1, "numberReviews": 0}, {"name": "Bar Des Sablettes", "type": "restaurant", "image": null, "address": "667 Avenue Charles De Gaulle, 83500 La Seyne-sur-Mer France", "lat": 43.07919, "lng": 5.89352, "ref_id": 27283971, "rating": -1, "num_reviews": 0, "website": "https://www.facebook.com/107748340987868", "contact_phone": "+33 6 03 30 97 92", "contact_email": null, "status": 1, "source_type": 1, "numberReviews": 0}, {"name": "Cri\u00e9e Raynier", "type": "restaurant", "image": null, "address": "1 Pl. Vincent Raspail, 83000 Toulon France", "lat": 43.12204, "lng": 5.934181, "ref_id": 25571141, "rating": -1, "num_reviews": 0, "website": "http://www.criee-raynier.com/", "contact_phone": "+33 4 22 14 04 74", "contact_email": "nico@criee-raynier.com", "status": 1, "source_type": 1, "numberReviews": 0}, {"name": "Ambassade Des Vins", "type": "restaurant", "image": null, "address": "51 Rue Vincent Raspail, 83130 La Garde France", "lat": 43.125107, "lng": 6.010332, "ref_id": 27304434, "rating": -1, "num_reviews": 0, "website": "https://www.ambassadedesvins.fr", "contact_phone": "+33 4 94 21 89 97", "contact_email": null, "status": 1, "source_type": 1, "numberReviews": 0}, {"name": "Boucherie Oriental", "type": "restaurant", "image": null, "address": "849 Boulevard Des Armaris, 83100 Toulon France", "lat": 43.126076, "lng": 5.981186, "ref_id": 27304417, "rating": -1, "num_reviews": 0, "website": "https://www.facebook.com/1871452386468848", "contact_phone": "+33 6 17 28 90 60", "contact_email": null, "status": 1, "source_type": 1, "numberReviews": 0}, {"name": "Taconaan", "type": "restaurant", "image": null, "address": "6 Place Leon Blum, 83000 Toulon France", "lat": 43.12475, "lng": 5.92653, "ref_id": 23111963, "rating": -1, "num_reviews": 0, "website": null, "contact_phone": null, "contact_email": null, "status": 1, "source_type": 1, "numberReviews": 0}, {"name": "Phileas", "type": "restaurant", "image": "https://dynamic-media-cdn.tripadvisor.com/media/photo-o/1a/bb/7e/6c/retrouvez-une-large-selection.jpg?w=1000&s=1", "address": "Aire La Bigue A57, 83160 La Valette-du-Var France", "lat": 43.14266, "lng": 6.00376, "ref_id": 19434930, "rating": -1, "num_reviews": 0, "website": "http://www.aires-autoroute-areas.com/nos-enseignes/restauration-rapide/phileas", "contact_phone": "+33 4 94 14 10 27", "contact_email": null, "status": 1, "source_type": 1, "numberReviews": 0}, {"name": "L'octopus", "type": "restaurant", "image": null, "address": "Chemin Antoine Hermitte, 83190 Ollioules France", "lat": 43.12702, "lng": 5.858093, "ref_id": 27284095, "rating": -1, "num_reviews": 0, "website": null, "contact_phone": "+33 6 23 23 35 20", "contact_email": null, "status": 1, "source_type": 1, "numberReviews": 0}, {"name": "Borea Le Boulanger France", "type": "restaurant", "image": null, "address": "1256 Avenue Jean Monnet, 83190 Ollioules France", "lat": 43.12739, "lng": 5.860981, "ref_id": 27284181, "rating": -1, "num_reviews": 0, "website": "https://www.facebook.com/1461996560764197", "contact_phone": "+33 4 94 63 33 98", "contact_email": null, "status": 1, "source_type": 1, "numberReviews": 0}, {"name": "Pizzas Le Cabanon", "type": "restaurant", "image": null, "address": "105 Rue Philemon Laugier, 83400, Hyeres France", "lat": 43.11174, "lng": 6.111029, "ref_id": 27838624, "rating": -1, "num_reviews": 0, "website": "https://www.facebook.com/101945188140852", "contact_phone": "+33 6 17 15 17 21", "contact_email": null, "status": 1, "source_type": 1, "numberReviews": 0}, {"name": "Le S\u00e0rti", "type": "restaurant", "image": null, "address": "\u00cele Des Embiez, 83140, Six-Fours-les-Plages France", "lat": 43.12485, "lng": 5.812892, "ref_id": 27530930, "rating": -1, "num_reviews": 0, "website": null, "contact_phone": null, "contact_email": null, "status": 1, "source_type": 1, "numberReviews": 0}, {"name": "Le Refectoire", "type": "restaurant", "image": null, "address": "61 Bd Georges Clemenceau Bat B6, 83000 Toulon France", "lat": null, "lng": null, "ref_id": 23634725, "rating": -1, "num_reviews": 0, "website": "https://le-refectoire.net-lab.fr/", "contact_phone": "+33 4 94 94 81 50", "contact_email": null, "status": 1, "source_type": 1, "numberReviews": 0}, {"name": "Maison Art & D\u00e9lices", "type": "restaurant", "image": null, "address": "75 Boulevard Mar\u00e9chal Joffre, 83100 Toulon France", "lat": 43.12349, "lng": 5.948928, "ref_id": 27188006, "rating": -1, "num_reviews": 0, "website": "https://www.facebook.com/599315210232999", "contact_phone": "+33 4 94 36 78 52", "contact_email": null, "status": 1, "source_type": 1, "numberReviews": 0}, {"name": "Blackwood", "type": "restaurant", "image": null, "address": "3 rue Nicolas Laugier, 83000 Toulon France", "lat": 43.12257, "lng": 5.93146, "ref_id": 21045756, "rating": -1, "num_reviews": 0, "website": null, "contact_phone": "+33 7 68 61 40 64", "contact_email": null, "status": 1, "source_type": 1, "numberReviews": 0}, {"name": "Chez Bert", "type": "restaurant", "image": null, "address": "11 Avenue Estienne D'orves, 83430 Saint-Mandrier-sur-Mer France", "lat": 43.07631, "lng": 5.92741, "ref_id": 27272312, "rating": -1, "num_reviews": 0, "website": null, "contact_phone": "+33 6 84 82 05 46", "contact_email": null, "status": 1, "source_type": 1, "numberReviews": 0}, {"name": "Fromagerie Salmar", "type": "restaurant", "image": null, "address": "29 Place Paul Flamencq, 83220 Le Pradet France", "lat": 43.10619, "lng": 6.02242, "ref_id": 27189360, "rating": -1, "num_reviews": 0, "website": "https://www.facebook.com/101667005767237", "contact_phone": "+33 6 20 69 45 66", "contact_email": null, "status": 1, "source_type": 1, "numberReviews": 0}, {"name": "Break'in Bowl Carqueiranne", "type": "restaurant", "image": null, "address": "1 Place De La R\u00e9publique, 83320 Carqueiranne France", "lat": 43.094307, "lng": 6.0745, "ref_id": 27295944, "rating": -1, "num_reviews": 0, "website": "http://www.breakinbowl.fr", "contact_phone": "+33 4 94 48 65 43", "contact_email": null, "status": 1, "source_type": 1, "numberReviews": 0}, {"name": "Restaurant Semi-Gastronomique", "type": "restaurant", "image": null, "address": "24 Quai General De Gaulle Hotel De La Tour, 83110 Sanary-sur-Mer France", "lat": 43.11787, "lng": 5.80067, "ref_id": 15081349, "rating": -1, "num_reviews": 0, "website": "https://www.sanary-hoteldelatour.com/hotel-restaurant-sanary", "contact_phone": "+33 4 94 74 10 10", "contact_email": "la.tour.sanary@wanadoo.fr", "status": 1, "source_type": 1, "numberReviews": 0}, {"name": "Matyasy", "type": "restaurant", "image": null, "address": "12 Boulevard Bazeilles, 83000 Toulon France", "lat": 43.112232, "lng": 5.939235, "ref_id": 27289899, "rating": -1, "num_reviews": 0, "website": "https://www.facebook.com/336990783620009", "contact_phone": "+33 4 94 41 75 75", "contact_email": null, "status": 1, "source_type": 1, "numberReviews": 0}, {"name": "Pizza Capri", "type": "restaurant", "image": null, "address": "4 Rue Nationale, 83190 Ollioules France", "lat": 43.140022, "lng": 5.84882, "ref_id": 27303491, "rating": -1, "num_reviews": 0, "website": "http://pizza-capri.inollioules.fr", "contact_phone": "+33 4 94 63 48 83", "contact_email": null, "status": 1, "source_type": 1, "numberReviews": 0}, {"name": "Aliette et son Assiette", "type": "restaurant", "image": "https://dynamic-media-cdn.tripadvisor.com/media/photo-o/0c/b8/e0/b9/frites.jpg?w=1000&s=1", "address": "2 Place du Coquillon 2 place du Coquillon, 83110 Sanary-sur-Mer France", "lat": 43.11908, "lng": 5.802239, "ref_id": 2570841, "rating": 4, "num_reviews": 0, "website": "http://fr-fr.facebook.com/pages/category/French-Restaurant/Restaurant-AA-1656978417883075/", "contact_phone": "+33 4 94 88 08 94", "contact_email": "", "status": 1, "source_type": 1, "numberReviews": 450}, {"name": "Brasserie La Fontaine", "type": "restaurant", "image": "https://dynamic-media-cdn.tripadvisor.com/media/photo-o/17/c0/b3/b3/restaurant-brasserie.jpg?w=1000&s=1", "address": "2 Pl du General Charles de Gaulle, 83210 Sollies-Pont France", "lat": 43.190605, "lng": 6.040863, "ref_id": 3524442, "rating": 4.5, "num_reviews": 0, "website": "http://restaurant-brasserielafontaine.business.site/", "contact_phone": "+33 6 51 18 36 64", "contact_email": "brasserie.lafontaine@yahoo.com", "status": 1, "source_type": 1, "numberReviews": 328}, {"name": "Le K\u00d9D\u00c9TA", "type": "restaurant", "image": "https://dynamic-media-cdn.tripadvisor.com/media/photo-o/1b/87/4f/ac/caption.jpg?w=1000&s=1", "address": "Place de Besagne, 83000 Toulon France", "lat": 43.119522, "lng": 5.935868, "ref_id": 3832740, "rating": 4.5, "num_reviews": 0, "website": "http://www.lekudeta.fr", "contact_phone": "+33 4 89 79 10 86", "contact_email": "contact@lekudeta.fr", "status": 1, "source_type": 1, "numberReviews": 254}, {"name": "La Cascade", "type": "restaurant", "image": "https://dynamic-media-cdn.tripadvisor.com/media/photo-o/0e/92/55/82/photo4jpg.jpg?w=1000&s=1", "address": "69 Quai De La Sinse, 83000 Toulon France", "lat": 43.11884, "lng": 5.934233, "ref_id": 10455229, "rating": 4, "num_reviews": 0, "website": "https://www.facebook.com/1862212510674754", "contact_phone": "+33 4 94 94 28 02", "contact_email": null, "status": 1, "source_type": 1, "numberReviews": 614}, {"name": "Le Pied De Nez", "type": "restaurant", "image": "https://dynamic-media-cdn.tripadvisor.com/media/photo-o/12/fb/24/4e/img-20180504-wa0001-largejpg.jpg?w=1000&s=1", "address": "6 Montee Saint-Eloi, 83330 Le Castellet France", "lat": 43.20248, "lng": 5.777012, "ref_id": 1336521, "rating": 4, "num_reviews": 0, "website": "http://www.lepieddenez1.com", "contact_phone": "+33 4 94 29 72 26", "contact_email": "Contact.lepieddenez@gmail.com", "status": 1, "source_type": 1, "numberReviews": 832}, {"name": "Jade Sushi", "type": "restaurant", "image": "https://dynamic-media-cdn.tripadvisor.com/media/photo-o/12/32/77/c6/getlstd-property-photo.jpg?w=1000&s=1", "address": "17 rue Pons, 83150, Bandol France", "lat": 43.135788, "lng": 5.753383, "ref_id": 13625740, "rating": 4.5, "num_reviews": 0, "website": "https://www.facebook.com/PIZZAGINOJADESUSHI/", "contact_phone": "+33 9 84 26 11 22", "contact_email": null, "status": 1, "source_type": 1, "numberReviews": 133}, {"name": "Au Buffet", "type": "restaurant", "image": "https://dynamic-media-cdn.tripadvisor.com/media/photo-o/1b/b4/4c/c5/une-deco-bistrot.jpg?w=1000&s=1", "address": "261 Avenue Saint-Just, 83130 La Garde France", "lat": 43.143055, "lng": 6.02002, "ref_id": 7707216, "rating": 4.5, "num_reviews": 0, "website": "http://www.aubuffet.fr/", "contact_phone": "+33 9 50 97 47 72", "contact_email": "aubuffet.lagarde@gmail.com", "status": 1, "source_type": 1, "numberReviews": 355}, {"name": "La Kasbaa chez Abdel", "type": "restaurant", "image": "https://dynamic-media-cdn.tripadvisor.com/media/photo-o/1d/3f/1f/2d/caption.jpg?w=1000&s=1", "address": "9 rue de la Republique, 83330 Le Beausset France", "lat": 43.1983, "lng": 5.800818, "ref_id": 1337835, "rating": 4.5, "num_reviews": 0, "website": "http://www.facebook.com/abdelkasbaa/", "contact_phone": "+33 4 94 98 70 54", "contact_email": "", "status": 1, "source_type": 1, "numberReviews": 217}, {"name": "Le Flamingo - L'Ecailler Du Port", "type": "restaurant", "image": "https://dynamic-media-cdn.tripadvisor.com/media/photo-o/2b/83/6a/ef/le-flamingo-terrasse.jpg?w=1000&s=1", "address": "8 Avenue Elie Gauthier, 83320 Carqueiranne France", "lat": 43.087997, "lng": 6.076826, "ref_id": 1337412, "rating": 4, "num_reviews": 0, "website": "https://www.facebook.com/flamingocarqueiranne", "contact_phone": "+33 6 13 62 45 55", "contact_email": "flamingo83320@gmail.com", "status": 1, "source_type": 1, "numberReviews": 431}, {"name": "Gelato Sandro Pizzeria - Glacier - Brasserie", "type": "restaurant", "image": "https://dynamic-media-cdn.tripadvisor.com/media/photo-o/22/03/0d/37/caption.jpg?w=1000&s=1", "address": "7 Quai Charles de Gaulle Port de Bandol, 83150, Bandol France", "lat": 43.13622, "lng": 5.755955, "ref_id": 23274722, "rating": 5, "num_reviews": 0, "website": "http://www.gelatosandro.fr", "contact_phone": "+33 6 82 66 26 82", "contact_email": null, "status": 1, "source_type": 1, "numberReviews": 79}, {"name": "L'Oliveraie", "type": "restaurant", "image": "https://dynamic-media-cdn.tripadvisor.com/media/photo-o/14/40/30/17/charlotte-framboise.jpg?w=1000&s=1", "address": "3 Calade Sainte Elisabeth, 83210 La Farlede France", "lat": 43.173283, "lng": 6.046906, "ref_id": 10819222, "rating": 4.5, "num_reviews": 0, "website": "https://www.facebook.com/Loliveraie-162272290869109/", "contact_phone": "+33 9 86 53 16 17", "contact_email": null, "status": 1, "source_type": 1, "numberReviews": 189}, {"name": "Lune de miel", "type": "restaurant", "image": "https://dynamic-media-cdn.tripadvisor.com/media/photo-o/16/a1/bd/b0/img-20190302-131939-largejpg.jpg?w=1000&s=1", "address": "31 rue de la Republique, 83140, Six-Fours-les-Plages France", "lat": 43.09209, "lng": 5.841828, "ref_id": 6028595, "rating": 4.5, "num_reviews": 0, "website": null, "contact_phone": "+33 4 94 25 52 31", "contact_email": "Sagafredo13@live.fr", "status": 1, "source_type": 1, "numberReviews": 293}, {"name": "Auberge du Bout du Monde", "type": "restaurant", "image": "https://dynamic-media-cdn.tripadvisor.com/media/photo-o/2c/1c/d4/6b/l-auberge-du-bout-du.jpg?w=1000&s=1", "address": "219 avenue Honor\u00e9 d'Estienne d'Orves, 83330 Evenos France", "lat": 43.173443, "lng": 5.870058, "ref_id": 10389635, "rating": 4.5, "num_reviews": 0, "website": "http://www.facebook.com/aubergeduboutdumonde83", "contact_phone": "+33 7 81 73 19 37", "contact_email": "contact@aubergeduboutdumonde.com", "status": 1, "source_type": 1, "numberReviews": 148}, {"name": "le Saint pierre", "type": "restaurant", "image": "https://dynamic-media-cdn.tripadvisor.com/media/photo-o/26/84/f7/4c/salle.jpg?w=1000&s=1", "address": "47 rue de la Citadelle Le Brusc, 83140, Six-Fours-les-Plages France", "lat": 43.077995, "lng": 5.804143, "ref_id": 3415834, "rating": 4, "num_reviews": 0, "website": "http://www.restaurantsaintpierre.fr/", "contact_phone": "+33 4 94 34 02 52", "contact_email": "contact@restaurantsaintpierre.fr", "status": 1, "source_type": 1, "numberReviews": 309}, {"name": "Le Niglo", "type": "restaurant", "image": "https://dynamic-media-cdn.tripadvisor.com/media/photo-o/1a/7f/26/e1/le-niglo-vous-offre-une.jpg?w=1000&s=1", "address": "Parc Et Jardin de la Mediterranee Parc De La Mediterranee, 83140, Six-Fours-les-Plages France", "lat": 43.09899, "lng": 5.809439, "ref_id": 6762615, "rating": 4.5, "num_reviews": 0, "website": "http://www.leniglo.com/carte-restaurant", "contact_phone": "+33 4 94 32 05 40", "contact_email": "niglobuvette@gmail.com", "status": 1, "source_type": 1, "numberReviews": 152}, {"name": "Les T\u00eates d'Ail", "type": "restaurant", "image": "https://dynamic-media-cdn.tripadvisor.com/media/photo-o/10/73/27/3d/espadon-et-ses-legumes.jpg?w=1000&s=1", "address": "22 rue des Bonnetieres, 83000 Toulon France", "lat": 43.120632, "lng": 5.932874, "ref_id": 3501513, "rating": 4, "num_reviews": 0, "website": "http://www.lestetesdail.fr/", "contact_phone": "+33 4 94 62 07 64", "contact_email": null, "status": 1, "source_type": 1, "numberReviews": 658}, {"name": "O Pied Leve", "type": "restaurant", "image": "https://dynamic-media-cdn.tripadvisor.com/media/photo-o/1d/95/86/8d/photo0jpg.jpg?w=1000&s=1", "address": "9 Place Jean Aicard, 83210 Sollies-Ville France", "lat": 43.182472, "lng": 6.037671, "ref_id": 17822886, "rating": 4.5, "num_reviews": 0, "website": "https://www.facebook.com/301751610737632", "contact_phone": "+33 4 94 33 74 72", "contact_email": "restaurantopiedleve@gmail.com", "status": 1, "source_type": 1, "numberReviews": 84}, {"name": "Le Mas de la Frigoulette Restaurant", "type": "restaurant", "image": "https://dynamic-media-cdn.tripadvisor.com/media/photo-o/0e/1d/c7/15/le-mas-de-la-frigoulette.jpg?w=1000&s=1", "address": "130 avenue des Mimosas, 83110 Sanary-sur-Mer France", "lat": 43.117455, "lng": 5.793911, "ref_id": 3479595, "rating": 4, "num_reviews": 0, "website": "http://www.lemasdelafrigoulette.com/", "contact_phone": "+33 4 94 74 13 46", "contact_email": null, "status": 1, "source_type": 1, "numberReviews": 281}, {"name": "Alegia", "type": "restaurant", "image": "https://dynamic-media-cdn.tripadvisor.com/media/photo-o/1b/63/ff/69/alegia.jpg?w=1000&s=1", "address": "5 rue Louis Blanc, 83110 Sanary-sur-Mer France", "lat": 43.118107, "lng": 5.801318, "ref_id": 10507269, "rating": 4.5, "num_reviews": 0, "website": "http://www.facebook.com/Alegia-1428352727440625/", "contact_phone": "+33 6 31 31 18 17", "contact_email": "delavega71@free.fr", "status": 1, "source_type": 1, "numberReviews": 174}, {"name": "Le Patio", "type": "restaurant", "image": "https://dynamic-media-cdn.tripadvisor.com/media/photo-o/0d/6e/46/cb/salle-de-restaurant-donnant.jpg?w=1000&s=1", "address": "place Jean-Jaures, La Crau France", "lat": 43.14871, "lng": 6.073443, "ref_id": 3781434, "rating": 4.5, "num_reviews": 0, "website": "http://www.lepatiolacrau.fr", "contact_phone": "+33 4 94 75 58 43", "contact_email": null, "status": 1, "source_type": 1, "numberReviews": 335}, {"name": "L'heritage", "type": "restaurant", "image": "https://dynamic-media-cdn.tripadvisor.com/media/photo-o/18/86/9e/94/img-20190727-133320-largejpg.jpg?w=1000&s=1", "address": "1264 avenue General Brosset, 83220 Le Pradet France", "lat": 43.109814, "lng": 6.001817, "ref_id": 17726253, "rating": 4.5, "num_reviews": 0, "website": "https://www.facebook.com/Lheritage-714082102307105/", "contact_phone": "+33 6 34 23 05 92", "contact_email": "chloeruliere@orange.fr", "status": 1, "source_type": 1, "numberReviews": 162}, {"name": "Le Leone", "type": "restaurant", "image": "https://dynamic-media-cdn.tripadvisor.com/media/photo-o/18/bd/2e/93/le-leone.jpg?w=1000&s=1", "address": "398 boulevard des Ecoles, 83140, Six-Fours-les-Plages France", "lat": 43.111687, "lng": 5.813333, "ref_id": 4406645, "rating": 4.5, "num_reviews": 0, "website": "http://www.facebook.com/pages/category/Brewery/Le-Leone-133283983386907/", "contact_phone": "+33 4 94 26 65 71", "contact_email": null, "status": 1, "source_type": 1, "numberReviews": 218}, {"name": "Le Bay", "type": "restaurant", "image": "https://dynamic-media-cdn.tripadvisor.com/media/photo-o/03/8f/c3/0c/repas-de-groupes.jpg?w=1000&s=1", "address": "33 avenue de l Europe, 83140, Six-Fours-les-Plages France", "lat": 43.1175, "lng": 5.842387, "ref_id": 3685525, "rating": 4.5, "num_reviews": 0, "website": "http://www.lebay83.fr", "contact_phone": "+33 4 94 92 93 47", "contact_email": "lionel83110@yahoo.fr", "status": 1, "source_type": 1, "numberReviews": 178}, {"name": "D\u00e9gus'Th\u00e9", "type": "restaurant", "image": "https://dynamic-media-cdn.tripadvisor.com/media/photo-o/2c/8b/b0/20/degus-the-bruncherie.jpg?w=1000&s=1", "address": "24 B rue Pierre Semard, 83000 Toulon France", "lat": 43.122704, "lng": 5.932288, "ref_id": 15513277, "rating": 5, "num_reviews": 0, "website": "http://www.facebook.com/Degusthemoi/?ref=page_internal", "contact_phone": "+33 6 26 71 34 82", "contact_email": "degusthetoulon@gmail.com", "status": 1, "source_type": 1, "numberReviews": 116}, {"name": "Creperie Bretonne Au Fou du Roy", "type": "restaurant", "image": "https://dynamic-media-cdn.tripadvisor.com/media/photo-o/08/58/98/47/creperie-bretonne-au.jpg?w=1000&s=1", "address": "avenue Elie Gauthier Port des Salettes, 83320 Carqueiranne France", "lat": 43.08801, "lng": 6.077224, "ref_id": 3932517, "rating": 4, "num_reviews": 0, "website": "http://www.facebook.com/CreperieBretonneLeFouDuRoy", "contact_phone": "+33 4 83 42 56 84", "contact_email": null, "status": 1, "source_type": 1, "numberReviews": 333}, {"name": "Le Tegot", "type": "restaurant", "image": "https://dynamic-media-cdn.tripadvisor.com/media/photo-o/11/e3/cd/4d/le-tegot.jpg?w=1000&s=1", "address": "4 rue Castel, 83000 Toulon France", "lat": 43.111748, "lng": 5.938281, "ref_id": 4225317, "rating": 4.5, "num_reviews": 0, "website": "http://www.facebook.com/pages/category/Cr%C3%AAperie/Cr%C3%AAperie-Le-T%C3%A9got-628537263867433", "contact_phone": "+33 4 89 30 21 72", "contact_email": null, "status": 1, "source_type": 1, "numberReviews": 156}, {"name": "The 7th Avenue", "type": "restaurant", "image": "https://dynamic-media-cdn.tripadvisor.com/media/photo-o/10/1f/9e/7c/photo0jpg.jpg?w=1000&s=1", "address": "17 avenue de la Jetee Quartier Saint Elme, 83500 La Seyne-sur-Mer France", "lat": 43.078125, "lng": 5.898439, "ref_id": 2642269, "rating": 4, "num_reviews": 0, "website": "http://www.facebook.com/The-7th-Avenue-192345584194908/?ref=page_internal", "contact_phone": "+33 6 17 15 40 70", "contact_email": "7emeavenue.cloe@gmail.com", "status": 1, "source_type": 1, "numberReviews": 429}, {"name": "Bamboo", "type": "restaurant", "image": "https://dynamic-media-cdn.tripadvisor.com/media/photo-o/10/94/7e/44/thon-mi-cuit.jpg?w=1000&s=1", "address": "Chemin du Pradon Plage du Pradon, 83320 Carqueiranne France", "lat": 43.084946, "lng": 6.069761, "ref_id": 1337411, "rating": 4, "num_reviews": 0, "website": "http://www.facebook.com/Le-Bamboo-962535013759812/", "contact_phone": "+33 4 94 58 78 24", "contact_email": "", "status": 1, "source_type": 1, "numberReviews": 448}, {"name": "Courtepaille", "type": "restaurant", "image": "https://dynamic-media-cdn.tripadvisor.com/media/photo-o/1b/12/40/c4/ta-img-20200303-221149.jpg?w=1000&s=1", "address": "avenue Georges Charpak Parc Tertaire Valgora, 83160 La Valette-du-Var France", "lat": 43.14193, "lng": 6.008396, "ref_id": 7159291, "rating": 4.5, "num_reviews": 0, "website": "http://restaurants.courtepaille.com/restaurant-toulon-valgora-id344", "contact_phone": "+33 4 94 14 14 14", "contact_email": null, "status": 1, "source_type": 1, "numberReviews": 158}, {"name": "La Ptite Fabri'k", "type": "restaurant", "image": "https://dynamic-media-cdn.tripadvisor.com/media/photo-o/15/7b/c8/cc/la-ptite-fabrik.jpg?w=1000&s=1", "address": "16 quai du Gal Charles de Gaulle, 83110 Sanary-sur-Mer France", "lat": 43.118095, "lng": 5.800875, "ref_id": 4956311, "rating": 4.5, "num_reviews": 0, "website": null, "contact_phone": "+33 4 94 74 02 17", "contact_email": null, "status": 1, "source_type": 1, "numberReviews": 960}, {"name": "Au Bouchon Provencal", "type": "restaurant", "image": "https://dynamic-media-cdn.tripadvisor.com/media/photo-o/1a/fe/2b/1c/andouillette-et-frites.jpg?w=1000&s=1", "address": "2 rue Docteur Carence, 83000 Toulon France", "lat": 43.12408, "lng": 5.92792, "ref_id": 12175899, "rating": 4.5, "num_reviews": 0, "website": null, "contact_phone": "+33 4 94 41 10 19", "contact_email": null, "status": 1, "source_type": 1, "numberReviews": 20}, {"name": "Fun Coquillages", "type": "restaurant", "image": "https://dynamic-media-cdn.tripadvisor.com/media/photo-o/1a/4d/b1/08/retrouvez-nous-en-bord.jpg?w=1000&s=1", "address": "90 Promenade Gal Charles de Gaulle, 83140, Six-Fours-les-Plages France", "lat": 43.109646, "lng": 5.813178, "ref_id": 4736443, "rating": 3.5, "num_reviews": 0, "website": "http://www.facebook.com/Funcoquillages/", "contact_phone": "+33 4 94 07 23 04", "contact_email": "funcoquillages@gmail.com", "status": 1, "source_type": 1, "numberReviews": 220}, {"name": "Brasserie Quai 245", "type": "restaurant", "image": "https://dynamic-media-cdn.tripadvisor.com/media/photo-o/1b/69/21/36/dessert-assiette-de-fruits.jpg?w=1000&s=1", "address": "245 quai Saint Pierre A c\u00f4t\u00e9 de la Capitainerie, 83140, Six-Fours-les-Plages France", "lat": 43.075527, "lng": 5.802121, "ref_id": 18846637, "rating": 4.5, "num_reviews": 0, "website": null, "contact_phone": "+33 9 51 44 21 39", "contact_email": null, "status": 1, "source_type": 1, "numberReviews": 27}, {"name": "Pizzeria Vesuviana", "type": "restaurant", "image": "https://dynamic-media-cdn.tripadvisor.com/media/photo-o/29/9c/25/90/caption.jpg?w=1000&s=1", "address": "12 Rue de la Chapelle des Playes, 83140, Six-Fours-les-Plages France", "lat": 43.093063, "lng": 5.839225, "ref_id": 25335142, "rating": 5, "num_reviews": 0, "website": "https://www.instagram.com/pizzeria.vesuviana/", "contact_phone": "+33 6 24 85 01 89", "contact_email": null, "status": 1, "source_type": 1, "numberReviews": 11}, {"name": "\u00d4 Sud", "type": "restaurant", "image": "https://dynamic-media-cdn.tripadvisor.com/media/photo-o/2b/88/e0/9c/caption.jpg?w=1000&s=1", "address": "1330 Avenue De La Mer R\u00e9sidence Beausoleil, 83140, Six-Fours-les-Plages France", "lat": 43.102394, "lng": 5.821448, "ref_id": 27419084, "rating": 5, "num_reviews": 0, "website": null, "contact_phone": null, "contact_email": null, "status": 1, "source_type": 1, "numberReviews": 10}, {"name": "Restaurant  Snack Dyafa Specialite Marocaine", "type": "restaurant", "image": "https://dynamic-media-cdn.tripadvisor.com/media/photo-o/19/eb/d6/66/2019-11-04-11-largejpg.jpg?w=1000&s=1", "address": "3 Place Armand Valle, 83000 Toulon France", "lat": 43.12144, "lng": 5.93633, "ref_id": 13139133, "rating": 4.5, "num_reviews": 0, "website": "https://www.facebook.com/snackdyafa/", "contact_phone": "+33 9 87 18 08 69", "contact_email": "cherrabinezha@gmail.com", "status": 1, "source_type": 1, "numberReviews": 25}, {"name": "Le Barrio", "type": "restaurant", "image": "https://dynamic-media-cdn.tripadvisor.com/media/photo-o/25/d5/a0/78/caption.jpg?w=1000&s=1", "address": "11 impasse Granet, 83110 Sanary-sur-Mer France", "lat": 43.11706, "lng": 5.80434, "ref_id": 23744826, "rating": 4, "num_reviews": 0, "website": "", "contact_phone": "+33 7 70 00 44 72", "contact_email": null, "status": 1, "source_type": 1, "numberReviews": 31}, {"name": "Ma Nine", "type": "restaurant", "image": "https://dynamic-media-cdn.tripadvisor.com/media/photo-o/29/41/2e/db/la-salle-du-resto.jpg?w=1000&s=1", "address": "3 place de la Poissonnerie, 83000 Toulon France", "lat": 43.12714, "lng": 5.917886, "ref_id": 25798588, "rating": 5, "num_reviews": 0, "website": "https://www.facebook.com/102076066124628", "contact_phone": "+33 6 60 44 19 72", "contact_email": "manineresto@gmail.com", "status": 1, "source_type": 1, "numberReviews": 11}, {"name": "Serradifalco", "type": "restaurant", "image": "https://dynamic-media-cdn.tripadvisor.com/media/photo-o/27/37/55/95/feu-de-bois.jpg?w=1000&s=1", "address": "363 Avenue Du 11 Novembre 1918, 83160 La Valette-du-Var France", "lat": 43.140217, "lng": 5.997202, "ref_id": 21270565, "rating": 4.5, "num_reviews": 0, "website": "https://www.pizza-serradifalco.fr", "contact_phone": "+33 4 94 21 80 34", "contact_email": null, "status": 1, "source_type": 1, "numberReviews": 18}, {"name": "Bar Le COM\u00e9dia", "type": "restaurant", "image": "https://dynamic-media-cdn.tripadvisor.com/media/photo-o/0b/e8/92/9a/shots-of-our-family-visit.jpg?w=1000&s=1", "address": "17 rue Castillon, 83000 Toulon France", "lat": 43.11163, "lng": 5.939525, "ref_id": 5797656, "rating": 4, "num_reviews": 0, "website": "https://www.facebook.com/Bar-Le-COM%C3%A9dia-222708057872564/", "contact_phone": "+33 4 94 41 08 25", "contact_email": "lecomedia83@orange.fr", "status": 1, "source_type": 1, "numberReviews": 102}, {"name": "Lou Gardo Pizza", "type": "restaurant", "image": "https://dynamic-media-cdn.tripadvisor.com/media/photo-o/14/6f/c7/7f/belle-et-tres-bonne.jpg?w=1000&s=1", "address": "Avenue de la Paix, 83130 La Garde France", "lat": 43.12753, "lng": 6.00777, "ref_id": 8709505, "rating": 4, "num_reviews": 0, "website": "http://www.lougardopizza.fr", "contact_phone": "+33 7 87 27 55 40", "contact_email": null, "status": 1, "source_type": 1, "numberReviews": 144}, {"name": "Asia", "type": "restaurant", "image": null, "address": "128 avenue de la Republique, 83210 La Farlede France", "lat": 43.16829, "lng": 6.04348, "ref_id": 4106572, "rating": 4.5, "num_reviews": 0, "website": null, "contact_phone": null, "contact_email": null, "status": 1, "source_type": 1, "numberReviews": 40}, {"name": "Le Vesuvio", "type": "restaurant", "image": "https://dynamic-media-cdn.tripadvisor.com/media/photo-o/15/f2/97/36/photo1jpg.jpg?w=1000&s=1", "address": "177 avenue Sadi Carnot 177 Avenue Sadi Carnot, 83130 La Garde France", "lat": 43.12403, "lng": 6.00697, "ref_id": 5887185, "rating": 4.5, "num_reviews": 0, "website": "http://www.facebook.com/vesuviolagarde", "contact_phone": "+33 4 94 28 72 97", "contact_email": "levesuviolagarde@gmail.com", "status": 1, "source_type": 1, "numberReviews": 50}, {"name": "Ma Petite Chocolaterie", "type": "restaurant", "image": "https://dynamic-media-cdn.tripadvisor.com/media/photo-o/14/6c/18/f2/photo0jpg.jpg?w=1000&s=1", "address": "16 rue de l Equerre Quartier des Arts, centre historique, 83000 Toulon France", "lat": 43.122364, "lng": 5.930209, "ref_id": 11933288, "rating": 5, "num_reviews": 0, "website": "http://www.mapetitechocolaterie.com", "contact_phone": "+33 6 21 17 33 11", "contact_email": "contact@mapetitechocolaterie.com", "status": 1, "source_type": 1, "numberReviews": 22}, {"name": "Au Petit Nouveau", "type": "restaurant", "image": "https://dynamic-media-cdn.tripadvisor.com/media/photo-o/1d/94/38/ae/entrecote.jpg?w=1000&s=1", "address": "12 Rue Danton, 83160 La Valette-du-Var France", "lat": 43.13695, "lng": 5.98243, "ref_id": 23585282, "rating": 4.5, "num_reviews": 0, "website": "https://aupetitnouveau.wixsite.com/website", "contact_phone": "+33 4 94 48 59 79", "contact_email": null, "status": 1, "source_type": 1, "numberReviews": 22}, {"name": "Salad&CO la Valette du Var", "type": "restaurant", "image": "https://dynamic-media-cdn.tripadvisor.com/media/photo-o/10/bb/39/29/restaurant-salad-co-la.jpg?w=1000&s=1", "address": "138 avenue de l Universite, 83160 La Valette-du-Var France", "lat": 43.13843, "lng": 6.015962, "ref_id": 12862959, "rating": 3.5, "num_reviews": 0, "website": "https://www.facebook.com/saladandcorestaurant/", "contact_phone": "+33 4 94 20 95 40", "contact_email": "contact@saladandco.fr", "status": 1, "source_type": 1, "numberReviews": 252}, {"name": "Brasserie du XV", "type": "restaurant", "image": "https://dynamic-media-cdn.tripadvisor.com/media/photo-o/1d/6c/fd/fb/caption.jpg?w=1000&s=1", "address": "Zac Valgora, 83160 La Valette-du-Var France", "lat": 43.140343, "lng": 6.009092, "ref_id": 4886117, "rating": 4, "num_reviews": 0, "website": "https://www.facebook.com/Brasserie-du-XV-688366374953362/", "contact_phone": "+33 4 94 14 11 22", "contact_email": "brasserieduXV@gmail.com", "status": 1, "source_type": 1, "numberReviews": 60}, {"name": "La Tribune", "type": "restaurant", "image": "https://dynamic-media-cdn.tripadvisor.com/media/photo-o/14/d8/7d/68/deco.jpg?w=1000&s=1", "address": "479 avenue de la Republique Au pied du Stade Mayol, 83000 Toulon France", "lat": 43.118904, "lng": 5.935248, "ref_id": 5955077, "rating": 4.5, "num_reviews": 0, "website": "http://www.facebook.com/brasserielatribune", "contact_phone": "+33 4 94 05 77 10", "contact_email": "latribunebrasserie@gmail.com", "status": 1, "source_type": 1, "numberReviews": 58}, {"name": "Hoi An Asian Cuisine", "type": "restaurant", "image": "https://dynamic-media-cdn.tripadvisor.com/media/photo-o/26/ba/fb/87/caption.jpg?w=1000&s=1", "address": "2 rue Corneille, 83000 Toulon France", "lat": 43.124287, "lng": 5.933107, "ref_id": 24971124, "rating": 4.5, "num_reviews": 0, "website": "http://instagram.com/hoian.asiancuisine?igshid=YmMyMTA2M2Y=", "contact_phone": "+33 6 95 67 83 32", "contact_email": null, "status": 1, "source_type": 1, "numberReviews": 28}, {"name": "La Raclette \u00c0 Jo", "type": "restaurant", "image": "https://dynamic-media-cdn.tripadvisor.com/media/photo-o/2c/3b/f8/c0/parfait-pour-l-apero.jpg?w=1000&s=1", "address": "130 Boulevard Docteur Cun\u00e9o, 83000 Toulon France", "lat": 43.107613, "lng": 5.932728, "ref_id": 26697070, "rating": 4.5, "num_reviews": 0, "website": "https://reservation.dish.co/landingpage/hydra-1b71285d-aef9-4484-a868-6c39fb272731", "contact_phone": "+33 7 65 76 84 55", "contact_email": "laracletteajo@gmail.com", "status": 1, "source_type": 1, "numberReviews": 15}, {"name": "Gino Toulon", "type": "restaurant", "image": "https://dynamic-media-cdn.tripadvisor.com/media/photo-o/2a/be/53/dc/caption.jpg?w=1000&s=1", "address": "54 Rue Al\u00e9zard, 83000 Toulon France", "lat": 43.122765, "lng": 5.934245, "ref_id": 26349910, "rating": 5, "num_reviews": 0, "website": "https://www.gino-toulon.fr/", "contact_phone": "+33 6 11 87 12 56", "contact_email": null, "status": 1, "source_type": 1, "numberReviews": 10}, {"name": "Key West", "type": "restaurant", "image": "https://dynamic-media-cdn.tripadvisor.com/media/photo-o/11/6e/09/3d/getlstd-property-photo.jpg?w=1000&s=1", "address": "595 Chemin de l Estagnol, 83260 La Crau France", "lat": 43.123817, "lng": 6.073654, "ref_id": 13220132, "rating": 4.5, "num_reviews": 0, "website": "https://www.facebook.com/keywestlamoutonne/", "contact_phone": "+33 4 94 23 12 10", "contact_email": "keywest83@orange.fr", "status": 1, "source_type": 1, "numberReviews": 27}, {"name": "\u00d4 Baroque", "type": "restaurant", "image": "https://dynamic-media-cdn.tripadvisor.com/media/photo-o/1b/f3/60/88/plat.jpg?w=1000&s=1", "address": "15 rue Gimmeli, 83000 Toulon France", "lat": 43.127277, "lng": 5.928073, "ref_id": 21203257, "rating": 4.5, "num_reviews": 0, "website": "http://www.obaroque.fr", "contact_phone": "+33 6 88 80 59 38", "contact_email": null, "status": 1, "source_type": 1, "numberReviews": 16}, {"name": "Cactus Caf\u00e9 Cantina", "type": "restaurant", "image": "https://dynamic-media-cdn.tripadvisor.com/media/photo-o/17/2b/0f/1b/20190413-214409-largejpg.jpg?w=1000&s=1", "address": "9 boulevard Eugene Pelletan, 83000 Toulon France", "lat": 43.11149, "lng": 5.935756, "ref_id": 15233811, "rating": 4, "num_reviews": 0, "website": "https://www.facebook.com/cactuscafemourillon/", "contact_phone": "+33 4 94 94 52 08", "contact_email": "hola@cactusclub.fr", "status": 1, "source_type": 1, "numberReviews": 44}, {"name": "La casa", "type": "restaurant", "image": "https://dynamic-media-cdn.tripadvisor.com/media/photo-o/1d/8c/8b/a6/caption.jpg?w=1000&s=1", "address": "7 boulevard D Estienne D Orves, 83110 Sanary-sur-Mer France", "lat": 43.11676, "lng": 5.80449, "ref_id": 17728957, "rating": 4, "num_reviews": 0, "website": "https://www.facebook.com/La-CASA-Sanary-1123705157803261/", "contact_phone": "+33 7 83 73 15 08", "contact_email": null, "status": 1, "source_type": 1, "numberReviews": 56}, {"name": "Josephine", "type": "restaurant", "image": "https://dynamic-media-cdn.tripadvisor.com/media/photo-o/19/e6/92/18/20191102-125831-largejpg.jpg?w=1000&s=1", "address": "10 Rue Dr Camille Auban Place de l\u2019Equerre, 83000 Toulon France", "lat": 43.12261, "lng": 5.929979, "ref_id": 15027283, "rating": 4, "num_reviews": 0, "website": "http://www.josephine-restaurant-toulon.com/", "contact_phone": "+33 6 62 37 38 73", "contact_email": null, "status": 1, "source_type": 1, "numberReviews": 47}, {"name": "Resto Moom", "type": "restaurant", "image": "https://dynamic-media-cdn.tripadvisor.com/media/photo-o/13/7a/ef/21/photo1jpg.jpg?w=1000&s=1", "address": "56 Promenade Gal Charles de Gaulle, 83140, Six-Fours-les-Plages France", "lat": 43.108624, "lng": 5.813626, "ref_id": 3347107, "rating": 3.5, "num_reviews": 0, "website": "https://www.facebook.com/moom.restaurant/", "contact_phone": "+33 4 94 07 16 54", "contact_email": null, "status": 1, "source_type": 1, "numberReviews": 597}, {"name": "Lou Mestre Pin Fougasse", "type": "restaurant", "image": "https://dynamic-media-cdn.tripadvisor.com/media/photo-o/0b/d1/e1/d7/lunch-for-one.jpg?w=1000&s=1", "address": "1 rue Tricot, 83330 Le Castellet France", "lat": 43.20303, "lng": 5.77688, "ref_id": 9729834, "rating": 4.5, "num_reviews": 0, "website": null, "contact_phone": "+33 4 94 32 67 99", "contact_email": null, "status": 1, "source_type": 1, "numberReviews": 28}, {"name": "Zozo sushi", "type": "restaurant", "image": "https://dynamic-media-cdn.tripadvisor.com/media/photo-o/2c/66/42/de/caption.jpg?w=1000&s=1", "address": "55 avenue Baptistin Autran, 83130 La Garde France", "lat": 43.12553, "lng": 6.01125, "ref_id": 20444128, "rating": 5, "num_reviews": 0, "website": "http://zozosushi.wordpress.com", "contact_phone": "+33 7 69 66 27 97", "contact_email": null, "status": 1, "source_type": 1, "numberReviews": 13}, {"name": "Chez Pascaline", "type": "restaurant", "image": "https://dynamic-media-cdn.tripadvisor.com/media/photo-o/13/fa/12/26/salade-avocats-crevettes.jpg?w=1000&s=1", "address": "302 avenue Edouard Aiguier, 83260 La Crau France", "lat": 43.1198, "lng": 6.06962, "ref_id": 13547944, "rating": 5, "num_reviews": 0, "website": null, "contact_phone": "+33 6 03 11 71 56", "contact_email": null, "status": 1, "source_type": 1, "numberReviews": 18}, {"name": "LM Mourillon (la Marguerite)", "type": "restaurant", "image": "https://dynamic-media-cdn.tripadvisor.com/media/photo-o/1d/53/ba/a5/la-marguerite.jpg?w=1000&s=1", "address": "7 Plage du Mourillon, 83000 Toulon France", "lat": 43.10769, "lng": 5.945301, "ref_id": 23502047, "rating": 3.5, "num_reviews": 0, "website": "http://www.facebook.com/LM-Mourillon-112438354407273/", "contact_phone": "+33 4 94 03 19 13", "contact_email": "lmmourillon@orange.fr", "status": 1, "source_type": 1, "numberReviews": 69}, {"name": "Pizza LoLo", "type": "restaurant", "image": "https://dynamic-media-cdn.tripadvisor.com/media/photo-o/10/e3/82/f8/le-camion.jpg?w=1000&s=1", "address": "Chemin de Marechal Vivo, 83500 La Seyne-sur-Mer France", "lat": 43.07483, "lng": 5.88245, "ref_id": 10810562, "rating": 4, "num_reviews": 0, "website": null, "contact_phone": null, "contact_email": null, "status": 1, "source_type": 1, "numberReviews": 15}, {"name": "Au Buffet Du Port", "type": "restaurant", "image": "https://dynamic-media-cdn.tripadvisor.com/media/photo-o/2b/16/f1/5d/caption.jpg?w=1000&s=1", "address": "7 Bd Estienne D'Orves, 83110 Sanary-sur-Mer France", "lat": 43.11676, "lng": 5.80449, "ref_id": 12931369, "rating": 4.5, "num_reviews": 0, "website": "http://www.aubuffetduport.com", "contact_phone": "+33 4 94 74 57 24", "contact_email": null, "status": 1, "source_type": 1, "numberReviews": 4}, {"name": "Le Five", "type": "restaurant", "image": "https://dynamic-media-cdn.tripadvisor.com/media/photo-o/2b/f0/fc/c7/caption.jpg?w=1000&s=1", "address": "Promenade Du G\u00e9n\u00e9ral De Gaulle, 83140, Six-Fours-les-Plages France", "lat": 43.11171, "lng": 5.811662, "ref_id": 27540707, "rating": 4, "num_reviews": 0, "website": null, "contact_phone": "+33 7 61 99 10 01", "contact_email": "savane.kapa@gmail.com", "status": 1, "source_type": 1, "numberReviews": 9}, {"name": "Le Pagnol", "type": "restaurant", "image": "https://dynamic-media-cdn.tripadvisor.com/media/photo-o/16/c5/c8/ce/le-pagnol-55-route-de.jpg?w=1000&s=1", "address": "55 Route Fabr\u00e9gas, 83500 La Seyne-sur-Mer France", "lat": 43.10156, "lng": 5.88152, "ref_id": 1331363, "rating": 4.5, "num_reviews": 0, "website": null, "contact_phone": "+33 7 86 74 39 22", "contact_email": "", "status": 1, "source_type": 1, "numberReviews": 6}, {"name": "Eight Rooftop", "type": "restaurant", "image": "https://dynamic-media-cdn.tripadvisor.com/media/photo-o/23/42/4b/fe/eight-rooftop.jpg?w=1000&s=1", "address": "241 allee de la Lavande, 83160 La Valette-du-Var France", "lat": 43.13557, "lng": 6.004339, "ref_id": 17852563, "rating": 4, "num_reviews": 0, "website": "http://www.eightrooftop.fr", "contact_phone": "+33 6 14 26 92 10", "contact_email": "eightrooftop@gmail.com", "status": 1, "source_type": 1, "numberReviews": 14}, {"name": "Jo'z", "type": "restaurant", "image": "https://dynamic-media-cdn.tripadvisor.com/media/photo-o/0b/15/7f/42/20160419-125952-largejpg.jpg?w=1000&s=1", "address": "454 route Nationale 97, 83130 La Garde France", "lat": 43.14992, "lng": 6.0329, "ref_id": 7702992, "rating": 4, "num_reviews": 0, "website": "http://www.facebook.com/Restaurant-Caf%C3%A9-LE-JOz-142851632774030/", "contact_phone": "+33 6 15 92 54 59", "contact_email": null, "status": 1, "source_type": 1, "numberReviews": 9}, {"name": "Brasserie L'Oasis", "type": "restaurant", "image": "https://dynamic-media-cdn.tripadvisor.com/media/photo-o/16/a7/ae/17/img-20190227-121715-largejpg.jpg?w=1000&s=1", "address": "305 Place de la Liberte, 83000 Toulon France", "lat": 43.125565, "lng": 5.930878, "ref_id": 4117325, "rating": 3.5, "num_reviews": 0, "website": null, "contact_phone": "+33 4 94 92 27 64", "contact_email": "claudebarbaroux@yahoo.fr", "status": 1, "source_type": 1, "numberReviews": 57}, {"name": "snack le carrousel", "type": "restaurant", "image": "https://dynamic-media-cdn.tripadvisor.com/media/photo-o/13/11/7d/ce/superbe-recompense.jpg?w=1000&s=1", "address": "34 allee D Estienne D Orves Sur le port A COTE DU GRAND MANEGE, 83110 Sanary-sur-Mer France", "lat": 43.117393, "lng": 5.803723, "ref_id": 8278313, "rating": 3.5, "num_reviews": 0, "website": null, "contact_phone": "+33 4 94 34 13 51", "contact_email": "snacklecarrousel@aol.fr", "status": 1, "source_type": 1, "numberReviews": 101}, {"name": "Au Bec Fin", "type": "restaurant", "image": "https://dynamic-media-cdn.tripadvisor.com/media/photo-o/08/6b/eb/ac/au-bec-fin.jpg?w=1000&s=1", "address": "24 rue Gabriel Peri, 83210 Sollies-Pont France", "lat": 43.19045, "lng": 6.041809, "ref_id": 7178242, "rating": 4, "num_reviews": 0, "website": "http://hachache65.wix.com/aubecfin-miangelys", "contact_phone": "+33 4 94 23 62 85", "contact_email": "ramihachache@hotmail.fr", "status": 1, "source_type": 1, "numberReviews": 12}, {"name": "O2J", "type": "restaurant", "image": "https://dynamic-media-cdn.tripadvisor.com/media/photo-o/16/ab/e2/a8/filet-de-cochon-barde.jpg?w=1000&s=1", "address": "45 boulevard de Bazeilles, 83000 Toulon France", "lat": 43.11303, "lng": 5.93961, "ref_id": 16753828, "rating": 4.5, "num_reviews": 0, "website": "https://www.facebook.com/BarRestaurantO2J/", "contact_phone": "+33 4 94 27 35 01", "contact_email": "ctaf83@gmail.com", "status": 1, "source_type": 1, "numberReviews": 5}, {"name": "Pizzas Aux 4 Coins du Monde", "type": "restaurant", "image": "https://dynamic-media-cdn.tripadvisor.com/media/photo-o/19/f5/2a/30/istanbul.jpg?w=1000&s=1", "address": "601 avenue des Meuniers, 83200 Toulon France", "lat": 43.15816, "lng": 5.91766, "ref_id": 13369129, "rating": 4.5, "num_reviews": 0, "website": "https://www.facebook.com/PizzasAux4coins/", "contact_phone": "+33 7 68 67 88 14", "contact_email": "giletvert@laposte.net", "status": 1, "source_type": 1, "numberReviews": 6}, {"name": "Le Panoramic", "type": "restaurant", "image": "https://dynamic-media-cdn.tripadvisor.com/media/photo-o/13/bc/45/46/panoramic-by-night.jpg?w=1000&s=1", "address": "140 Chemin de la Plage l\u2019Hostellerie La Farandole, 83110 Sanary-sur-Mer France", "lat": 43.128857, "lng": 5.781231, "ref_id": 4550103, "rating": 3, "num_reviews": 0, "website": "http://www.hostellerielafarandole.com/", "contact_phone": "+33 4 94 90 30 20", "contact_email": "reservation@hostellerielafarandole.com", "status": 1, "source_type": 1, "numberReviews": 138}, {"name": "Le Chamo", "type": "restaurant", "image": "https://dynamic-media-cdn.tripadvisor.com/media/photo-o/1d/40/ba/7e/caption.jpg?w=1000&s=1", "address": "Quai Charles de Gaulle Face au man\u00e8ge CARROUSEL, 83150, Bandol France", "lat": 43.136635, "lng": 5.758348, "ref_id": 12454246, "rating": 3.5, "num_reviews": 0, "website": null, "contact_phone": "+33 6 25 15 48 97", "contact_email": null, "status": 1, "source_type": 1, "numberReviews": 27}, {"name": "Olea", "type": "restaurant", "image": "https://dynamic-media-cdn.tripadvisor.com/media/photo-o/16/e2/1c/63/daube-de-cerf-mousseline.jpg?w=1000&s=1", "address": "98 Forum de la Mediterranee, 83190 Ollioules France", "lat": 43.13978, "lng": 5.84585, "ref_id": 15289578, "rating": 4, "num_reviews": 0, "website": "https://www.facebook.com/OLEA-679393542440952/", "contact_phone": "+33 4 94 90 52 80", "contact_email": "lolearestaurant@gmail.com", "status": 1, "source_type": 1, "numberReviews": 8}, {"name": "Le Magot", "type": "restaurant", "image": "https://dynamic-media-cdn.tripadvisor.com/media/photo-o/08/a7/92/73/un-vrai-regal.jpg?w=1000&s=1", "address": "3261 avenue de la Resistance, 83000 Toulon France", "lat": 43.109795, "lng": 5.980295, "ref_id": 8497346, "rating": 4, "num_reviews": 0, "website": "https://www.clublemagot.fr/", "contact_phone": "+33 4 94 27 08 55", "contact_email": null, "status": 1, "source_type": 1, "numberReviews": 25}, {"name": "Le Mousse Toulon", "type": "restaurant", "image": "https://dynamic-media-cdn.tripadvisor.com/media/photo-o/25/16/a3/9a/places-interieur-et-exterieur.jpg?w=1000&s=1", "address": "22 Boulevard Docteur Cuneo Fa\u00e7ade Bleu, 83000 Toulon France", "lat": 43.1079, "lng": 5.93152, "ref_id": 21135928, "rating": 4, "num_reviews": 0, "website": "http://www.lemousse.fr", "contact_phone": "+33 7 62 23 60 86", "contact_email": null, "status": 1, "source_type": 1, "numberReviews": 7}, {"name": "Au Clair de Vigne", "type": "restaurant", "image": null, "address": "25 rue du Docteur Louis Marcon, 83150, Bandol France", "lat": 43.13675, "lng": 5.75745, "ref_id": 17338700, "rating": 5, "num_reviews": 0, "website": "https://www.facebook.com/Au-Clair-de-la-Vigne-399763540816862/", "contact_phone": "+33 4 94 32 28 58", "contact_email": null, "status": 1, "source_type": 1, "numberReviews": 3}, {"name": "Brasserie Restaurant L'ovalie", "type": "restaurant", "image": "https://dynamic-media-cdn.tripadvisor.com/media/photo-o/1a/ac/54/72/pour-un-repas-d-affaires.jpg?w=1000&s=1", "address": "Lotissement les Orangers , les Messoniers Espace Charlotte, 83260 La Crau France", "lat": 43.16744, "lng": 6.09701, "ref_id": 19638538, "rating": 4.5, "num_reviews": 0, "website": null, "contact_phone": "+33 4 94 65 72 32", "contact_email": null, "status": 1, "source_type": 1, "numberReviews": 5}, {"name": "Pizza Nano", "type": "restaurant", "image": "https://dynamic-media-cdn.tripadvisor.com/media/photo-o/14/3c/88/3d/photo0jpg.jpg?w=1000&s=1", "address": "1504 avenue Joseph Gasquet, 83100 Toulon France", "lat": 43.122765, "lng": 5.971149, "ref_id": 5616504, "rating": 4, "num_reviews": 0, "website": "https://www.facebook.com/Nanopizzatoulon-379537102509216/", "contact_phone": "+33 4 94 23 06 30", "contact_email": null, "status": 1, "source_type": 1, "numberReviews": 15}, {"name": "Les Maitres Rotisseurs", "type": "restaurant", "image": "https://dynamic-media-cdn.tripadvisor.com/media/photo-o/1b/83/2a/32/poulet-fermier-roti.jpg?w=1000&s=1", "address": "Route De Pierrefeu Vallee de La Sauvebonne, 83210, Hyeres France", "lat": 43.20915, "lng": 6.050874, "ref_id": 12128890, "rating": 4.5, "num_reviews": 0, "website": "http://lesmaitresrotisseurs.fr/", "contact_phone": "+33 6 66 41 41 55", "contact_email": "contact@lesmaitresrotisseurs.fr", "status": 1, "source_type": 1, "numberReviews": 5}, {"name": "Banthai Express", "type": "restaurant", "image": "https://dynamic-media-cdn.tripadvisor.com/media/photo-o/1b/33/aa/00/banthai.jpg?w=1000&s=1", "address": "33 rue Lamalgue, 83000 Toulon France", "lat": 43.11061, "lng": 5.93938, "ref_id": 20351030, "rating": 4, "num_reviews": 0, "website": "http://banthai-express.fr", "contact_phone": "+33 9 84 36 05 38", "contact_email": "contact@banthai-express.fr", "status": 1, "source_type": 1, "numberReviews": 13}, {"name": "C\u00f4t\u00e9 Sushi Toulon", "type": "restaurant", "image": "https://dynamic-media-cdn.tripadvisor.com/media/photo-o/2b/05/50/72/d-inspiration-japonaise.jpg?w=1000&s=1", "address": "7, Boulevard De Strasbourg, 83000 Toulon France", "lat": 43.12524, "lng": 5.93015, "ref_id": 23648737, "rating": 3.5, "num_reviews": 0, "website": "https://cotesushi.com/", "contact_phone": "+33 4 82 29 29 48", "contact_email": null, "status": 1, "source_type": 1, "numberReviews": 22}, {"name": "La Saladerie", "type": "restaurant", "image": "https://dynamic-media-cdn.tripadvisor.com/media/photo-o/0e/a1/39/f5/la-saladerie.jpg?w=1000&s=1", "address": "avenue Alfred Kastler, 83160 La Valette-du-Var France", "lat": 43.14132, "lng": 6.00839, "ref_id": 10044356, "rating": 4, "num_reviews": 0, "website": null, "contact_phone": "+33 4 94 58 80 52", "contact_email": null, "status": 1, "source_type": 1, "numberReviews": 10}, {"name": "Kiosque \u00e0 Sushi", "type": "restaurant", "image": "https://dynamic-media-cdn.tripadvisor.com/media/photo-o/0c/7b/9c/52/plateau-sushi-varies.jpg?w=1000&s=1", "address": "Avenue du Lion - ZA La Poulasse Parking KIABI, 83210 Sollies-Pont France", "lat": 43.20669, "lng": 6.05008, "ref_id": 10275245, "rating": 4, "num_reviews": 0, "website": "http://www.sushisolliespont.com", "contact_phone": "+33 6 38 79 42 23", "contact_email": "espritsushisolliespont@gmail.com", "status": 1, "source_type": 1, "numberReviews": 26}, {"name": "L'atelier \u00c0 Burger", "type": "restaurant", "image": "https://dynamic-media-cdn.tripadvisor.com/media/photo-o/25/08/0e/e7/le-service-etait-super.jpg?w=1000&s=1", "address": "5 quai Marie Esmenard, 83110 Sanary-sur-Mer France", "lat": 43.117603, "lng": 5.800334, "ref_id": 23348744, "rating": 3.5, "num_reviews": 0, "website": "https://www.facebook.com/l-atelier-%c3%a0-burger-902789643085189/", "contact_phone": "+33 6 52 05 47 51", "contact_email": null, "status": 1, "source_type": 1, "numberReviews": 15}, {"name": "Mamma Mia", "type": "restaurant", "image": "https://dynamic-media-cdn.tripadvisor.com/media/photo-o/10/39/b3/2b/mamma-mia.jpg?w=1000&s=1", "address": "10 Place Louis Pasteur Acc\u00e8s par la Rue Marquetas derri\u00e8re la station service 8\u00e08, 83000 Toulon France", "lat": 43.11732, "lng": 5.937033, "ref_id": 10825635, "rating": 4.5, "num_reviews": 0, "website": "http://www.facebook.com/Mamma-Mia-1174820749206844/", "contact_phone": "+33 9 53 65 61 18", "contact_email": "mamma.mia.toulon@gmail.com", "status": 1, "source_type": 1, "numberReviews": 8}, {"name": "La Pergola", "type": "restaurant", "image": "https://dynamic-media-cdn.tripadvisor.com/media/photo-o/0a/cd/fa/94/getlstd-property-photo.jpg?w=1000&s=1", "address": "93 Chemin Lou Foevi, 83190 Ollioules France", "lat": 43.12683, "lng": 5.857618, "ref_id": 10158542, "rating": 5, "num_reviews": 0, "website": "https://fr-fr.facebook.com/La-Pergola-1692802467620449/", "contact_phone": "+33 4 94 71 34 08", "contact_email": null, "status": 1, "source_type": 1, "numberReviews": 6}, {"name": "Royal Kebbab", "type": "restaurant", "image": "https://dynamic-media-cdn.tripadvisor.com/media/photo-o/0c/c0/7d/dc/20160829-203736-largejpg.jpg?w=1000&s=1", "address": "32 avenue Henri Petin, 83500 La Seyne-sur-Mer France", "lat": 43.10331, "lng": 5.87457, "ref_id": 3721389, "rating": 3.5, "num_reviews": 0, "website": "https://www.facebook.com/marjory.alpanez", "contact_phone": "+33 4 98 00 22 45", "contact_email": null, "status": 1, "source_type": 1, "numberReviews": 23}, {"name": "O'Boulodrome", "type": "restaurant", "image": "https://dynamic-media-cdn.tripadvisor.com/media/photo-o/1c/19/e1/a0/apero-petanque-a-toulon.jpg?w=1000&s=1", "address": "6 rue Chevalier Paul, 83000 Toulon France", "lat": 43.12256, "lng": 5.9311, "ref_id": 21209879, "rating": 4, "num_reviews": 0, "website": "http://www.oboulodrome.fr", "contact_phone": "+33 4 28 04 09 33", "contact_email": "contact@oboulodrome.fr", "status": 1, "source_type": 1, "numberReviews": 6}, {"name": "Pizz\u00e9ria Le Firenze", "type": "restaurant", "image": "https://dynamic-media-cdn.tripadvisor.com/media/photo-o/28/af/03/5c/la-paysanne.jpg?w=1000&s=1", "address": "45 avenue de la Republique, 83210 La Farlede France", "lat": 43.16533, "lng": 6.0426, "ref_id": 8401741, "rating": 4, "num_reviews": 0, "website": "http://www.facebook.com/Restaurant-pizzeria-le-firenze-1418861038352061", "contact_phone": "+33 4 94 48 70 70", "contact_email": null, "status": 1, "source_type": 1, "numberReviews": 38}, {"name": "L\u2019Arlequin", "type": "restaurant", "image": "https://dynamic-media-cdn.tripadvisor.com/media/photo-o/18/27/5d/0b/photo0jpg.jpg?w=1000&s=1", "address": "830 boulevard de Lery, 83140, Six-Fours-les-Plages France", "lat": 43.116154, "lng": 5.849139, "ref_id": 15843027, "rating": 5, "num_reviews": 0, "website": null, "contact_phone": "+33 4 94 94 33 37", "contact_email": null, "status": 1, "source_type": 1, "numberReviews": 11}, {"name": "Rue Tha\u00ef", "type": "restaurant", "image": "https://dynamic-media-cdn.tripadvisor.com/media/photo-o/13/a3/35/5a/20180707-190901-largejpg.jpg?w=1000&s=1", "address": "898 Route Du Beausset, 83150, Bandol France", "lat": 43.1466, "lng": 5.765829, "ref_id": 12447869, "rating": 4, "num_reviews": 0, "website": "https://www.facebook.com/1556942887931842", "contact_phone": "+33 4 83 57 69 84", "contact_email": "contact@rue-thai.com", "status": 1, "source_type": 1, "numberReviews": 34}, {"name": "Bandol Pizza", "type": "restaurant", "image": "https://dynamic-media-cdn.tripadvisor.com/media/photo-o/1b/8c/15/08/20200713-194545-largejpg.jpg?w=1000&s=1", "address": "260 boulevard de Marseille Parking gratuit, terasse, 83150, Bandol France", "lat": 43.148693, "lng": 5.750147, "ref_id": 4106050, "rating": 3.5, "num_reviews": 0, "website": "http://www.bandolpizza.fr/", "contact_phone": "+33 4 94 29 00 79", "contact_email": "bandolpizza@gmail.com", "status": 1, "source_type": 1, "numberReviews": 74}, {"name": "Le Bistronomade", "type": "restaurant", "image": "https://dynamic-media-cdn.tripadvisor.com/media/photo-o/13/0e/50/c1/le-food-truck-se-deplace.jpg?w=1000&s=1", "address": "avenue Rene Cassin, 83260 La Valette-du-Var France", "lat": 43.13203, "lng": 6.054825, "ref_id": 12184954, "rating": 5, "num_reviews": 0, "website": "http://lebistronomade.com/", "contact_phone": "+33 7 69 80 00 04", "contact_email": "contact@lebistronomade.com", "status": 1, "source_type": 1, "numberReviews": 12}, {"name": "Papilles en foly's", "type": "restaurant", "image": "https://dynamic-media-cdn.tripadvisor.com/media/photo-o/1c/27/6f/69/arrivee-restaurant.jpg?w=1000&s=1", "address": "3 avenue Honore D Estienne D Orves, 83500 La Seyne-sur-Mer France", "lat": 43.114517, "lng": 5.876935, "ref_id": 21335208, "rating": 5, "num_reviews": 0, "website": null, "contact_phone": "+33 6 17 08 22 03", "contact_email": "papilles.en.folys@gmail.com", "status": 1, "source_type": 1, "numberReviews": 7}, {"name": "MoMa Restaurant", "type": "restaurant", "image": "https://dynamic-media-cdn.tripadvisor.com/media/photo-o/19/ba/1f/26/moma-restaurant-interieur.jpg?w=1000&s=1", "address": "Chemin de Rabasson Golf de Valgarde, 83130 La Garde France", "lat": 43.1288, "lng": 6.026196, "ref_id": 15640102, "rating": 4, "num_reviews": 0, "website": "http://www.golf-valgarde.com/restaurant/", "contact_phone": "+33 4 94 14 01 05", "contact_email": "info@golfdevalgarde.com", "status": 1, "source_type": 1, "numberReviews": 20}, {"name": "La Pause Culotte", "type": "restaurant", "image": "https://dynamic-media-cdn.tripadvisor.com/media/photo-o/1b/69/46/f6/photo0jpg.jpg?w=1000&s=1", "address": "34 rue de Pomet, 83000 Toulon France", "lat": 43.123055, "lng": 5.931667, "ref_id": 13955073, "rating": 4, "num_reviews": 0, "website": "https://www.facebook.com/La-pause-culotte-2032825283707443/", "contact_phone": "+33 9 81 89 18 28", "contact_email": null, "status": 1, "source_type": 1, "numberReviews": 28},