[{"name": "Buffet du Grand March\u00e9", "type": "restaurant", "image": "https://dynamic-media-cdn.tripadvisor.com/media/photo-o/28/92/e2/4c/buffet-du-grand-marche.jpg?w=1000&s=1", "address": "146, Avenue des \u00c9tats-Unis, 31200, Toulouse France", "lat": 43.639263, "lng": 1.43102, "ref_id": 7756922, "rating": 4.5, "num_reviews": 0, "website": "https://www.buffetdugrandmarche.com/", "contact_phone": "+33 6 07 27 53 50", "contact_email": "contact@alaunefamily.com", "status": 1, "source_type": 1, "numberReviews": 88}, {"name": "Le Bistronomique", "type": "restaurant", "image": "https://dynamic-media-cdn.tripadvisor.com/media/photo-o/03/c9/24/dd/getlstd-property-photo.jpg?w=1000&s=1", "address": "73 route de Revel, 31400, Toulouse France", "lat": 43.57403, "lng": 1.491189, "ref_id": 4814773, "rating": 4, "num_reviews": 0, "website": "http://lebistronomique-toulouse.com", "contact_phone": "+33 5 61 20 67 05", "contact_email": null, "status": 1, "source_type": 1, "numberReviews": 97}, {"name": "REDSTAR PIZZA", "type": "restaurant", "image": "https://dynamic-media-cdn.tripadvisor.com/media/photo-o/0e/9c/d6/95/salle-de-restaurant.jpg?w=1000&s=1", "address": "65 avenue de l Urss en face de la station de m\u00e9tro Saint-agne/SNCF, 31400, Toulouse France", "lat": 43.58009, "lng": 1.449353, "ref_id": 2138238, "rating": 4.5, "num_reviews": 0, "website": "http://www.redstar-pizza.fr/", "contact_phone": "+33 5 61 53 40 72", "contact_email": "vivian-cotton@sfr.fr", "status": 1, "source_type": 1, "numberReviews": 41}, {"name": "Pub o'clock", "type": "restaurant", "image": "https://dynamic-media-cdn.tripadvisor.com/media/photo-o/0e/6a/64/39/breakfast.jpg?w=1000&s=1", "address": "21 boulevard de Strasbourg, 31000, Toulouse France", "lat": 43.60697, "lng": 1.44707, "ref_id": 11914695, "rating": 4, "num_reviews": 0, "website": "http://www.facebook.com/puboclock31/", "contact_phone": "+33 5 67 11 15 06", "contact_email": null, "status": 1, "source_type": 1, "numberReviews": 86}, {"name": "Bambou et saveurs", "type": "restaurant", "image": "https://dynamic-media-cdn.tripadvisor.com/media/photo-o/0f/db/25/35/img-20170711-212335-largejpg.jpg?w=1000&s=1", "address": "151 route de Toulouse, 31270 Cugnaux, Toulouse France", "lat": 43.55754, "lng": 1.36451, "ref_id": 4664385, "rating": 4, "num_reviews": 0, "website": "http://www.le-bambou-cugnaux.fr", "contact_phone": "+33 5 31 54 65 37", "contact_email": null, "status": 1, "source_type": 1, "numberReviews": 65}, {"name": "La Mare Aux Canard", "type": "restaurant", "image": "https://dynamic-media-cdn.tripadvisor.com/media/photo-o/15/40/3f/29/indoor.jpg?w=1000&s=1", "address": "14 rue des Gestes, 31000, Toulouse France", "lat": 43.603058, "lng": 1.442861, "ref_id": 1216804, "rating": 3.5, "num_reviews": 0, "website": "https://www.facebook.com/La-Mare-Aux-Canards-106286641969616", "contact_phone": "+33 5 61 23 81 58", "contact_email": "restaurantlamareauxcanards@gmail.com", "status": 1, "source_type": 1, "numberReviews": 411}, {"name": "La Gouaille", "type": "restaurant", "image": "https://dynamic-media-cdn.tripadvisor.com/media/photo-o/1b/16/23/4f/restaurant-la-gouaille.jpg?w=1000&s=1", "address": "6 Rue Joutx Aigues, 31000, Toulouse France", "lat": 43.59846, "lng": 1.443897, "ref_id": 777982, "rating": 4, "num_reviews": 0, "website": "https://www.la-gouaille-restaurant-toulouse.fr/", "contact_phone": "+33 5 61 25 65 66", "contact_email": "fsqs.compta@gmail.com", "status": 1, "source_type": 1, "numberReviews": 395}, {"name": "Le Comptoir A La Une", "type": "restaurant", "image": "https://dynamic-media-cdn.tripadvisor.com/media/photo-o/19/e6/e7/c2/photo1jpg.jpg?w=1000&s=1", "address": "11 Place des Carmes, 31000, Toulouse France", "lat": 43.59778, "lng": 1.444444, "ref_id": 2540732, "rating": 3.5, "num_reviews": 0, "website": "http://www.facebook.com/lecomptoiralaune/", "contact_phone": "+33 6 73 84 52 11", "contact_email": "", "status": 1, "source_type": 1, "numberReviews": 314}, {"name": "Restaurant Events Five", "type": "restaurant", "image": "https://dynamic-media-cdn.tripadvisor.com/media/photo-o/26/b5/9d/58/la-calzone.jpg?w=1000&s=1", "address": "27 Chemin de la Saudrune, 31100, Toulouse France", "lat": 43.54, "lng": 1.39188, "ref_id": 11435152, "rating": 4.5, "num_reviews": 0, "website": "http://www.events-five.com", "contact_phone": "+33 5 34 63 18 57", "contact_email": "contact@events-five.com", "status": 1, "source_type": 1, "numberReviews": 20}, {"name": "Hamburgeria", "type": "restaurant", "image": "https://dynamic-media-cdn.tripadvisor.com/media/photo-o/21/73/53/2a/l-hamburgeria-by-fornogusto.jpg?w=1000&s=1", "address": "29 boulevard D Arcole, 31000, Toulouse France", "lat": 43.6113, "lng": 1.43934, "ref_id": 18114270, "rating": 4.5, "num_reviews": 0, "website": "https://www.facebook.com/Hamburgeria-by-Forno-Gusto-458328138049903/", "contact_phone": "+33 5 62 11 78 02", "contact_email": "ciao@fornogusto.com", "status": 1, "source_type": 1, "numberReviews": 37}, {"name": "La Bascule du Chevillard", "type": "restaurant", "image": "https://dynamic-media-cdn.tripadvisor.com/media/photo-o/0d/98/86/51/belle-preparation.jpg?w=1000&s=1", "address": "14 avenue Maurice Hauriou, 31000, Toulouse France", "lat": 43.592777, "lng": 1.443611, "ref_id": 3849950, "rating": 4, "num_reviews": 0, "website": "http://www.chezcarmen.fr", "contact_phone": "+33 5 61 55 24 30", "contact_email": "contact@chezcarmen.fr", "status": 1, "source_type": 1, "numberReviews": 146}, {"name": "La cabane \u00e0 pok\u00e9", "type": "restaurant", "image": "https://dynamic-media-cdn.tripadvisor.com/media/photo-o/18/53/00/2f/meilleurs-poke-bowl-que.jpg?w=1000&s=1", "address": "54 rue du Taur, 31000, Toulouse France", "lat": 43.606934, "lng": 1.442239, "ref_id": 17209618, "rating": 4, "num_reviews": 0, "website": "http://www.facebook.com/lacabaneapoke/", "contact_phone": "+33 5 61 47 95 85", "contact_email": "Azelin.pinsolle@gmail.com", "status": 1, "source_type": 1, "numberReviews": 49}, {"name": "Bistroquet \u00e0 la Une", "type": "restaurant", "image": "https://dynamic-media-cdn.tripadvisor.com/media/photo-o/21/fe/56/c4/bistroquet-comptoidugrandmarch.jpg?w=1000&s=1", "address": "10 Rue Lab\u00e9da, 31000, Toulouse France", "lat": 43.604595, "lng": 1.44891, "ref_id": 1326393, "rating": 4.5, "num_reviews": 0, "website": "http://www.bistroquetalaune.com", "contact_phone": "+33 6 73 45 61 01", "contact_email": "bistroquet@alaunefamily.com", "status": 1, "source_type": 1, "numberReviews": 1644}, {"name": "Le Pi\u00e8ge \u00c0 Loups", "type": "restaurant", "image": "https://dynamic-media-cdn.tripadvisor.com/media/photo-o/12/7a/3e/6a/photo0jpg.jpg?w=1000&s=1", "address": "3 rue des Tourneurs, 31000, Toulouse France", "lat": 43.5996, "lng": 1.445414, "ref_id": 12443466, "rating": 4.5, "num_reviews": 0, "website": "https://www.facebook.com/Le-Pi%C3%A8ge-%C3%80-Loups-1578848709077721/", "contact_phone": "+33 5 62 73 01 50", "contact_email": null, "status": 1, "source_type": 1, "numberReviews": 37}, {"name": "Toulouse Burger", "type": "restaurant", "image": "https://dynamic-media-cdn.tripadvisor.com/media/photo-o/12/f0/9a/3e/le-capitole-accompagne.jpg?w=1000&s=1", "address": "29 rue Gabriel Peri, 31000, Toulouse France", "lat": 43.60617, "lng": 1.45422, "ref_id": 8138508, "rating": 4, "num_reviews": 0, "website": "http://www.toulouse-burger.fr", "contact_phone": "+33 5 61 13 11 31", "contact_email": "toulouseburger@yahoo.fr", "status": 1, "source_type": 1, "numberReviews": 89}, {"name": "Cafe Maurice", "type": "restaurant", "image": "https://dynamic-media-cdn.tripadvisor.com/media/photo-o/29/bf/82/cc/entree-du-jour-fondant.jpg?w=1000&s=1", "address": "8 Place Saint Georges, 31000, Toulouse France", "lat": 43.602077, "lng": 1.447188, "ref_id": 8297863, "rating": 3.5, "num_reviews": 0, "website": "http://cafemaurice-toulouse.fr/", "contact_phone": "+33 5 61 21 76 27", "contact_email": "contact@cafemaurice-toulouse.fr", "status": 1, "source_type": 1, "numberReviews": 293}, {"name": "Le Chef du Burger", "type": "restaurant", "image": "https://dynamic-media-cdn.tripadvisor.com/media/photo-o/18/b2/35/08/20190808-210435-largejpg.jpg?w=1000&s=1", "address": "2 rue Roquelaine, 31000, Toulouse France", "lat": 43.610176, "lng": 1.444564, "ref_id": 15013502, "rating": 5, "num_reviews": 0, "website": "https://www.facebook.com/lechefduburger/", "contact_phone": "+33 5 77 11 52 98", "contact_email": null, "status": 1, "source_type": 1, "numberReviews": 17}, {"name": "Bien Taypa !", "type": "restaurant", "image": "https://dynamic-media-cdn.tripadvisor.com/media/photo-o/26/50/69/99/le-fameux-ceviche-caretillero.jpg?w=1000&s=1", "address": "65 rue Pargaminieres, 31000, Toulouse France", "lat": 43.6044, "lng": 1.438918, "ref_id": 23774015, "rating": 4.5, "num_reviews": 0, "website": null, "contact_phone": "+33 9 82 32 99 64", "contact_email": "bientaypa31@gmail.com", "status": 1, "source_type": 1, "numberReviews": 15}, {"name": "Rajasthan Villa", "type": "restaurant", "image": "https://dynamic-media-cdn.tripadvisor.com/media/photo-o/08/23/ee/ee/rajasthan-villa.jpg?w=1000&s=1", "address": "4, Rue De L'Esquile, 31000, Toulouse France", "lat": 43.606106, "lng": 1.441604, "ref_id": 6919689, "rating": 4.5, "num_reviews": 0, "website": "http://www.lerajasthanvilla.com/", "contact_phone": "+33 5 34 44 91 91", "contact_email": "rajasthanvilla@gmail.com", "status": 1, "source_type": 1, "numberReviews": 2257}, {"name": "Gogo Flamingo", "type": "restaurant", "image": "https://dynamic-media-cdn.tripadvisor.com/media/photo-o/17/ce/e8/29/photo0jpg.jpg?w=1000&s=1", "address": "11 rue Baronie, 31000, Toulouse France", "lat": 43.602, "lng": 1.44474, "ref_id": 16655452, "rating": 4, "num_reviews": 0, "website": "https://www.facebook.com/Le-Gogo-Flamingo-250699472386827/", "contact_phone": "+33 5 61 52 49 35", "contact_email": "mb2toulouse@gmail.com", "status": 1, "source_type": 1, "numberReviews": 60}, {"name": "Le Vietnam", "type": "restaurant", "image": "https://dynamic-media-cdn.tripadvisor.com/media/photo-o/0e/ad/22/8c/le-vietnam.jpg?w=1000&s=1", "address": "54 rue Reguelongue, 31100, Toulouse France", "lat": 43.55937, "lng": 1.37701, "ref_id": 6614473, "rating": 4.5, "num_reviews": 0, "website": "https://www.facebook.com/Le-vietnam-527007224141817/", "contact_phone": "+33 5 61 07 28 31", "contact_email": null, "status": 1, "source_type": 1, "numberReviews": 31}, {"name": "La Cave Chez Victor et Hugo", "type": "restaurant", "image": "https://dynamic-media-cdn.tripadvisor.com/media/photo-o/11/45/7f/14/verre-de-degustation.jpg?w=1000&s=1", "address": "Loge 246-247 marche victor hugo, 31000, Toulouse France", "lat": 43.606274, "lng": 1.446768, "ref_id": 12940711, "rating": 5, "num_reviews": 0, "website": "http://chezlecaviste.com", "contact_phone": "+33 5 61 55 22 92", "contact_email": "contact@chezlecaviste.com", "status": 1, "source_type": 1, "numberReviews": 24}, {"name": "Mama Mia", "type": "restaurant", "image": "https://dynamic-media-cdn.tripadvisor.com/media/photo-o/19/37/70/da/mama-mia.jpg?w=1000&s=1", "address": "24 rue des Freres Lion, 31000, Toulouse France", "lat": 43.60016, "lng": 1.4528, "ref_id": 18841386, "rating": 4.5, "num_reviews": 0, "website": "https://www.facebook.com/mamamia.tls/", "contact_phone": "+33 9 72 86 37 42", "contact_email": null, "status": 1, "source_type": 1, "numberReviews": 21}, {"name": "Yoko Sushi", "type": "restaurant", "image": "https://dynamic-media-cdn.tripadvisor.com/media/photo-o/12/16/49/cb/photo1jpg.jpg?w=1000&s=1", "address": "12 rue Gabriel Peri, 31000, Toulouse France", "lat": 43.605663, "lng": 1.451276, "ref_id": 2153793, "rating": 3.5, "num_reviews": 0, "website": "http://yokosushi.fr", "contact_phone": "+33 5 62 73 04 31", "contact_email": "", "status": 1, "source_type": 1, "numberReviews": 186}, {"name": "La P'tite Gouaille", "type": "restaurant", "image": "https://dynamic-media-cdn.tripadvisor.com/media/photo-o/0d/8e/8d/5b/le-bar-a-la-cave.jpg?w=1000&s=1", "address": "44 Rue Peyrolieres, 31000, Toulouse France", "lat": 43.601562, "lng": 1.440743, "ref_id": 5865565, "rating": 3.5, "num_reviews": 0, "website": "https://www.la-ptite-gouaille-restaurant-toulouse.fr/", "contact_phone": "+33 5 61 23 91 90", "contact_email": null, "status": 1, "source_type": 1, "numberReviews": 266}, {"name": "Le Clos De Nath", "type": "restaurant", "image": "https://dynamic-media-cdn.tripadvisor.com/media/photo-o/2b/cd/db/f6/caption.jpg?w=1000&s=1", "address": "28 Place de l Eglise, 31270 Cugnaux, Toulouse France", "lat": 43.53696, "lng": 1.34429, "ref_id": 23763461, "rating": 4.5, "num_reviews": 0, "website": null, "contact_phone": "+33 5 61 41 39 64", "contact_email": null, "status": 1, "source_type": 1, "numberReviews": 15}, {"name": "Escale des Saveurs", "type": "restaurant", "image": "https://dynamic-media-cdn.tripadvisor.com/media/photo-o/1b/7f/6b/8f/photo0jpg.jpg?w=1000&s=1", "address": "30 Rue Bertrand De Born, 31000, Toulouse France", "lat": 43.61006, "lng": 1.452577, "ref_id": 11760159, "rating": 4.5, "num_reviews": 0, "website": null, "contact_phone": "+33 7 63 00 31 31", "contact_email": "poloescaledessaveurs31@gmail.com", "status": 1, "source_type": 1, "numberReviews": 27}, {"name": "Au Poele de la Bete", "type": "restaurant", "image": "https://dynamic-media-cdn.tripadvisor.com/media/photo-o/0a/86/d8/cb/dsc-0118-largejpg.jpg?w=1000&s=1", "address": "56 rue d Aubuisson Quartier Saint Aubin, 31000, Toulouse France", "lat": 43.60282, "lng": 1.45412, "ref_id": 7254174, "rating": 4, "num_reviews": 0, "website": "http://www.expressioncafe.fr", "contact_phone": "+33 5 34 26 92 84", "contact_email": null, "status": 1, "source_type": 1, "numberReviews": 109}, {"name": "Le Rocher de La Vierge", "type": "restaurant", "image": "https://dynamic-media-cdn.tripadvisor.com/media/photo-o/0e/2f/e4/9f/le-rocher-de-la-vierge.jpg?w=1000&s=1", "address": "4 Place de Damloup, 31000, Toulouse France", "lat": 43.60574, "lng": 1.452963, "ref_id": 12018121, "rating": 4, "num_reviews": 0, "website": "https://www.facebook.com/bistrotlerocherdelavierge/", "contact_phone": "+33 5 34 30 80 38", "contact_email": "tomaclub@gmail.com", "status": 1, "source_type": 1, "numberReviews": 98}, {"name": "Juguem", "type": "restaurant", "image": "https://dynamic-media-cdn.tripadvisor.com/media/photo-o/13/7d/86/27/photo3jpg.jpg?w=1000&s=1", "address": "6 B impasse Baour Lormian, 31000, Toulouse France", "lat": 43.602837, "lng": 1.444197, "ref_id": 14401740, "rating": 4, "num_reviews": 0, "website": "https://www.facebook.com/juguem31/", "contact_phone": "+33 5 34 24 20 33", "contact_email": null, "status": 1, "source_type": 1, "numberReviews": 40}, {"name": "Meet the Meat", "type": "restaurant", "image": "https://dynamic-media-cdn.tripadvisor.com/media/photo-o/23/61/d9/47/convivialite-chaleureux.jpg?w=1000&s=1", "address": "18 Boulevard de Strasbourg, 31000, Toulouse France", "lat": 43.607304, "lng": 1.447369, "ref_id": 1672336, "rating": 4, "num_reviews": 0, "website": "http://www.meetthemeat.fr/", "contact_phone": "+33 5 61 48 50 59", "contact_email": "", "status": 1, "source_type": 1, "numberReviews": 2017}, {"name": "Les Domaines Qui Montent", "type": "restaurant", "image": "https://dynamic-media-cdn.tripadvisor.com/media/photo-o/0d/31/6c/52/la-grande-table-d-hotes.jpg?w=1000&s=1", "address": "53 rue Pierre Paul Riquet, 31000, Toulouse France", "lat": 43.60478, "lng": 1.45408, "ref_id": 4274999, "rating": 4.5, "num_reviews": 0, "website": "http://www.lesdomainesquimontent.com/toulouse", "contact_phone": "+33 9 81 61 69 26", "contact_email": "contact@ldqmtoulouse.com", "status": 1, "source_type": 1, "numberReviews": 31}, {"name": "Karl Maison du Hot Dog", "type": "restaurant", "image": "https://dynamic-media-cdn.tripadvisor.com/media/photo-o/16/7b/5c/19/photo0jpg.jpg?w=1000&s=1", "address": "14 rue Temponieres, 31000, Toulouse France", "lat": 43.601425, "lng": 1.443393, "ref_id": 13518081, "rating": 4.5, "num_reviews": 0, "website": "https://www.facebook.com/KarlMaisonduHotDog/", "contact_phone": "+33 5 32 59 55 08", "contact_email": null, "status": 1, "source_type": 1, "numberReviews": 26}, {"name": "Restaurant Feel Real Good", "type": "restaurant", "image": "https://dynamic-media-cdn.tripadvisor.com/media/photo-o/2a/d5/63/a7/caption.jpg?w=1000&s=1", "address": "17 All\u00e9 des Soupirs, 31000, Toulouse France", "lat": 43.59446, "lng": 1.454816, "ref_id": 25300073, "rating": 5, "num_reviews": 0, "website": "https://feelrealgood.fr/", "contact_phone": null, "contact_email": null, "status": 1, "source_type": 1, "numberReviews": 11}, {"name": "La R\u00e9serve", "type": "restaurant", "image": "https://dynamic-media-cdn.tripadvisor.com/media/photo-o/1c/21/bd/b5/tataki-de-thon-frais.jpg?w=1000&s=1", "address": "8 rue Jean Suau, 31000, Toulouse France", "lat": 43.602142, "lng": 1.440989, "ref_id": 813964, "rating": 3.5, "num_reviews": 0, "website": "https://www.facebook.com/La-Reserve-1674695539447090/", "contact_phone": "+33 5 61 21 84 00", "contact_email": "", "status": 1, "source_type": 1, "numberReviews": 586}, {"name": "Bar A La Une", "type": "restaurant", "image": "https://dynamic-media-cdn.tripadvisor.com/media/photo-o/21/fe/56/2b/bar-a-la-une-comptoidugrandmar.jpg?w=1000&s=1", "address": "1 Chemin Cassaing Chemin cassaing, 31500, Toulouse France", "lat": 43.616737, "lng": 1.473097, "ref_id": 4058303, "rating": 4, "num_reviews": 0, "website": "http://www.baralaune.fr", "contact_phone": "+33 5 34 25 78 94", "contact_email": "sambaralaune@gmail.com", "status": 1, "source_type": 1, "numberReviews": 266}, {"name": "Pizza martine", "type": "restaurant", "image": "https://dynamic-media-cdn.tripadvisor.com/media/photo-o/16/7c/31/1f/pizza-martine.jpg?w=1000&s=1", "address": "22 rue du Pre Vicinal, 31270 Cugnaux, Toulouse France", "lat": 43.53816, "lng": 1.341443, "ref_id": 10631446, "rating": 3.5, "num_reviews": 0, "website": "http://www.pizza-martine.com", "contact_phone": "+33 5 61 16 63 99", "contact_email": null, "status": 1, "source_type": 1, "numberReviews": 34}, {"name": "La Mouette", "type": "restaurant", "image": null, "address": "47 avenue de Fronton, 31200, Toulouse France", "lat": null, "lng": null, "ref_id": 23982692, "rating": 5, "num_reviews": 0, "website": "http://la-mouette-restaurant-toulouse.fr/", "contact_phone": "+33 5 67 22 71 76", "contact_email": null, "status": 1, "source_type": 1, "numberReviews": 2}, {"name": "\u00d4 Banh Mi", "type": "restaurant", "image": "https://dynamic-media-cdn.tripadvisor.com/media/photo-o/15/5a/d3/53/triporteur-sur-les-allees.jpg?w=1000&s=1", "address": "35 Allees Jules Guesde Near the metro Capitole, 31000, Toulouse France", "lat": 43.594406, "lng": 1.449074, "ref_id": 15137153, "rating": 5, "num_reviews": 0, "website": "http://www.o-banh-mi.fr/", "contact_phone": "+33 6 75 19 57 89", "contact_email": "contact@o-banh-mi.fr", "status": 1, "source_type": 1, "numberReviews": 3}, {"name": "Nelsao", "type": "restaurant", "image": null, "address": "61 avenue Maurice Bourges Maunoury, 31200, Toulouse France", "lat": 43.64063, "lng": 1.45076, "ref_id": 19815782, "rating": 3.5, "num_reviews": 0, "website": null, "contact_phone": "+33 5 34 52 21 13", "contact_email": null, "status": 1, "source_type": 1, "numberReviews": 15}, {"name": "Solyles Toulouse", "type": "restaurant", "image": null, "address": "1 Place Pierre Mendes, 31400, Toulouse France", "lat": 43.587376, "lng": 1.461875, "ref_id": 25333746, "rating": 5, "num_reviews": 0, "website": "solyles.com", "contact_phone": "+33 5 61 44 18 63", "contact_email": "solyles.demoiselles@gmail.com", "status": 1, "source_type": 1, "numberReviews": 2}, {"name": "La cuisine Vietnamienne", "type": "restaurant", "image": "https://dynamic-media-cdn.tripadvisor.com/media/photo-o/2b/a8/d5/44/caption.jpg?w=1000&s=1", "address": "2 Esp. Jean Cassou, 31500 Toulouse Metro Jolimont sortie ligne bus, 31500, Toulouse France", "lat": 43.615696, "lng": 1.463852, "ref_id": 26454603, "rating": 5, "num_reviews": 0, "website": "https://www.facebook.com/lacuisinevietnamienne.fr", "contact_phone": "+33 6 99 65 67 89", "contact_email": "danghoang89@gmail.com", "status": 1, "source_type": 1, "numberReviews": 2}, {"name": "Le Natura", "type": "restaurant", "image": "https://dynamic-media-cdn.tripadvisor.com/media/photo-o/2a/fb/b4/41/caption.jpg?w=1000&s=1", "address": "6 rue Lascrosses, 31000, Toulouse France", "lat": 43.609524, "lng": 1.436862, "ref_id": 26304567, "rating": 5, "num_reviews": 0, "website": "http://www.lenatura.fr", "contact_phone": "+33 9 70 66 71 15", "contact_email": "hello@lenatura.fr", "status": 1, "source_type": 1, "numberReviews": 2}, {"name": "El Huacatay Tlse", "type": "restaurant", "image": "https://dynamic-media-cdn.tripadvisor.com/media/photo-o/2b/da/d1/e5/caption.jpg?w=1000&s=1", "address": "20 Rue de la Fonderie, 31000, Toulouse France", "lat": 43.595024, "lng": 1.443554, "ref_id": 26823974, "rating": 5, "num_reviews": 0, "website": "https://www.instagram.com/elhuacatay_tlse/", "contact_phone": "+33 5 61 55 19 02", "contact_email": null, "status": 1, "source_type": 1, "numberReviews": 2}, {"name": "Cassoularium", "type": "restaurant", "image": "https://dynamic-media-cdn.tripadvisor.com/media/photo-o/18/59/bd/c1/cassoularium-prtemier.jpg?w=1000&s=1", "address": "12 rue du Rempart Matabiau, 31000, Toulouse France", "lat": 43.60756, "lng": 1.44629, "ref_id": 17733800, "rating": 4.5, "num_reviews": 0, "website": "http://www.conserveriemarieantoinette.com", "contact_phone": "+33 5 34 33 93 24", "contact_email": "hma.victorhugo@gmail.com", "status": 1, "source_type": 1, "numberReviews": 4}, {"name": "POKAWA Pok\u00e9 bowls", "type": "restaurant", "image": "https://dynamic-media-cdn.tripadvisor.com/media/photo-o/29/ab/80/6f/plat.jpg?w=1000&s=1", "address": "7 Esp. Compans Caffarelli, 31000, Toulouse France", "lat": 43.603947, "lng": 1.44303, "ref_id": 26015633, "rating": 5, "num_reviews": 0, "website": "https://restaurants.pokawa.com/poke-bowls-toulouse-compans-caffarell/?utm_source=tripadvisor.fr&utm_medium=referral&utm_campaign=directory", "contact_phone": "+33 9 74 13 26 08", "contact_email": null, "status": 1, "source_type": 1, "numberReviews": 2}, {"name": "Le Santal", "type": "restaurant", "image": "https://dynamic-media-cdn.tripadvisor.com/media/photo-o/0d/8a/9b/3e/ta-img-20161106-002756.jpg?w=1000&s=1", "address": "165 Grande rue Saint Michel, 31400, Toulouse France", "lat": 43.59148, "lng": 1.44485, "ref_id": 10257906, "rating": 4, "num_reviews": 0, "website": "http://www.lesantal.fr/", "contact_phone": "+33 5 61 52 02 60", "contact_email": null, "status": 1, "source_type": 1, "numberReviews": 12}, {"name": "La Cantine 26", "type": "restaurant", "image": "https://dynamic-media-cdn.tripadvisor.com/media/photo-o/13/da/fd/74/la-cantine-26.jpg?w=1000&s=1", "address": "26 allee des Foulques Parc de Sesqui\u00e8res Complexe la Voile Blanche, 31200, Toulouse France", "lat": 43.65117, "lng": 1.42109, "ref_id": 14025182, "rating": 5, "num_reviews": 0, "website": "http://www.lacantine26.fr/", "contact_phone": "+33 5 62 27 07 45", "contact_email": null, "status": 1, "source_type": 1, "numberReviews": 4}, {"name": "Autour de Pizz", "type": "restaurant", "image": "https://dynamic-media-cdn.tripadvisor.com/media/photo-o/2b/e0/72/5b/acueil-magasin.jpg?w=1000&s=1", "address": "1 rue de Carcassonne, 31500, Toulouse France", "lat": 43.59698, "lng": 1.48353, "ref_id": 12550212, "rating": 4.5, "num_reviews": 0, "website": null, "contact_phone": "+33 5 61 80 28 62", "contact_email": null, "status": 1, "source_type": 1, "numberReviews": 3}, {"name": "Les mon\u00e9diers", "type": "restaurant", "image": null, "address": "1 rue Claude-Marie Perroud, 31100, Toulouse France", "lat": 43.572224, "lng": 1.37987, "ref_id": 25785537, "rating": 4.5, "num_reviews": 0, "website": "https://lesmonediers.fr/", "contact_phone": "+33 5 32 11 19 08", "contact_email": null, "status": 1, "source_type": 1, "numberReviews": 4}, {"name": "Le Comptoir", "type": "restaurant", "image": "https://dynamic-media-cdn.tripadvisor.com/media/photo-o/12/d3/ec/ae/le-comptoir-by-night.jpg?w=1000&s=1", "address": "12 avenue de Grande Bretagne, 31300, Toulouse France", "lat": 43.59686, "lng": 1.42226, "ref_id": 14024465, "rating": 5, "num_reviews": 0, "website": "http://lecomptoir-bar.business.site/", "contact_phone": "+33 5 62 86 24 94", "contact_email": null, "status": 1, "source_type": 1, "numberReviews": 4}, {"name": "Pizza Romaine", "type": "restaurant", "image": null, "address": "113 avenue des Arenes Romaines, 31300, Toulouse France", "lat": 43.61509, "lng": 1.39694, "ref_id": 5873288, "rating": 4.5, "num_reviews": 0, "website": null, "contact_phone": "+33 5 61 49 93 60", "contact_email": null, "status": 1, "source_type": 1, "numberReviews": 8}, {"name": "Takumi By Saveurs Basilic", "type": "restaurant", "image": null, "address": "23 route de Blagnac, 31200, Toulouse France", "lat": 43.611664, "lng": 1.413936, "ref_id": 20318564, "rating": 5, "num_reviews": 0, "website": "http://takumi-toulouse.lafourchette.rest", "contact_phone": "+33 5 61 57 24 82", "contact_email": "", "status": 1, "source_type": 1, "numberReviews": 2}, {"name": "La Fabriq du Burger", "type": "restaurant", "image": "https://dynamic-media-cdn.tripadvisor.com/media/photo-o/1d/0e/7c/f2/caption.jpg?w=1000&s=1", "address": "29 avenue de Lavaur, 31500, Toulouse France", "lat": 43.62197, "lng": 1.45992, "ref_id": 15707484, "rating": 3.5, "num_reviews": 0, "website": "http://fabriqduburger.com", "contact_phone": "+33 5 61 23 79 19", "contact_email": null, "status": 1, "source_type": 1, "numberReviews": 18}, {"name": "L'Ecluse", "type": "restaurant", "image": "https://dynamic-media-cdn.tripadvisor.com/media/photo-o/1b/8c/56/ee/l-ecluse.jpg?w=1000&s=1", "address": "2 impasse du Pont Saint Michel, 31400, Toulouse France", "lat": 43.592976, "lng": 1.440422, "ref_id": 14939433, "rating": 3, "num_reviews": 0, "website": "http://www.lecluse-toulouse.com", "contact_phone": "+33 6 07 77 96 72", "contact_email": null, "status": 1, "source_type": 1, "numberReviews": 230}, {"name": "Ebisu", "type": "restaurant", "image": "https://dynamic-media-cdn.tripadvisor.com/media/photo-o/2b/26/05/cd/caption.jpg?w=1000&s=1", "address": "3 rue Lafayette, 31000, Toulouse France", "lat": 43.60497, "lng": 1.44409, "ref_id": 26526080, "rating": 4.5, "num_reviews": 0, "website": "https://www.ramenebisu.fr/", "contact_phone": "+33 5 61 73 96 00", "contact_email": null, "status": 1, "source_type": 1, "numberReviews": 3}, {"name": "Les Halles De La Transition", "type": "restaurant", "image": "https://dynamic-media-cdn.tripadvisor.com/media/photo-o/27/e5/fd/c3/l-espace-de-restauration.jpg?w=1000&s=1", "address": "7 rue du Canon D Arcole, 31000, Toulouse France", "lat": 43.61376, "lng": 1.435107, "ref_id": 25260616, "rating": 5, "num_reviews": 0, "website": "https://www.leshallesdelatransition.com", "contact_phone": "+33 6 04 42 85 12", "contact_email": "evenement@leshallesdelatransition.com", "status": 1, "source_type": 1, "numberReviews": 2}, {"name": "Izmir Grillades", "type": "restaurant", "image": "https://dynamic-media-cdn.tripadvisor.com/media/photo-o/10/a0/ed/13/photo0jpg.jpg?w=1000&s=1", "address": "299 Avenue De Grande-bretagne, 31300, Toulouse France", "lat": 43.60764, "lng": 1.397549, "ref_id": 11837726, "rating": 4, "num_reviews": 0, "website": "https://www.facebook.com/1538136272980473", "contact_phone": "+33 9 51 49 24 02", "contact_email": null, "status": 1, "source_type": 1, "numberReviews": 15}, {"name": "Tutti Pizza Capitole", "type": "restaurant", "image": "https://dynamic-media-cdn.tripadvisor.com/media/photo-o/1c/b3/bd/12/tutti-pizza-capitole.jpg?w=1000&s=1", "address": "11 rue Romiguieres, 31000, Toulouse France", "lat": 43.60472, "lng": 1.442, "ref_id": 10047379, "rating": 3.5, "num_reviews": 0, "website": "http://pizzerias.tutti-pizza.com/452754-tutti-pizza-romiguieres", "contact_phone": "+33 5 61 38 39 83", "contact_email": null, "status": 1, "source_type": 1, "numberReviews": 12}, {"name": "Marcello  Saint Aubin", "type": "restaurant", "image": "https://dynamic-media-cdn.tripadvisor.com/media/photo-o/29/64/cd/f2/caption.jpg?w=1000&s=1", "address": "30 rue Pierre Paul Riquet, 31000, Toulouse France", "lat": null, "lng": null, "ref_id": 25198637, "rating": 4, "num_reviews": 0, "website": null, "contact_phone": "+33 6 35 19 81 47", "contact_email": null, "status": 1, "source_type": 1, "numberReviews": 4}, {"name": "O Saveurs Du Tibet", "type": "restaurant", "image": null, "address": "1 rue des Penitents Gris, 31000, Toulouse France", "lat": 43.603947, "lng": 1.44303, "ref_id": 24995211, "rating": 5, "num_reviews": 0, "website": null, "contact_phone": "+33 6 46 72 32 06", "contact_email": "gphuntsok@gmail.com", "status": 1, "source_type": 1, "numberReviews": 2}, {"name": "Paella Pepita", "type": "restaurant", "image": "https://dynamic-media-cdn.tripadvisor.com/media/photo-o/2a/7d/9a/d3/caption.jpg?w=1000&s=1", "address": "Avenue de Bayonne Centre commercial L\u00e9on Cogez 81, 31240, Toulouse France", "lat": 43.60796, "lng": 1.39499, "ref_id": 18852662, "rating": 4.5, "num_reviews": 0, "website": "http://paella-pepita.fr", "contact_phone": "+33 5 62 89 14 68", "contact_email": null, "status": 1, "source_type": 1, "numberReviews": 3}, {"name": "Connexion Cafe", "type": "restaurant", "image": "https://dynamic-media-cdn.tripadvisor.com/media/photo-o/08/8d/60/b6/photo0jpg.jpg?w=1000&s=1", "address": "8 rue Gabriel Peri, 31000, Toulouse France", "lat": 43.605656, "lng": 1.450303, "ref_id": 5929049, "rating": 3.5, "num_reviews": 0, "website": "http://www.connexion-cafe.com", "contact_phone": "+33 5 34 41 62 88", "contact_email": "christine@connexionlive.fr", "status": 1, "source_type": 1, "numberReviews": 25}, {"name": "Le Chinatown Restaurant", "type": "restaurant", "image": "https://dynamic-media-cdn.tripadvisor.com/media/photo-o/0b/a1/de/fc/la-devanture.jpg?w=1000&s=1", "address": "295 avenue de Grande Bretagne, 31300, Toulouse France", "lat": 43.60754, "lng": 1.398, "ref_id": 1330630, "rating": 3.5, "num_reviews": 0, "website": "http://maiarketingms.wixsite.com/chinatown-toulouse", "contact_phone": "+33 5 34 50 49 12", "contact_email": "", "status": 1, "source_type": 1, "numberReviews": 42}, {"name": "Cave \u00e0 Cri\u00e9e", "type": "restaurant", "image": "https://dynamic-media-cdn.tripadvisor.com/media/photo-o/1b/b0/a5/9b/palourdes-persillees.jpg?w=1000&s=1", "address": "40 rue des Filatiers Arr\u00eat De M\u00e9tro Ligne B Carmes/ Arr\u00eat De M\u00e9tro Ligne A Esquirol, 31000, Toulouse France", "lat": 43.599064, "lng": 1.444093, "ref_id": 21175008, "rating": 4.5, "num_reviews": 0, "website": "https://www.facebook.com/caveacriee/", "contact_phone": "+33 5 61 23 20 44", "contact_email": "caveacriee@gmail.com", "status": 1, "source_type": 1, "numberReviews": 3}, {"name": "Forno Gusto", "type": "restaurant", "image": "https://dynamic-media-cdn.tripadvisor.com/media/photo-o/1c/87/71/5d/super-salmone-de-noel.jpg?w=1000&s=1", "address": "37 allee des Soupirs, 31000, Toulouse France", "lat": 43.59398, "lng": 1.455954, "ref_id": 17636556, "rating": 3.5, "num_reviews": 0, "website": "http://www.fornogusto.com/", "contact_phone": "+33 5 34 25 41 88", "contact_email": null, "status": 1, "source_type": 1, "numberReviews": 12}, {"name": "Pitaya Tha\u00ef Street Food", "type": "restaurant", "image": null, "address": "700 La Pyr\u00e9n\u00e9enne Centre Commercial Lab\u00e8ge 2, 31670, Toulouse France", "lat": null, "lng": null, "ref_id": 20931764, "rating": 4, "num_reviews": 0, "website": "https://pitaya-thaistreetfood.com/r/pitaya-toulouse-labege/?utm_source=tripadvisor.fr&utm_medium=referral&utm_campaign=directory", "contact_phone": "+33 5 61 10 65 88", "contact_email": "toulouse-labege@pitayaresto.fr", "status": 1, "source_type": 1, "numberReviews": 1}, {"name": "Liquides", "type": "restaurant", "image": null, "address": "2/4 Rue Des Gestes, 31000, Toulouse France", "lat": 43.60303, "lng": 1.442215, "ref_id": 26824051, "rating": 3.5, "num_reviews": 0, "website": "https://www.liquidestoulouse.fr/", "contact_phone": "+33 5 34 30 58 41", "contact_email": "liquidestoulouse@gmail.com", "status": 1, "source_type": 1, "numberReviews": 2}, {"name": "Ligot", "type": "restaurant", "image": "https://dynamic-media-cdn.tripadvisor.com/media/photo-o/2b/fa/11/16/aveyron-sausage-with.jpg?w=1000&s=1", "address": "14 Place Saint-georges, Toulouse France", "lat": 43.602295, "lng": 1.447244, "ref_id": 27709015, "rating": 3.5, "num_reviews": 0, "website": null, "contact_phone": null, "contact_email": null, "status": 1, "source_type": 1, "numberReviews": 4}, {"name": "Pataya Village", "type": "restaurant", "image": "https://dynamic-media-cdn.tripadvisor.com/media/photo-o/21/b4/98/0e/ki-thrad-poulet-croustillant.jpg?w=1000&s=1", "address": "10 Bd d'Arcole, 31000, Toulouse France", "lat": null, "lng": null, "ref_id": 23787850, "rating": 4, "num_reviews": 0, "website": "http://www.patayavillage-toulouse.fr", "contact_phone": "+33 6 73 94 19 59", "contact_email": null, "status": 1, "source_type": 1, "numberReviews": 1}, {"name": "Indian village", "type": "restaurant", "image": null, "address": "10 boulevard D Arcole, 31000, Toulouse France", "lat": 43.61111, "lng": 1.44198, "ref_id": 23744887, "rating": 4, "num_reviews": 0, "website": "https://indianvillage-toulouse.fr/", "contact_phone": "+33 5 82 95 49 75", "contact_email": null, "status": 1, "source_type": 1, "numberReviews": 1}, {"name": "Eklo Restaurant Toulouse", "type": "restaurant", "image": "https://dynamic-media-cdn.tripadvisor.com/media/photo-o/24/80/bf/e0/restaurant.jpg?w=1000&s=1", "address": "181 avenue de Grande Bretagne, 31300, Toulouse France", "lat": 43.60291, "lng": 1.407654, "ref_id": 24155638, "rating": 3, "num_reviews": 0, "website": "http://www.eklohotels.com/fr/toulouse", "contact_phone": "+33 5 82 95 92 31", "contact_email": "toulouse@eklohotels.com", "status": 1, "source_type": 1, "numberReviews": 5}, {"name": "Gomu Toulouse", "type": "restaurant", "image": "https://dynamic-media-cdn.tripadvisor.com/media/photo-o/2b/22/bd/9b/caption.jpg?w=1000&s=1", "address": "28 Boulevard De Strasbourg, 31000, Toulouse France", "lat": 43.607727, "lng": 1.446999, "ref_id": 26590827, "rating": 3.5, "num_reviews": 0, "website": "https://gomuburger.com/concept/", "contact_phone": "+33 5 62 27 63 06", "contact_email": "admin@fnbcrw.com", "status": 1, "source_type": 1, "numberReviews": 3}, {"name": "Tutti Pizza Minimes", "type": "restaurant", "image": "https://dynamic-media-cdn.tripadvisor.com/media/photo-o/1c/b5/8c/05/royale.jpg?w=1000&s=1", "address": "56 avenue des Minimes, 31200, Toulouse France", "lat": 43.61882, "lng": 1.43651, "ref_id": 6915900, "rating": 3.5, "num_reviews": 0, "website": "http://pizzerias.tutti-pizza.com/8209-tutti-pizza-minimes", "contact_phone": "+33 5 61 47 50 00", "contact_email": null, "status": 1, "source_type": 1, "numberReviews": 11}, {"name": "Sushi Yuki", "type": "restaurant", "image": null, "address": "Rue Denfert-Rochereau, 31000, Toulouse France", "lat": 43.6078, "lng": 1.44868, "ref_id": 5586622, "rating": 4, "num_reviews": 0, "website": null, "contact_phone": null, "contact_email": null, "status": 1, "source_type": 1, "numberReviews": 2}, {"name": "Benatti Pizza", "type": "restaurant", "image": null, "address": "60 boulevard de Suisse, 31200, Toulouse France", "lat": 46.698483, "lng": 2.549047, "ref_id": 21353154, "rating": 4, "num_reviews": 0, "website": "https://www.facebook.com/BenattiPizz", "contact_phone": "+33 6 26 20 65 09", "contact_email": "benattiabderrahim22@gmail.com", "status": 1, "source_type": 1, "numberReviews": 1}, {"name": "El Chivito", "type": "restaurant", "image": "https://dynamic-media-cdn.tripadvisor.com/media/photo-o/1b/c2/61/91/20200801-201444-largejpg.jpg?w=1000&s=1", "address": "15 rue des Blanchers, 31000, Toulouse France", "lat": 43.60225, "lng": 1.437998, "ref_id": 17632900, "rating": 3, "num_reviews": 0, "website": null, "contact_phone": "+33 5 82 75 80 11", "contact_email": null, "status": 1, "source_type": 1, "numberReviews": 6}, {"name": "Brioche Doree", "type": "restaurant", "image": null, "address": "87 rue d Alsace Lorraine, 31000, Toulouse France", "lat": 43.608227, "lng": 1.445416, "ref_id": 17643667, "rating": 4, "num_reviews": 0, "website": "https://www.briochedoree.fr/restaurants/1237-toulouse-jeanne-darc-87-rue-alsace-lorraine", "contact_phone": "+33 5 34 45 58 94", "contact_email": null, "status": 1, "source_type": 1, "numberReviews": 1}, {"name": "Bangkok Bol", "type": "restaurant", "image": "https://dynamic-media-cdn.tripadvisor.com/media/photo-o/2b/9d/61/6a/menu-complet-chicken.jpg?w=1000&s=1", "address": "221 avenue de Fronton, 31200, Toulouse France", "lat": 43.646725, "lng": 1.43305, "ref_id": 24188853, "rating": 3.5, "num_reviews": 0, "website": null, "contact_phone": "+33 7 78 26 51 29", "contact_email": "bangkokbollalande@gmail.com", "status": 1, "source_type": 1, "numberReviews": 4}, {"name": "curupira La Culture Du Bon Sens", "type": "restaurant", "image": "https://dynamic-media-cdn.tripadvisor.com/media/photo-o/1a/4d/15/a4/comida-vegetariana-en.jpg?w=1000&s=1", "address": "5 allee Antonio Machado, 31100, Toulouse France", "lat": 43.57771, "lng": 1.40413, "ref_id": 19701127, "rating": 4, "num_reviews": 0, "website": "https://www.facebook.com/Curupira-la-Culture-du-Bon-Sens-548583085303015/", "contact_phone": "+33 819 30 48 82", "contact_email": null, "status": 1, "source_type": 1, "numberReviews": 1}, {"name": "Kurty's", "type": "restaurant", "image": "https://dynamic-media-cdn.tripadvisor.com/media/photo-o/1c/22/40/0a/nos-burgers-vous-donnent.jpg?w=1000&s=1", "address": "9 avenue Maurice Bourges Maunoury, 31200, Toulouse France", "lat": 43.62897, "lng": 1.44889, "ref_id": 21315517, "rating": 3.5, "num_reviews": 0, "website": "https://www.facebook.com/KurtysburgerToulouse", "contact_phone": "+33 9 50 57 06 82", "contact_email": "kurtysborderouge@gmail.com", "status": 1, "source_type": 1, "numberReviews": 4}, {"name": "Pitaya Tha\u00ef Street Food", "type": "restaurant", "image": "https://dynamic-media-cdn.tripadvisor.com/media/photo-o/22/df/a8/09/caption.jpg?w=1000&s=1", "address": "3 Place Marcel Bouilloux-Lafont, 31400, Toulouse France", "lat": 43.571667, "lng": 1.47874, "ref_id": 23385013, "rating": 3.5, "num_reviews": 0, "website": "https://pitaya-thaistreetfood.com/r/pitaya-toulouse-montaudran/?utm_source=tripadvisor.fr&utm_medium=referral&utm_campaign=directory", "contact_phone": "+33 5 62 30 10 06", "contact_email": "toulouse-montaudran@pitayaresto.fr", "status": 1, "source_type": 1, "numberReviews": 4}, {"name": "L'appart des Coiffeurs", "type": "restaurant", "image": null, "address": "5 boulevard de Strasbourg, 31000, Toulouse France", "lat": 43.60615, "lng": 1.44781, "ref_id": 7251254, "rating": 5, "num_reviews": 0, "website": null, "contact_phone": "+33 5 61 21 66 56", "contact_email": "lappartdescoiffeurs@yahoo.fr", "status": 1, "source_type": 1, "numberReviews": 1}, {"name": "La Loge de Mado", "type": "restaurant", "image": null, "address": "Marche Saint Cyprien, Place Roguet, 31300, Toulouse France", "lat": 43.59749, "lng": 1.42959, "ref_id": 6550915, "rating": 5, "num_reviews": 0, "website": null, "contact_phone": "+33 6 12 69 27 80", "contact_email": null, "status": 1, "source_type": 1, "numberReviews": 1}, {"name": "Les Bouchefs", "type": "restaurant", "image": "https://dynamic-media-cdn.tripadvisor.com/media/photo-o/2a/a9/8c/b2/chaque-semaine-nous-selectionn.jpg?w=1000&s=1", "address": "10, Place De La Charte Des Libert\u00e9s Communales Halle de la Cartoucherie, 31300, Toulouse France", "lat": 43.601753, "lng": 1.407651, "ref_id": 26772468, "rating": 3, "num_reviews": 0, "website": "https://lesbouchefs.fr/", "contact_phone": "+33 6 89 77 55 94", "contact_email": "contact@lesbouchefs.com", "status": 1, "source_type": 1, "numberReviews": 6}, {"name": "Cote Coulisses", "type": "restaurant", "image": "https://dynamic-media-cdn.tripadvisor.com/media/photo-o/05/32/b3/4c/cote-coulisses.jpg?w=1000&s=1", "address": "Place de Theatre, Toulouse France", "lat": 43.34843, "lng": 1.47918, "ref_id": 5937607, "rating": 4, "num_reviews": 0, "website": null, "contact_phone": "+33 4 94 91 11 65", "contact_email": null, "status": 1, "source_type": 1, "numberReviews": 2}, {"name": "La Suite du Petit Couloir", "type": "restaurant", "image": "https://dynamic-media-cdn.tripadvisor.com/media/photo-o/17/55/62/9c/img-20190421-010610-largejpg.jpg?w=1000&s=1", "address": "7 rue Pargaminiere, 31000, Toulouse France", "lat": 43.60394, "lng": 1.436533, "ref_id": 9822377, "rating": 3, "num_reviews": 0, "website": "http://www.lepetitcouloir31.com", "contact_phone": "+33 9 51 79 39 53", "contact_email": "lepetitcouloir7@hotmail.com", "status": 1, "source_type": 1, "numberReviews": 17}, {"name": "La Compagnie Bistrot", "type": "restaurant", "image": null, "address": "15 Place Jeanne D Arc, 31000, Toulouse France", "lat": 43.60878, "lng": 1.44631, "ref_id": 19378555, "rating": 3, "num_reviews": 0, "website": "https://www.lacompagniebistrot.com/restaurant/toulouse-centre/7/", "contact_phone": "+33 5 61 62 42 92", "contact_email": null, "status": 1, "source_type": 1, "numberReviews": 7}, {"name": "Taberna Dom Jos\u00e9", "type": "restaurant", "image": "https://dynamic-media-cdn.tripadvisor.com/media/photo-o/13/79/fe/dc/getlstd-property-photo.jpg?w=1000&s=1", "address": "22 impasse Charles Fourier, 31200, Toulouse France", "lat": 43.624973, "lng": 1.432541, "ref_id": 14465681, "rating": 3, "num_reviews": 0, "website": "https://www.facebook.com/Taberna-Dom-Jose-332094146899944/?rf=190534957645848", "contact_phone": "+33 5 61 57 90 59", "contact_email": "domjose31@msn.com", "status": 1, "source_type": 1, "numberReviews": 7}, {"name": "Secret de Pains", "type": "restaurant", "image": null, "address": "25 Grande rue Saint Michel, 31400, Toulouse France", "lat": 43.58572, "lng": 1.44723, "ref_id": 13220992, "rating": 4, "num_reviews": 0, "website": null, "contact_phone": "+33 6 21 52 63 75", "contact_email": null, "status": 1, "source_type": 1, "numberReviews": 1}, {"name": "So Japan", "type": "restaurant", "image": "https://dynamic-media-cdn.tripadvisor.com/media/photo-o/13/81/db/cb/so-japan.jpg?w=1000&s=1", "address": "60 rue Benjamin Baillaud, 31500, Toulouse France", "lat": 43.61728, "lng": 1.46518, "ref_id": 13970348, "rating": 3, "num_reviews": 0, "website": "http://www.facebook.com/So-Japan-restaurant-156174975143176/", "contact_phone": "+33 5 61 55 50 36", "contact_email": null, "status": 1, "source_type": 1, "numberReviews": 37}, {"name": "Coffee Shop Academy", "type": "restaurant", "image": null, "address": "8 rue de l Universite du Mirail, 31100, Toulouse France", "lat": 43.57593, "lng": 1.40212, "ref_id": 13197431, "rating": 4, "num_reviews": 0, "website": "https://www.facebook.com/Coffee-Shop-Academy-220730164769695/", "contact_phone": "+33 6 95 95 92 67", "contact_email": null, "status": 1, "source_type": 1, "numberReviews": 1}, {"name": "Ibis Kitchen Restaurant", "type": "restaurant", "image": null, "address": "2 rue Claire Pauilhac ibis Toulouse Centre, 31000, Toulouse France", "lat": 43.61024, "lng": 1.4461, "ref_id": 12599756, "rating": 4, "num_reviews": 0, "website": "http://restaurants.accorhotels.com/fr/restaurant-1429_R001-ibis-kitchen-restaurant-toulouse.shtml", "contact_phone": null, "contact_email": null, "status": 1, "source_type": 1, "numberReviews": 1}, {"name": "La Croissanterie", "type": "restaurant", "image": null, "address": "36 route de Bayonne Purpan, 31300, Toulouse France", "lat": 43.60825, "lng": 1.39182, "ref_id": 2723308, "rating": 3.5, "num_reviews": 0, "website": "", "contact_phone": "", "contact_email": "", "status": 1, "source_type": 1, "numberReviews": 7}, {"name": "Classcroute", "type": "restaurant", "image": null, "address": "11 rue Paulin Talabot, 31100, Toulouse France", "lat": 43.56421, "lng": 1.38723, "ref_id": 8835344, "rating": 3, "num_reviews": 0, "website": "https://www.classcroute.com/", "contact_phone": "+33 5 61 32 14 00", "contact_email": null, "status": 1, "source_type": 1, "numberReviews": 10}, {"name": "Tokyo Yaki", "type": "restaurant", "image": null, "address": "253 Rue des Pyrenees, 75020, Toulouse France", "lat": 43.36391, "lng": 1.66957, "ref_id": 1036644, "rating": 3, "num_reviews": 0, "website": "http://tokyoyaki20.fr/", "contact_phone": "+33 1 43 15 03 71", "contact_email": "", "status": 1, "source_type": 1, "numberReviews": 8}, {"name": "Le Comptoir Gourmand", "type": "restaurant", "image": "https://dynamic-media-cdn.tripadvisor.com/media/photo-o/15/2f/50/69/plat-du-jour-12-environ.jpg?w=1000&s=1", "address": "43 Place Nicolas Bachelier, 31000, Toulouse France", "lat": 43.606747, "lng": 1.452242, "ref_id": 6207337, "rating": 4, "num_reviews": 0, "website": "http://www.lecomptoir-gourmand.com", "contact_phone": "+33 5 62 57 97 78", "contact_email": "sam180866@gmail.com", "status": 1, "source_type": 1, "numberReviews": 164}, {"name": "La Compagnie Fran\u00e7aise", "type": "restaurant", "image": "https://dynamic-media-cdn.tripadvisor.com/media/photo-o/1b/01/37/e9/la-compagnie-francaise.jpg?w=1000&s=1", "address": "56 rue d Alsace Lorraine, 31000, Toulouse France", "lat": 43.60784, "lng": 1.44579, "ref_id": 5491304, "rating": 3.5, "num_reviews": 0, "website": "https://www.la-compagnie-francaise.fr", "contact_phone": "+33 5 31 61 56 16", "contact_email": "cie@allforyou.fr", "status": 1, "source_type": 1, "numberReviews": 1272}, {"name": "Le Citron Bleu", "type": "restaurant", "image": "https://dynamic-media-cdn.tripadvisor.com/media/photo-o/15/8f/c9/83/ambiance-garantie-au.jpg?w=1000&s=1", "address": "18 rue des Paradoux, 31000, Toulouse France", "lat": 43.59882, "lng": 1.44279, "ref_id": 7812209, "rating": 4.5, "num_reviews": 0, "website": "http://www.lecitronbleu.fr", "contact_phone": "+33 5 62 17 54 06", "contact_email": "infos@lecitronbleu.fr", "status": 1, "source_type": 1, "numberReviews": 67}, {"name": "Maison du Cassoulet", "type": "restaurant", "image": "https://dynamic-media-cdn.tripadvisor.com/media/photo-o/1d/ad/dc/5c/plat-cassoulet-fait-parti.jpg?w=1000&s=1", "address": "3 boulevard de Strasbourg, 31600, Toulouse France", "lat": 43.60607, "lng": 1.44826, "ref_id": 23545114, "rating": 4, "num_reviews": 0, "website": "https://www.facebook.com/108077581990856", "contact_phone": "+33 5 61 76 11 92", "contact_email": null, "status": 1, "source_type": 1, "numberReviews": 156}, {"name": "Hello Ravioli", "type": "restaurant", "image": "https://dynamic-media-cdn.tripadvisor.com/media/photo-o/0f/2a/17/18/20170503-123836-largejpg.jpg?w=1000&s=1", "address": "9 rue de Toul, 31000, Toulouse France", "lat": 43.611687, "lng": 1.437774, "ref_id": 12322149, "rating": 4.5, "num_reviews": 0, "website": null, "contact_phone": "+33 5 61 23 41 40", "contact_email": "hello.ravioli31@gmail.com", "status": 1, "source_type": 1, "numberReviews": 44}, {"name": "Le radis rose", "type": "restaurant", "image": "https://dynamic-media-cdn.tripadvisor.com/media/photo-o/13/41/27/18/photo-de-la-salle.jpg?w=1000&s=1", "address": "105 T avenue de Toulouse, 31270 Cugnaux, Toulouse France", "lat": 43.546516, "lng": 1.350467, "ref_id": 4998042, "rating": 4.5, "num_reviews": 0, "website": "https://www.facebook.com/RESTAURANTLE.RADIS.ROSE/", "contact_phone": "+33 5 62 87 22 33", "contact_email": null, "status": 1, "source_type": 1, "numberReviews": 130}, {"name": "Saveurs Bio", "type": "restaurant", "image": "https://dynamic-media-cdn.tripadvisor.com/media/photo-o/14/36/4b/d5/photo0jpg.jpg?w=1000&s=1", "address": "22 rue Maurice Fonvieille, 31000, Toulouse France", "lat": 43.603806, "lng": 1.449665, "ref_id": 2440986, "rating": 4, "num_reviews": 0, "website": "http://saveursbio.com/", "contact_phone": "+33 5 61 12 15 15", "contact_email": "saveurbio@wanadoo.fr", "status": 1, "source_type": 1, "numberReviews": 182}, {"name": "Miss Fish", "type": "restaurant", "image": "https://dynamic-media-cdn.tripadvisor.com/media/photo-o/1d/7f/43/92/caption.jpg?w=1000&s=1", "address": "8 rue des Filatiers, 31000, Toulouse France", "lat": 43.59819, "lng": 1.44421, "ref_id": 23548145, "rating": 4.5, "num_reviews": 0, "website": "http://www.miss-fish.fr/", "contact_phone": null, "contact_email": null, "status": 1, "source_type": 1, "numberReviews": 41}, {"name": "Bistro Regent Toulouse - Bd Strasbourg", "type": "restaurant", "image": "https://dynamic-media-cdn.tripadvisor.com/media/photo-o/0e/e1/1b/de/le-restaurant-tout-simplement.jpg?w=1000&s=1", "address": "14 boulevard de Strasbourg, 31000, Toulouse France", "lat": 43.606922, "lng": 1.447479, "ref_id": 5582331, "rating": 3.5, "num_reviews": 0, "website": "http://bistro-regent-toulouse.fr/", "contact_phone": "+33 5 61 57 39 11", "contact_email": "contact@bistro-regent31.fr", "status": 1, "source_type": 1, "numberReviews": 662}, {"name": "Seng Kuon", "type": "restaurant", "image": "https://dynamic-media-cdn.tripadvisor.com/media/photo-o/10/99/45/3b/salle-du-restaurant.jpg?w=1000&s=1", "address": "67 avenue Etienne Billieres, 31300, Toulouse France", "lat": 43.59665, "lng": 1.424127, "ref_id": 4008328, "rating": 4.5, "num_reviews": 0, "website": "http://www.facebook.com/pages/Seng-kuon/489805907742184", "contact_phone": "+33 5 61 59 54 94", "contact_email": null, "status": 1, "source_type": 1, "numberReviews": 77}, {"name": "Caffe Luce", "type": "restaurant", "image": "https://dynamic-media-cdn.tripadvisor.com/media/photo-o/18/53/85/f1/good-italian-food-in.jpg?w=1000&s=1", "address": "8 Place de l Estrapade, 31300, Toulouse France", "lat": 43.59887, "lng": 1.43278, "ref_id": 3974561, "rating": 4.5, "num_reviews": 0, "website": "https://www.facebook.com/charlottejeanlucie/", "contact_phone": "+33 5 62 87 59 13", "contact_email": null, "status": 1, "source_type": 1, "numberReviews": 68}, {"name": "Le Refectoire", "type": "restaurant", "image": "https://dynamic-media-cdn.tripadvisor.com/media/photo-o/11/85/d4/15/burger-bacon-burgerlovers.jpg?w=1000&s=1", "address": "8 Place des Carmes, 31000, Toulouse France", "lat": 43.59754, "lng": 1.44446, "ref_id": 7203617, "rating": 4, "num_reviews": 0, "website": "http://www.facebook.com/pages/Le-R%C3%A9fectoire/804270249645212", "contact_phone": "+33 5 31 22 27 46", "contact_email": null, "status": 1, "source_type": 1, "numberReviews": 140}, {"name": "La cite du mandarin", "type": "restaurant", "image": "https://dynamic-media-cdn.tripadvisor.com/media/photo-o/0b/8d/97/66/20160608-212843-largejpg.jpg?w=1000&s=1", "address": "43 av Toulouse -  SAINT ORENS DE GAMEVILLE, 31650, Toulouse France", "lat": 43.558807, "lng": 1.5266, "ref_id": 1134216, "rating": 4, "num_reviews": 0, "website": "http://www.citemandarin.com/", "contact_phone": "+33 5 61 39 90 00", "contact_email": "pheng_evelyne@yahoo.fr", "status": 1, "source_type": 1, "numberReviews": 136}, {"name": "El Deseo Cafe", "type": "restaurant", "image": "https://dynamic-media-cdn.tripadvisor.com/media/photo-o/1a/ee/70/50/burger-auvergnat-top.jpg?w=1000&s=1", "address": "11 rue des Lois, 31000, Toulouse France", "lat": 43.60572, "lng": 1.441522, "ref_id": 4867371, "rating": 4, "num_reviews": 0, "website": null, "contact_phone": "+33 5 62 27 05 74", "contact_email": null, "status": 1, "source_type": 1, "numberReviews": 66}, {"name": "Aloy Tha\u00ef", "type": "restaurant", "image": "https://dynamic-media-cdn.tripadvisor.com/media/photo-o/10/96/17/0f/phad-thai.jpg?w=1000&s=1", "address": "16 rue d Austerlitz, 31000, Toulouse France", "lat": 43.606388, "lng": 1.447575, "ref_id": 8558199, "rating": 4, "num_reviews": 0, "website": "http://www.facebook.com/Aloy-Tha%C3%AF-236978463638207/", "contact_phone": "+33 5 34 33 75 53", "contact_email": null, "status": 1, "source_type": 1, "numberReviews": 223}, {"name": "Wok Thai", "type": "restaurant", "image": "https://dynamic-media-cdn.tripadvisor.com/media/photo-o/21/53/24/c3/ambiance.jpg?w=1000&s=1", "address": "50 avenue des Etats Unis, 31200, Toulouse France", "lat": 43.62948, "lng": 1.43286, "ref_id": 10872678, "rating": 4.5, "num_reviews": 0, "website": "http://www.instagram.com/wokthairestaurant/", "contact_phone": "+33 6 36 16 70 72", "contact_email": null, "status": 1, "source_type": 1, "numberReviews": 62}, {"name": "Le Victoria", "type": "restaurant", "image": "https://dynamic-media-cdn.tripadvisor.com/media/photo-o/15/10/d4/2f/le-victoria.jpg?w=1000&s=1", "address": "14 boulevard de Bonrepos 76 Rue De Bayard, 31000, Toulouse France", "lat": 43.61112, "lng": 1.452114, "ref_id": 13133379, "rating": 4, "num_reviews": 0, "website": "http://restaurants.accorhotels.com/fr/restaurant-2772_R001-le-victoria-toulouse.shtml", "contact_phone": "+33 5 61 62 50 90", "contact_email": null, "status": 1, "source_type": 1, "numberReviews": 71}, {"name": "Terra Mia", "type": "restaurant", "image": "https://dynamic-media-cdn.tripadvisor.com/media/photo-o/2a/95/a6/32/caption.jpg?w=1000&s=1", "address": "25 Chemin petit Jean Le Carr\u00e9 Tolosan, 31270 Cugnaux, Toulouse France", "lat": 43.548748, "lng": 1.35002, "ref_id": 24919455, "rating": 5, "num_reviews": 0, "website": null, "contact_phone": "+33 6 77 50 19 88", "contact_email": "terramiacugnaux@gmail.com", "status": 1, "source_type": 1, "numberReviews": 23}, {"name": "Chez Casi", "type": "restaurant", "image": "https://dynamic-media-cdn.tripadvisor.com/media/photo-o/18/a4/a4/2a/la-salle.jpg?w=1000&s=1", "address": "8 rue Jules Raimu, 31200, Toulouse France", "lat": 43.634727, "lng": 1.475247, "ref_id": 5797295, "rating": 4, "num_reviews": 0, "website": "http://chezcasi.fr/", "contact_phone": "+33 5 61 12 04 48", "contact_email": null, "status": 1, "source_type": 1, "numberReviews": 83}, {"name": "Don Pancho", "type": "restaurant", "image": "https://dynamic-media-cdn.tripadvisor.com/media/photo-o/1a/b3/2e/66/entrecote-300-g-au-menu.jpg?w=1000&s=1", "address": "41 avenue Honore Serres, 31000, Toulouse France", "lat": 43.613335, "lng": 1.438018, "ref_id": 1327753, "rating": 4, "num_reviews": 0, "website": "http://www.donpancho.fr/", "contact_phone": "+33 5 61 21 48 16", "contact_email": "", "status": 1, "source_type": 1, "numberReviews": 240}, {"name": "La Cri\u00e9e des Gourmands", "type": "restaurant", "image": "https://dynamic-media-cdn.tripadvisor.com/media/photo-o/1b/94/0c/df/la-criee-des-gourmands.jpg?w=1000&s=1", "address": "60 Route d Agde, 31500, Toulouse France", "lat": 43.624622, "lng": 1.475168, "ref_id": 6776390, "rating": 4, "num_reviews": 0, "website": "http://www.la-criee-des-gourmands.fr", "contact_phone": "+33 5 34 30 04 10", "contact_email": "contact@la-criee-des-gourmands.fr", "status": 1, "source_type": 1, "numberReviews": 204}, {"name": "Chez Tran", "type": "restaurant", "image": "https://dynamic-media-cdn.tripadvisor.com/media/photo-o/07/06/25/eb/chez-tran.jpg?w=1000&s=1", "address": "26 rue Pargaminieres, 31000, Toulouse France", "lat": 43.60428, "lng": 1.43773, "ref_id": 5981636, "rating": 4.5, "num_reviews": 0, "website": "http://www.cheztran.com", "contact_phone": "+33 5 61 61 03 74", "contact_email": "contact@cheztran.com", "status": 1, "source_type": 1, "numberReviews": 51}, {"name": "B\u00e0caro", "type": "restaurant", "image": "https://dynamic-media-cdn.tripadvisor.com/media/photo-o/1a/38/35/a2/bacaro.jpg?w=1000&s=1", "address": "20 rue du Pont Guilhemery, 31000, Toulouse France", "lat": 43.601315, "lng": 1.45706, "ref_id": 9791674, "rating": 4, "num_reviews": 0, "website": "http://www.bacaro-toulouse.fr", "contact_phone": "+33 6 84 58 30 80", "contact_email": "contact@bacarotoulouse.com", "status": 1, "source_type": 1, "numberReviews": 128}, {"name": "Le Loup Blanc", "type": "restaurant", "image": "https://dynamic-media-cdn.tripadvisor.com/media/photo-o/1d/a9/56/02/loup-blanc.jpg?w=1000&s=1", "address": "18 rue Nicolas Bachelier, 31000, Toulouse France", "lat": 43.60622, "lng": 1.452503, "ref_id": 21169516, "rating": 5, "num_reviews": 0, "website": "http://www.le-loup-blanc.fr/", "contact_phone": "+33 7 65 26 56 10", "contact_email": null, "status": 1, "source_type": 1, "numberReviews": 25}, {"name": "La Gazette", "type": "restaurant", "image": "https://dynamic-media-cdn.tripadvisor.com/media/photo-o/04/87/23/ce/and-the-coffee-s-great.jpg?w=1000&s=1", "address": "30 rue du Rempart Saint Etienne, 31000, Toulouse France", "lat": 43.602314, "lng": 1.450825, "ref_id": 3525401, "rating": 4.5, "num_reviews": 0, "website": "http://www.facebook.com/Restaurant-La-Gazette-678516422306363/", "contact_phone": "+33 5 61 21 15 81", "contact_email": null, "status": 1, "source_type": 1, "numberReviews": 58}, {"name": "Le Carbet d'Oc", "type": "restaurant", "image": "https://dynamic-media-cdn.tripadvisor.com/media/photo-o/17/34/12/9e/mai-tai-cocktail-fruite.jpg?w=1000&s=1", "address": "4 rue des Filatiers, 31000, Toulouse France", "lat": 43.598114, "lng": 1.444283, "ref_id": 4695806, "rating": 3.5, "num_reviews": 0, "website": "http://www.facebook.com/LeCarbetDOc/?ref=page_internal", "contact_phone": "+33 9 54 60 32 57", "contact_email": "direction.gloucarbet@gmail.com", "status": 1, "source_type": 1, "numberReviews": 265}, {"name": "Restaurant L'Aubrac", "type": "restaurant", "image": "https://dynamic-media-cdn.tripadvisor.com/media/photo-o/0f/0a/ab/26/photo0jpg.jpg?w=1000&s=1", "address": "7 B rue de la Colombette, 31000, Toulouse France", "lat": 43.604443, "lng": 1.451367, "ref_id": 1014929, "rating": 3.5, "num_reviews": 0, "website": "http://www.restaurant-laubrac.fr", "contact_phone": "+33 5 61 62 98 08", "contact_email": "ericp31@gmail.com", "status": 1, "source_type": 1, "numberReviews": 333}, {"name": "Chez Riz", "type": "restaurant", "image": "https://dynamic-media-cdn.tripadvisor.com/media/photo-o/08/d8/8a/e7/chez-riz.jpg?w=1000&s=1", "address": "45 rue Saint Charles, 31000, Toulouse France", "lat": 43.61001, "lng": 1.44241, "ref_id": 8434588, "rating": 4.5, "num_reviews": 0, "website": "http://chezriz-fondue-chinoise.fr", "contact_phone": "+33 6 66 76 30 67", "contact_email": null, "status": 1, "source_type": 1, "numberReviews": 48}, {"name": "Jifu Fondue Asiatique", "type": "restaurant", "image": "https://dynamic-media-cdn.tripadvisor.com/media/photo-o/1a/0e/7a/4e/fondue-et-raviolis.jpg?w=1000&s=1", "address": "64 B rue de la Colombette, 31000, Toulouse France", "lat": 43.60476, "lng": 1.454932, "ref_id": 15154640, "rating": 4.5, "num_reviews": 0, "website": "http://www.jifu-restaurant.fr/", "contact_phone": "+33 9 86 53 41 58", "contact_email": null, "status": 1, "source_type": 1, "numberReviews": 34}, {"name": "Chez Jazz", "type": "restaurant", "image": "https://dynamic-media-cdn.tripadvisor.com/media/photo-o/11/fc/e0/f5/photo0jpg.jpg?w=1000&s=1", "address": "3 Place de l Estrapade Quartier Saint Cyprien, 31300, Toulouse France", "lat": 43.59884, "lng": 1.433033, "ref_id": 13477230, "rating": 4.5, "num_reviews": 0, "website": "http://www.chez-jazz.fr/", "contact_phone": "+33 6 16 46 21 96", "contact_email": null, "status": 1, "source_type": 1, "numberReviews": 70}, {"name": "Mme Pompette", "type": "restaurant", "image": "https://dynamic-media-cdn.tripadvisor.com/media/photo-o/2a/d8/18/61/tapas-dans-le-patio.jpg?w=1000&s=1", "address": "29 route de Blagnac, Toulouse France", "lat": 43.603947, "lng": 1.44303, "ref_id": 26338939, "rating": 4.5, "num_reviews": 0, "website": null, "contact_phone": null, "contact_email": null, "status": 1, "source_type": 1, "numberReviews": 7}, {"name": "Lycee des Metiers de l'Hotellerie et du Tourisme d'Occitanie", "type": "restaurant", "image": null, "address": "1 rue de l Abbe Jules Lemire, 31300, Toulouse France", "lat": 43.59712, "lng": 1.40463, "ref_id": 10092070, "rating": 4.5, "num_reviews": 0, "website": null, "contact_phone": null, "contact_email": null, "status": 1, "source_type": 1, "numberReviews": 11}, {"name": "Tripletta Des Carmes", "type": "restaurant", "image": "https://dynamic-media-cdn.tripadvisor.com/media/photo-o/2b/93/df/40/caption.jpg?w=1000&s=1", "address": "13 rue des Filatiers, 31000, Toulouse France", "lat": 43.598343, "lng": 1.444117, "ref_id": 24915496, "rating": 3.5, "num_reviews": 0, "website": "http://triplettapizza.com", "contact_phone": "+33 5 34 44 79 11", "contact_email": "contact@triplettapizza.com", "status": 1, "source_type": 1, "numberReviews": 25}, {"name": "Cabaret la V\u00e9nus", "type": "restaurant", "image": "https://dynamic-media-cdn.tripadvisor.com/media/photo-o/1a/77/9a/de/photo1jpg.jpg?w=1000&s=1", "address": "388 avenue des Etats Unis, 31200, Toulouse France", "lat": 43.663483, "lng": 1.414945, "ref_id": 4329149, "rating": 3.5, "num_reviews": 0, "website": "http://www.lavenus-toulouse.com", "contact_phone": "+33 6 19 77 48 60", "contact_email": "lavenus@free.fr", "status": 1, "source_type": 1, "numberReviews": 147}, {"name": "Oh Fada", "type": "restaurant", "image": "https://dynamic-media-cdn.tripadvisor.com/media/photo-o/0e/3d/d6/ee/photo0jpg.jpg?w=1000&s=1", "address": "74 avenue Camille Pujol, 31500, Toulouse France", "lat": 43.60053, "lng": 1.46452, "ref_id": 6120724, "rating": 4, "num_reviews": 0, "website": "http://www.ohfada.net", "contact_phone": "+33 5 61 20 52 05", "contact_email": "pierre315@icloud.com", "status": 1, "source_type": 1, "numberReviews": 53}, {"name": "Marcello Saint Pierre", "type": "restaurant", "image": "https://dynamic-media-cdn.tripadvisor.com/media/photo-o/29/fb/98/a8/caption.jpg?w=1000&s=1", "address": "2 rue Pargaminieres, 31000, Toulouse France", "lat": 43.60403, "lng": 1.436355, "ref_id": 24828771, "rating": 4, "num_reviews": 0, "website": null, "contact_phone": null, "contact_email": null, "status": 1, "source_type": 1, "numberReviews": 19}, {"name": "Le Winger", "type": "restaurant", "image": "https://dynamic-media-cdn.tripadvisor.com/media/photo-o/1b/d2/43/23/le-winger.jpg?w=1000&s=1", "address": "68 rue de Bayard, 31000, Toulouse France", "lat": 43.61087, "lng": 1.4516, "ref_id": 1330237, "rating": 4, "num_reviews": 0, "website": "https://lewingerfood.fr/", "contact_phone": "+33 5 34 41 10 11", "contact_email": "", "status": 1, "source_type": 1, "numberReviews": 18}, {"name": "Restaurant Saveurs Et Musiques Du Monde", "type": "restaurant", "image": null, "address": "69 Grande rue Saint Michel, 31400, Toulouse France", "lat": 43.603947, "lng": 1.44303, "ref_id": 25103743, "rating": 5, "num_reviews": 0, "website": null, "contact_phone": "+33 7 85 74 67 99", "contact_email": null, "status": 1, "source_type": 1, "numberReviews": 5}, {"name": "Brasserie Les Turres", "type": "restaurant", "image": "https://dynamic-media-cdn.tripadvisor.com/media/photo-o/1d/0a/a4/2a/banoffee-ou-tarte-tatin.jpg?w=1000&s=1", "address": "196 rue Henri Desbals, 31100, Toulouse France", "lat": 43.58494, "lng": 1.41617, "ref_id": 14098886, "rating": 4.5, "num_reviews": 0, "website": null, "contact_phone": "+33 5 61 40 25 12", "contact_email": null, "status": 1, "source_type": 1, "numberReviews": 10}, {"name": "A Crocs Pizza", "type": "restaurant", "image": "https://dynamic-media-cdn.tripadvisor.com/media/photo-o/19/1e/7e/0f/img-20190903-195155-largejpg.jpg?w=1000&s=1", "address": "13 rue Missak Manouchian, 31100, Toulouse France", "lat": 43.55055, "lng": 1.38629, "ref_id": 10020789, "rating": 4, "num_reviews": 0, "website": "https://www.acrocspizza.fr/", "contact_phone": "+33 5 62 48 43 36", "contact_email": null, "status": 1, "source_type": 1, "numberReviews": 23}, {"name": "Boucherie Charcuterie Pollet", "type": "restaurant", "image": "https://dynamic-media-cdn.tripadvisor.com/media/photo-o/14/78/81/94/img-20180904-122629-largejpg.jpg?w=1000&s=1", "address": "7 rue Louise Weiss, 31200, Toulouse France", "lat": 43.64002, "lng": 1.45301, "ref_id": 12234789, "rating": 5, "num_reviews": 0, "website": "http://www.boucherie-pollet.fr", "contact_phone": "+33 5 61 07 05 29", "contact_email": null, "status": 1, "source_type": 1, "numberReviews": 9}, {"name": "Tokami", "type": "restaurant", "image": "https://dynamic-media-cdn.tripadvisor.com/media/photo-o/15/82/17/7d/sashimis-au-saumon.jpg?w=1000&s=1", "address": "Centre Commercial Auchan, Toulouse France", "lat": 43.63223, "lng": 1.486341, "ref_id": 4871900, "rating": 4, "num_reviews": 0, "website": "http://www.tokami-restaurant.com/tokami-gramont.html", "contact_phone": "+33 5 34 30 29 37", "contact_email": null, "status": 1, "source_type": 1, "numberReviews": 39}, {"name": "Brulerie des Saveurs", "type": "restaurant", "image": "https://dynamic-media-cdn.tripadvisor.com/media/photo-o/0e/f4/84/4d/discreto-pero-de-calidad.jpg?w=1000&s=1", "address": "5 Place Rouaix, 31000, Toulouse France", "lat": 43.599365, "lng": 1.445319, "ref_id": 12296013, "rating": 4.5, "num_reviews": 0, "website": null, "contact_phone": "+33 5 61 25 26 75", "contact_email": null, "status": 1, "source_type": 1, "numberReviews": 17}, {"name": "O Vestiaire", "type": "restaurant", "image": "https://dynamic-media-cdn.tripadvisor.com/media/photo-o/06/2b/1f/93/salade-de-chevre.jpg?w=1000&s=1", "address": "3, rue Pargaminiere, 31000, Toulouse France", "lat": 43.60435, "lng": 1.43799, "ref_id": 1962987, "rating": 3.5, "num_reviews": 0, "website": null, "contact_phone": "+33 5 34 30 52 69", "contact_email": "", "status": 1, "source_type": 1, "numberReviews": 80}, {"name": "Le Bistrot Du Port", "type": "restaurant", "image": "https://dynamic-media-cdn.tripadvisor.com/media/photo-o/1b/d2/01/31/photo0jpg.jpg?w=1000&s=1", "address": "5 Port Saint Sauveur, 31400, Toulouse France", "lat": 43.59506, "lng": 1.45585, "ref_id": 12945782, "rating": 3.5, "num_reviews": 0, "website": "https://www.facebook.com/Le-Bistrot-du-Port-145609725870448/", "contact_phone": "+33 7 82 11 16 19", "contact_email": "lebistrotduporttoulouse@gmail.com", "status": 1, "source_type": 1, "numberReviews": 42}, {"name": "La Loge", "type": "restaurant", "image": "https://dynamic-media-cdn.tripadvisor.com/media/photo-o/1d/79/c7/92/caption.jpg?w=1000&s=1", "address": "2 Place des Carmes Place, 31000, Toulouse France", "lat": 43.59735, "lng": 1.44511, "ref_id": 17700495, "rating": 3.5, "num_reviews": 0, "website": "www.lalogedescarmes.fr", "contact_phone": "+33 5 61 12 23 11", "contact_email": "reservationlaloge@gmail.com", "status": 1, "source_type": 1, "numberReviews": 48}, {"name": "L'open Terrasse", "type": "restaurant", "image": "https://dynamic-media-cdn.tripadvisor.com/media/photo-o/29/78/e5/2e/guinguette-estivale-plein.jpg?w=1000&s=1", "address": "85 route de Narbonne, 31400, Toulouse France", "lat": 43.567696, "lng": 1.457176, "ref_id": 23500152, "rating": 5, "num_reviews": 0, "website": null, "contact_phone": "+33 6 95 33 62 34", "contact_email": "contact@open-terrasse.fr", "status": 1, "source_type": 1, "numberReviews": 5}, {"name": "Le Moderne", "type": "restaurant", "image": "https://dynamic-media-cdn.tripadvisor.com/media/photo-o/17/48/b4/1e/lovely-modern-friendly.jpg?w=1000&s=1", "address": "386 route de Saint Simon, 31100, Toulouse France", "lat": 43.59012, "lng": 1.41623, "ref_id": 10801448, "rating": 4, "num_reviews": 0, "website": "https://www.facebook.com/mymoderne/", "contact_phone": "+33 5 34 64 42 95", "contact_email": "contact@bistrotlemoderne31.fr", "status": 1, "source_type": 1, "numberReviews": 27}, {"name": "Le Comptoir du Rex", "type": "restaurant", "image": "https://dynamic-media-cdn.tripadvisor.com/media/photo-o/17/55/de/2b/changement-de-cap-fiel.jpg?w=1000&s=1", "address": "15 avenue Honore Serres, 31000, Toulouse France", "lat": 43.611988, "lng": 1.438322, "ref_id": 17393030, "rating": 4.5, "num_reviews": 0, "website": "http://www.lecomptoirdurex.com", "contact_phone": "+33 5 61 21 82 72", "contact_email": "contact@lecomptoirdurex.com", "status": 1, "source_type": 1, "numberReviews": 15}, {"name": "Le Mayombe", "type": "restaurant", "image": "https://dynamic-media-cdn.tripadvisor.com/media/photo-o/09/e4/99/66/le-poulet-aux-echalotes.jpg?w=1000&s=1", "address": "26 rue de la Republique, 31300, Toulouse France", "lat": 43.59861, "lng": 1.4354, "ref_id": 3592791, "rating": 3.5, "num_reviews": 0, "website": "http://www.le-mayombe.com/index.php", "contact_phone": "+33 5 61 59 50 50", "contact_email": null, "status": 1, "source_type": 1, "numberReviews": 92}, {"name": "Burger a La Une", "type": "restaurant", "image": "https://dynamic-media-cdn.tripadvisor.com/media/photo-o/14/65/3c/98/20180829-195309-largejpg.jpg?w=1000&s=1", "address": "10 Place des Carmes, 31000, Toulouse France", "lat": 43.59775, "lng": 1.44426, "ref_id": 5798949, "rating": 3.5, "num_reviews": 0, "website": "http://www.burgeralaune.com/", "contact_phone": "+33 5 34 41 63 77", "contact_email": null, "status": 1, "source_type": 1, "numberReviews": 66}, {"name": "Les Gourmets d'Asie", "type": "restaurant", "image": "https://dynamic-media-cdn.tripadvisor.com/media/photo-o/15/bf/12/92/20181216-123304-avenue.jpg?w=1000&s=1", "address": "123 B avenue des Minimes, 31200, Toulouse France", "lat": 43.62386, "lng": 1.43415, "ref_id": 3901838, "rating": 4, "num_reviews": 0, "website": "https://www.facebook.com/Gourmets-dAsie-minimes-1883569931726400/", "contact_phone": "+33 5 61 47 51 10", "contact_email": null, "status": 1, "source_type": 1, "numberReviews": 26}, {"name": "Ytaing", "type": "restaurant", "image": "https://dynamic-media-cdn.tripadvisor.com/media/photo-o/25/93/f2/88/ytaing.jpg?w=1000&s=1", "address": "14 avenue Etienne Billieres, 31300, Toulouse France", "lat": 43.5975, "lng": 1.4284, "ref_id": 15133696, "rating": 4.5, "num_reviews": 0, "website": null, "contact_phone": "+33 5 61 42 66 66", "contact_email": null, "status": 1, "source_type": 1, "numberReviews": 8}, {"name": "Les 500 de la Cartoucherie", "type": "restaurant", "image": "https://dynamic-media-cdn.tripadvisor.com/media/photo-o/23/d1/5c/b0/un-espace-de-convivialite.jpg?w=1000&s=1", "address": "1 Place de la Charte des Libert\u00e9s Communales, 31300, Toulouse France", "lat": 43.60219, "lng": 1.408118, "ref_id": 23775550, "rating": 4, "num_reviews": 0, "website": "http://les-500.fr", "contact_phone": "+33 5 32 74 16 23", "contact_email": "500@festa.bar", "status": 1, "source_type": 1, "numberReviews": 19}, {"name": "La Table du Belvedere", "type": "restaurant", "image": "https://dynamic-media-cdn.tripadvisor.com/media/photo-o/0a/c6/8b/51/20160401-131019-largejpg.jpg?w=1000&s=1", "address": "11 boulevard des Recollets, 31400, Toulouse France", "lat": 43.58457, "lng": 1.44011, "ref_id": 5808980, "rating": 4, "num_reviews": 0, "website": "http://www.latabledubelvedere.com", "contact_phone": "+33 5 62 26 69 14", "contact_email": null, "status": 1, "source_type": 1, "numberReviews": 26}, {"name": "Restaurant Attila", "type": "restaurant", "image": "https://dynamic-media-cdn.tripadvisor.com/media/photo-o/11/02/02/83/vorspeise-thunfisch-roh.jpg?w=1000&s=1", "address": "March\u00e9 Victor Hugo Loge N\u00b05, 31000, Toulouse France", "lat": 43.606373, "lng": 1.446389, "ref_id": 1324473, "rating": 3.5, "num_reviews": 0, "website": "https://www.facebook.com/Restaurant-Attila-march%C3%A9-Victor-Hugo-325174931598788/", "contact_phone": "+33 5 61 29 83 59", "contact_email": "restaurantattila837@gmail.com", "status": 1, "source_type": 1, "numberReviews": 191}, {"name": "Eur\u00eakaf\u00e9", "type": "restaurant", "image": "https://dynamic-media-cdn.tripadvisor.com/media/photo-o/29/63/ce/3f/salle-principale.jpg?w=1000&s=1", "address": "5 Impasse Colombette, 31000, Toulouse France", "lat": 43.604427, "lng": 1.445527, "ref_id": 14060275, "rating": 5, "num_reviews": 0, "website": "http://www.eurekafe.fr/", "contact_phone": "+33 5 61 63 48 46", "contact_email": "contact@eurekafe.fr", "status": 1, "source_type": 1, "numberReviews": 8}, {"name": "Le Zagora", "type": "restaurant", "image": "https://dynamic-media-cdn.tripadvisor.com/media/photo-o/0f/af/97/d1/le-zagora.jpg?w=1000&s=1", "address": "6 avenue de l Urss, 31400, Toulouse France", "lat": 43.58356, "lng": 1.44835, "ref_id": 9818224, "rating": 4.5, "num_reviews": 0, "website": null, "contact_phone": "+33 5 61 25 28 27", "contact_email": null, "status": 1, "source_type": 1, "numberReviews": 12}, {"name": "Chez Cesar Au Jardin Des Plantes", "type": "restaurant", "image": "https://dynamic-media-cdn.tripadvisor.com/media/photo-o/28/f9/cf/77/caption.jpg?w=1000&s=1", "address": "allee des Justes des Nations Jardin De Plantes, 31400, Toulouse France", "lat": 43.59247, "lng": 1.451248, "ref_id": 23942920, "rating": 4, "num_reviews": 0, "website": "http://www.chezcesar.fr", "contact_phone": null, "contact_email": "contact@chezcesar.fr", "status": 1, "source_type": 1, "numberReviews": 17}, {"name": "Le Petit Jean", "type": "restaurant", "image": "https://dynamic-media-cdn.tripadvisor.com/media/photo-o/1b/cd/36/e0/photo0jpg.jpg?w=1000&s=1", "address": "170 avenue Jean Rieux, 31500, Toulouse France", "lat": 43.59015, "lng": 1.47018, "ref_id": 17708648, "rating": 5, "num_reviews": 0, "website": "https://www.facebook.com/LePetitJeanToulouse/", "contact_phone": "+33 5 61 46 44 62", "contact_email": "lepetitjean.contact@gmail.com", "status": 1, "source_type": 1, "numberReviews": 8}, {"name": "Boucherie El Rahma", "type": "restaurant", "image": null, "address": "6 Place Arnaud Bernard, 31000 Vieille-Toulouse, Toulouse France", "lat": 43.610954, "lng": 1.438796, "ref_id": 27422047, "rating": -1, "num_reviews": 0, "website": null, "contact_phone": null, "contact_email": null, "status": 1, "source_type": 1, "numberReviews": 0}, {"name": "Kitchen Korner", "type": "restaurant", "image": null, "address": "118 rue du Feretra, 31400, Toulouse France", "lat": 43.58317, "lng": 1.444262, "ref_id": 23763475, "rating": -1, "num_reviews": 0, "website": null, "contact_phone": "+33 7 83 88 83 08", "contact_email": "kitchenkornerk@gmail.com", "status": 1, "source_type": 1, "numberReviews": 0}, {"name": "March\u00e9 Aux Huiles Toulouse", "type": "restaurant", "image": null, "address": "43 Place Des Carmes, 31000 Vieille-Toulouse, Toulouse France", "lat": 43.5979, "lng": 1.44502, "ref_id": 27359400, "rating": -1, "num_reviews": 0, "website": "https://www.facebook.com/1990665811197252", "contact_phone": "+33 6 15 42 37 76", "contact_email": null, "status": 1, "source_type": 1, "numberReviews": 0}, {"name": "Boum Burger", "type": "restaurant", "image": null, "address": "327 Avenue Des \u00c9tats-unis, 31200 Vieille-Toulouse, Toulouse France", "lat": 43.654236, "lng": 1.422732, "ref_id": 27863595, "rating": -1, "num_reviews": 0, "website": "https://www.facebook.com/621325858036780", "contact_phone": "+33 5 61 41 74 17", "contact_email": null, "status": 1, "source_type": 1, "numberReviews": 0}, {"name": "Palpitant", "type": "restaurant", "image": null, "address": "Rue D'aubuisson, Toulouse France", "lat": 43.60338, "lng": 1.452358, "ref_id": 23875451, "rating": -1, "num_reviews": 0, "website": null, "contact_phone": "+33 7 82 82 30 97", "contact_email": null, "status": 1, "source_type": 1, "numberReviews": 0}, {"name": "Becco", "type": "restaurant", "image": null, "address": "90 Rte d'Albi, 31200, Toulouse France", "lat": null, "lng": null, "ref_id": 26913898, "rating": -1, "num_reviews": 0, "website": "http://www.beccotoulouse.fr/", "contact_phone": "+33 5 34 44 66 47", "contact_email": null, "status": 1, "source_type": 1, "numberReviews": 0}, {"name": "Le Regal D'orient", "type": "restaurant", "image": null, "address": "10 Place Auguste Lafourcade, 31400 Vieille-Toulouse, Toulouse France", "lat": 43.59233, "lng": 1.44433, "ref_id": 27378259, "rating": -1, "num_reviews": 0, "website": "http://leregaldorient.fr", "contact_phone": "+33 9 81 96 48 66", "contact_email": null, "status": 1, "source_type": 1, "numberReviews": 0}, {"name": "Chez Aimen", "type": "restaurant", "image": null, "address": "226 Route De Seysses, 31100 Vieille-Toulouse, Toulouse France", "lat": 43.567055, "lng": 1.412255, "ref_id": 27311840, "rating": -1, "num_reviews": 0, "website": "https://www.facebook.com/167459010600086", "contact_phone": "+33 9 73 10 54 19", "contact_email": null, "status": 1, "source_type": 1, "numberReviews": 0}, {"name": "Secrets De Pains S.a.s.", "type": "restaurant", "image": null, "address": "15 Rue Jean Suau, 31000 Vieille-Toulouse, Toulouse France", "lat": 43.60217, "lng": 1.440531, "ref_id": 27319066, "rating": -1, "num_reviews": 0, "website": "https://www.facebook.com/925817080819952", "contact_phone": "+33 6 40 95 42 20", "contact_email": null, "status": 1, "source_type": 1, "numberReviews": 0}, {"name": "Au Gai P\u00e9cheur", "type": "restaurant", "image": null, "address": "67 Route D'albi, 31200 Vieille-Toulouse, Toulouse France", "lat": 43.631832, "lng": 1.462458, "ref_id": 27319991, "rating": -1, "num_reviews": 0, "website": "https://www.facebook.com/154587977947758", "contact_phone": "+33 5 61 63 66 17", "contact_email": null, "status": 1, "source_type": 1, "numberReviews": 0}, {"name": "Sara Bazar", "type": "restaurant", "image": "https://dynamic-media-cdn.tripadvisor.com/media/photo-o/29/47/4b/31/indian-grocery-item.jpg?w=1000&s=1", "address": "25 rue des 7 Troubadours, 31000, Toulouse France", "lat": 43.60632, "lng": 1.45079, "ref_id": 23202366, "rating": -1, "num_reviews": 0, "website": "https://www.facebook.com/SARABAZARFRANCE/", "contact_phone": "+33 6 95 33 52 32", "contact_email": null, "status": 1, "source_type": 1, "numberReviews": 0}, {"name": "Kohoo", "type": "restaurant", "image": null, "address": "7 rue Valentina Terechkova, 31400, Toulouse France", "lat": 43.57609, "lng": 1.473346, "ref_id": 23736187, "rating": -1, "num_reviews": 0, "website": null, "contact_phone": "+33 5 61 73 58 32", "contact_email": "foodplatinium@gmail.com", "status": 1, "source_type": 1, "numberReviews": 0}, {"name": "Gwada Sel", "type": "restaurant", "image": null, "address": "1 Place Des Carmes, 31000 Vieille-Toulouse, Toulouse France", "lat": 43.597595, "lng": 1.445239, "ref_id": 27319510, "rating": -1, "num_reviews": 0, "website": "https://www.facebook.com/102439823174637", "contact_phone": "+33 5 34 31 66 21", "contact_email": null, "status": 1, "source_type": 1, "numberReviews": 0}, {"name": "D\u00e9tour Gourmand", "type": "restaurant", "image": null, "address": "80 Boulevard Deltour, 31500 Vieille-Toulouse, Toulouse France", "lat": 43.59722, "lng": 1.47307, "ref_id": 27198970, "rating": -1, "num_reviews": 0, "website": "http://dgourmand31.com", "contact_phone": "+33 5 61 80 92 38", "contact_email": null, "status": 1, "source_type": 1, "numberReviews": 0}, {"name": "Origines", "type": "restaurant", "image": null, "address": "12 Place De La Daurade, 31000 Vieille-Toulouse, Toulouse France", "lat": 43.601784, "lng": 1.439349, "ref_id": 27319683, "rating": -1, "num_reviews": 0, "website": null, "contact_phone": "+33 6 50 53 41 46", "contact_email": null, "status": 1, "source_type": 1, "numberReviews": 0}, {"name": "The 4 Seasons", "type": "restaurant", "image": null, "address": "12 Avenue De L'urss, 31400 Vieille-Toulouse, Toulouse France", "lat": 43.583267, "lng": 1.448566, "ref_id": 27838698, "rating": -1, "num_reviews": 0, "website": "http://www.restaurant-4-saisons.com", "contact_phone": "+33 5 61 52 33 62", "contact_email": null, "status": 1, "source_type": 1, "numberReviews": 0}, {"name": "Damaski", "type": "restaurant", "image": null, "address": "71 route de Blagnac, 31200, Toulouse France", "lat": 43.61578, "lng": 1.410408, "ref_id": 19042460, "rating": -1, "num_reviews": 0, "website": "http://www.damaski-shop.com/", "contact_phone": "+33 6 95 12 01 87", "contact_email": "info.damaski@gmail.com", "status": 1, "source_type": 1, "numberReviews": 0}, {"name": "L'APEROZZA", "type": "restaurant", "image": null, "address": "34 All. Jean Jaures, 31000, Toulouse France", "lat": null, "lng": null, "ref_id": 27483859, "rating": -1, "num_reviews": 0, "website": null, "contact_phone": null, "contact_email": null, "status": 1, "source_type": 1, "numberReviews": 0}, {"name": "Le Panier Royal", "type": "restaurant", "image": null, "address": "22 Avenue L\u00e9on Blum, 31500 Vieille-Toulouse, Toulouse France", "lat": 43.6139, "lng": 1.46113, "ref_id": 27327787, "rating": -1, "num_reviews": 0, "website": "https://www.facebook.com/112028748156249", "contact_phone": "+33 9 87 70 16 12", "contact_email": null, "status": 1, "source_type": 1, "numberReviews": 0}, {"name": "Le Local Mini Brasserie", "type": "restaurant", "image": null, "address": "14 Avenue Paul S\u00e9journ\u00e9, 31000 Vieille-Toulouse, Toulouse France", "lat": 43.606564, "lng": 1.428442, "ref_id": 27367659, "rating": -1, "num_reviews": 0, "website": "http://minibrasserie.fr", "contact_phone": "+33 6 31 40 89 87", "contact_email": null, "status": 1, "source_type": 1, "numberReviews": 0}, {"name": "Brunch du Jungle", "type": "restaurant", "image": null, "address": "15 Pl. du President Thomas Wilson, 31000 Vieille-Toulouse, Toulouse France", "lat": null, "lng": null, "ref_id": 25215344, "rating": -1, "num_reviews": 0, "website": null, "contact_phone": null, "contact_email": null, "status": 1, "source_type": 1, "numberReviews": 0}, {"name": "Canaille Club", "type": "restaurant", "image": null, "address": "55 Avenue Louis Breguet, 31400 Vieille-Toulouse, Toulouse France", "lat": 43.577538, "lng": 1.475381, "ref_id": 27218095, "rating": -1, "num_reviews": 0, "website": "https://www.canaille-club.com", "contact_phone": "+33 7 66 05 79 58", "contact_email": null, "status": 1, "source_type": 1, "numberReviews": 0}, {"name": "Le Comptoir De Mathilde", "type": "restaurant", "image": null, "address": "5 Rue Lafayette, 31000 Vieille-Toulouse, Toulouse France", "lat": 43.60498, "lng": 1.44428, "ref_id": 27327049, "rating": -1, "num_reviews": 0, "website": "http://www.lecomptoirdemathilde.com/", "contact_phone": "+33 5 34 30 01 79", "contact_email": null, "status": 1, "source_type": 1, "numberReviews": 0}, {"name": "Mcdonald's", "type": "restaurant", "image": null, "address": "Avenue Du Mirail, 31100 Vieille-Toulouse, Toulouse France", "lat": 43.56741, "lng": 1.392363, "ref_id": 27299401, "rating": -1, "num_reviews": 0, "website": "https://www.facebook.com/640961693049144", "contact_phone": "+33 5 61 44 66 96", "contact_email": null, "status": 1, "source_type": 1, "numberReviews": 0}, {"name": "Au Panier D'oc", "type": "restaurant", "image": null, "address": "104 Avenue Camille Pujol, 31500 Vieille-Toulouse, Toulouse France", "lat": 43.600533, "lng": 1.466812, "ref_id": 27203115, "rating": -1, "num_reviews": 0, "website": "https://www.facebook.com/101020965413673", "contact_phone": "+33 5 61 54 58 97", "contact_email": null, "status": 1, "source_type": 1, "numberReviews": 0}, {"name": "Chez Naan", "type": "restaurant", "image": null, "address": "5 Rue Gabriel P\u00e9ri, 31000 Vieille-Toulouse, Toulouse France", "lat": 43.605717, "lng": 1.450625, "ref_id": 27327701, "rating": -1, "num_reviews": 0, "website": "https://www.facebook.com/541643113429348", "contact_phone": "+33 9 50 94 15 10", "contact_email": null, "status": 1, "source_type": 1, "numberReviews": 0}, {"name": "La Dispute Aux Oiseaux", "type": "restaurant", "image": null, "address": "26 All\u00e9es Charles De Fitte, 31300 Vieille-Toulouse, Toulouse France", "lat": 43.59539, "lng": 1.43283, "ref_id": 27319106, "rating": -1, "num_reviews": 0, "website": "https://www.facebook.com/134855853967957", "contact_phone": "+33 9 50 34 30 59", "contact_email": null, "status": 1, "source_type": 1, "numberReviews": 0}, {"name": "Bloomy les jardins", "type": "restaurant", "image": null, "address": "72 avenue des \u00c9tats-Unis, 31200, Toulouse France", "lat": 43.63056, "lng": 1.432666, "ref_id": 26551076, "rating": -1, "num_reviews": 0, "website": null, "contact_phone": null, "contact_email": null, "status": 1, "source_type": 1, "numberReviews": 0}, {"name": "L'avenue Chicha Toulouse", "type": "restaurant", "image": null, "address": "98 Boulevard De L'embouchure, 31200 Vieille-Toulouse, Toulouse France", "lat": 43.61201, "lng": 1.42281, "ref_id": 27358138, "rating": -1, "num_reviews": 0, "website": "https://www.facebook.com/2048871448561887", "contact_phone": "+33 7 45 58 54 90", "contact_email": null, "status": 1, "source_type": 1, "numberReviews": 0}, {"name": "Fresh Burritos", "type": "restaurant", "image": null, "address": "54bis Rue D'alsace-lorraine, 31000 Vieille-Toulouse, Toulouse France", "lat": 43.60744, "lng": 1.44578, "ref_id": 27267124, "rating": -1, "num_reviews": 0, "website": "https://freshburritos.fr/", "contact_phone": "+33 1 02 03 04 05", "contact_email": null, "status": 1, "source_type": 1, "numberReviews": 0}, {"name": "Flunch", "type": "restaurant", "image": "https://dynamic-media-cdn.tripadvisor.com/media/photo-o/27/26/52/51/profil.jpg?w=1000&s=1", "address": "36 route de Bayonne Centre Commercial Carrefour, 31300, Toulouse France", "lat": 43.60905, "lng": 1.395737, "ref_id": 14125751, "rating": 2.5, "num_reviews": 0, "website": "http://restaurant.flunch.fr/toulouse/flunch-toulouse-purpan/", "contact_phone": "+33 5 61 31 80 60", "contact_email": null, "status": 1, "source_type": 1, "numberReviews": 17}, {"name": "Tom Pouce Cafe", "type": "restaurant", "image": "https://dynamic-media-cdn.tripadvisor.com/media/photo-o/14/ed/06/ae/spinach-quiche-served.jpg?w=1000&s=1", "address": "4 Place Roger Salengro, 31000, Toulouse France", "lat": 43.602886, "lng": 1.444963, "ref_id": 2259447, "rating": 2.5, "num_reviews": 0, "website": "http://www.tompouce-cafe.com/", "contact_phone": "+33 5 61 23 12 13", "contact_email": "", "status": 1, "source_type": 1, "numberReviews": 281}, {"name": "Les Americains", "type": "restaurant", "image": "https://dynamic-media-cdn.tripadvisor.com/media/photo-o/12/c7/cd/69/un-menu-moules-frittes.jpg?w=1000&s=1", "address": "81 boulevard Lazare Carnot, 31000, Toulouse France", "lat": 43.605522, "lng": 1.448719, "ref_id": 3431833, "rating": 2.5, "num_reviews": 0, "website": "http://www.brasserielesamericains.com/", "contact_phone": "+33 9 54 72 91 79", "contact_email": null, "status": 1, "source_type": 1, "numberReviews": 692}, {"name": "Carpe diem", "type": "restaurant", "image": "https://dynamic-media-cdn.tripadvisor.com/media/photo-o/19/1d/d5/dd/dsc-0319-largejpg.jpg?w=1000&s=1", "address": "18 rue du Taur, 31000, Toulouse France", "lat": 43.60579, "lng": 1.44265, "ref_id": 17691016, "rating": 2.5, "num_reviews": 0, "website": "https://www.facebook.com/LeCarpeDiemToulouse/", "contact_phone": "+33 5 61 21 88 60", "contact_email": "cpdmtlse@gmail.com", "status": 1, "source_type": 1, "numberReviews": 16}, {"name": "McDonald's", "type": "restaurant", "image": "https://dynamic-media-cdn.tripadvisor.com/media/photo-o/28/38/b4/eb/fries.jpg?w=1000&s=1", "address": "16 route de Bayonne, 31300, Toulouse France", "lat": 43.607983, "lng": 1.39526, "ref_id": 9792747, "rating": 2.5, "num_reviews": 0, "website": "http://www.restaurants.mcdonalds.fr/mcdonalds-toulouse-purpan", "contact_phone": "+33 5 61 31 92 88", "contact_email": null, "status": 1, "source_type": 1, "numberReviews": 14}, {"name": "FACTORY & CO - Toulouse", "type": "restaurant", "image": "https://dynamic-media-cdn.tripadvisor.com/media/photo-o/2a/2e/e4/6e/restaurant.jpg?w=1000&s=1", "address": "A\u00e9roport Toulouse, 31700, Toulouse France", "lat": 43.63128, "lng": 1.364008, "ref_id": 26345460, "rating": 1, "num_reviews": 0, "website": "https://www.facebook.com/Factoryandco", "contact_phone": "+33 1 49 59 61 91", "contact_email": "contact@factoryandco.com", "status": 1, "source_type": 1, "numberReviews": 2}, {"name": "Aux Petits Fours Jean-Paul Saint-Criq", "type": "restaurant", "image": "https://dynamic-media-cdn.tripadvisor.com/media/photo-o/10/fe/9d/7a/ne-m-en-rappel-pas-j.jpg?w=1000&s=1", "address": "7 Place de la Patte D Oie, 31300, Toulouse France", "lat": 43.59667, "lng": 1.42284, "ref_id": 12322604, "rating": 2.5, "num_reviews": 0, "website": "http://www.patisserie-saint-criq-toulouse.fr/", "contact_phone": "+33 5 61 49 35 07", "contact_email": "auxpetitsfours@hotmail.fr", "status": 1, "source_type": 1, "numberReviews": 21}, {"name": "Domino's Pizza", "type": "restaurant", "image": "https://dynamic-media-cdn.tripadvisor.com/media/photo-o/16/e4/63/9f/logo.jpg?w=1000&s=1", "address": "66 rue du Faubourg Bonnefoy, 31500, Toulouse France", "lat": 43.619915, "lng": 1.457494, "ref_id": 14760221, "rating": 1.5, "num_reviews": 0, "website": "https://www.dominos.fr/", "contact_phone": "+33 5 61 48 02 50", "contact_email": null, "status": 1, "source_type": 1, "numberReviews": 5}, {"name": "McDonald's", "type": "restaurant", "image": "https://dynamic-media-cdn.tripadvisor.com/media/photo-o/15/0a/15/13/photo2jpg.jpg?w=1000&s=1", "address": "2 avenue Marcel Dassault, 31500, Toulouse France", "lat": 43.573257, "lng": 1.493958, "ref_id": 5865489, "rating": 2.5, "num_reviews": 0, "website": "http://www.restaurants.mcdonalds.fr/mcdonalds-toulouse-montaudran", "contact_phone": "+33 5 61 54 78 90", "contact_email": null, "status": 1, "source_type": 1, "numberReviews": 31}, {"name": "Pomme de Pain", "type": "restaurant", "image": "https://dynamic-media-cdn.tripadvisor.com/media/photo-o/0c/a7/00/e1/burger.jpg?w=1000&s=1", "address": "51 Bis Rue du Rempart Saint-Etienne Centre Commercial Espace Saint Georges, 31000, Toulouse France", "lat": 43.603313, "lng": 1.448796, "ref_id": 10765878, "rating": 1.5, "num_reviews": 0, "website": "https://pommedepain.fr/", "contact_phone": null, "contact_email": null, "status": 1, "source_type": 1, "numberReviews": 11}, {"name": "KFC - Toulouse Sud-Ouest", "type": "restaurant", "image": "https://dynamic-media-cdn.tripadvisor.com/media/photo-o/1b/e7/4b/38/kfc-drive.jpg?w=1000&s=1", "address": "91 route de Saint Simon, 31100, Toulouse France", "lat": 43.568684, "lng": 1.377335, "ref_id": 7345399, "rating": 2, "num_reviews": 0, "website": "https://www.facebook.com/1887805078159892", "contact_phone": "+33 5 61 41 84 46", "contact_email": null, "status": 1, "source_type": 1, "numberReviews": 46}, {"name": "McDonald's", "type": "restaurant", "image": "https://dynamic-media-cdn.tripadvisor.com/media/photo-o/0a/09/42/ef/mcdonald-s.jpg?w=1000&s=1", "address": "2 Boulevard de l'Europe Centre Commercial R\u00e9gional \u00c9vry 2, 91000, Toulouse France", "lat": 43.55493, "lng": 1.48119, "ref_id": 8297107, "rating": 1.5, "num_reviews": 0, "website": "http://www.restaurants.mcdonalds.fr/mcdonalds-evry", "contact_phone": "+33 1 81 85 09 28", "contact_email": null, "status": 1, "source_type": 1, "numberReviews": 9}, {"name": "Caf\u00e9 Albert", "type": "restaurant", "image": "https://dynamic-media-cdn.tripadvisor.com/media/photo-o/12/3b/87/ba/photo2jpg.jpg?w=1000&s=1", "address": "15 Place du Capitole, 31000, Toulouse France", "lat": 43.60465, "lng": 1.442874, "ref_id": 3630457, "rating": 2.5, "num_reviews": 0, "website": "http://www.facebook.com/pages/Grand-Cafe-Albert-15-Place-du-Capitole/158963397465442?fref=ts", "contact_phone": "+33 5 61 22 46 97", "contact_email": null, "status": 1, "source_type": 1, "numberReviews": 300}, {"name": "Pizza Hut", "type": "restaurant", "image": "https://dynamic-media-cdn.tripadvisor.com/media/photo-o/25/3c/de/db/pizza-hut.jpg?w=1000&s=1", "address": "4 avenue des Etats Unis, 31200, Toulouse France", "lat": 43.627254, "lng": 1.433725, "ref_id": 9869214, "rating": 2, "num_reviews": 0, "website": "https://www.pizzahut.fr/huts/fr-1/172-toulouse-minimes/?utm_source=google&utm_medium=maps&utm_campaign=web_url&y_source=1_MTEzMzQ5NTgtNzY5LWxvY2F0aW9uLndlYnNpdGU%3D", "contact_phone": "+33 5-61-14-14-14", "contact_email": "service.consommateurs@pizzahut.fr", "status": 1, "source_type": 1, "numberReviews": 20}, {"name": "Quick Toulouse Mirail", "type": "restaurant", "image": "https://dynamic-media-cdn.tripadvisor.com/media/photo-o/2b/16/49/1e/photo-interieur.jpg?w=1000&s=1", "address": "Centre Commercial Place Edouard Bouilli\u00e8res Centre Commercial, 31100, Toulouse France", "lat": 43.574017, "lng": 1.400338, "ref_id": 20009255, "rating": 1.5, "num_reviews": 0, "website": "https://www.quick.fr/", "contact_phone": "+33 5 61 44 69 03", "contact_email": "frd704@quick.fr", "status": 1, "source_type": 1, "numberReviews": 6}, {"name": "KFC", "type": "restaurant", "image": null, "address": "308 avenue des Etats Unis, 31200, Toulouse France", "lat": 43.654346, "lng": 1.423402, "ref_id": 7259197, "rating": 2, "num_reviews": 0, "website": "https://www.facebook.com/KFC-Toulouse-Lalande-796685467154881/", "contact_phone": "+33 5 61 62 07 99", "contact_email": null, "status": 1, "source_type": 1, "numberReviews": 9}, {"name": "Cafe-OZ Toulouse", "type": "restaurant", "image": "https://dynamic-media-cdn.tripadvisor.com/media/photo-o/24/45/89/e3/caption.jpg?w=1000&s=1", "address": "1 rue Gabriel Peri, 31000, Toulouse France", "lat": 43.60559, "lng": 1.44976, "ref_id": 20977060, "rating": 2, "num_reviews": 0, "website": "https://cafe-oz.com/toulouse.html", "contact_phone": "+33 5 34 67 55 38", "contact_email": null, "status": 1, "source_type": 1, "numberReviews": 20}, {"name": "I Bar", "type": "restaurant", "image": null, "address": "3 Rue Gabriel P\u00e9ri, 31000, Toulouse France", "lat": 43.6059, "lng": 1.45248, "ref_id": 4452438, "rating": 2, "num_reviews": 0, "website": "http://www.i-bar.fr", "contact_phone": "+33 5 61 62 08 07", "contact_email": null, "status": 1, "source_type": 1, "numberReviews": 23}, {"name": "Tacos Industry", "type": "restaurant", "image": "https://dynamic-media-cdn.tripadvisor.com/media/photo-o/1b/99/d8/a5/les-tacos.jpg?w=1000&s=1", "address": "17 rue du Taur, 31000, Toulouse France", "lat": 43.6054, "lng": 1.44267, "ref_id": 15708050, "rating": 2, "num_reviews": 0, "website": null, "contact_phone": null, "contact_email": null, "status": 1, "source_type": 1, "numberReviews": 11}, {"name": "Mood restaurant", "type": "restaurant", "image": "https://dynamic-media-cdn.tripadvisor.com/media/photo-o/1b/23/1c/2b/photo1jpg.jpg?w=1000&s=1", "address": "123 avenue des Etats Unis, 31200, Toulouse France", "lat": 43.634266, "lng": 1.430958, "ref_id": 19398489, "rating": 2.5, "num_reviews": 0, "website": "https://www.facebook.com/106358357407044", "contact_phone": "+33 6 86 30 78 76", "contact_email": "Mood.restaurant.event@gmail.com", "status": 1, "source_type": 1, "numberReviews": 24}, {"name": "Le Bar Basque", "type": "restaurant", "image": "https://dynamic-media-cdn.tripadvisor.com/media/photo-o/1b/fe/de/2a/le-bar-basque.jpg?w=1000&s=1", "address": "7 Place Saint Pierre, 31000, Toulouse France", "lat": 43.603615, "lng": 1.436255, "ref_id": 5972750, "rating": 2, "num_reviews": 0, "website": "https://www.facebook.com/lebarbasque/", "contact_phone": "+33 6 68 70 08 00", "contact_email": null, "status": 1, "source_type": 1, "numberReviews": 154}, {"name": "O'Tacos", "type": "restaurant", "image": null, "address": "18 rue Francois Longaud, 31400, Toulouse France", "lat": 43.588455, "lng": 1.443894, "ref_id": 17662408, "rating": 1, "num_reviews": 0, "website": null, "contact_phone": null, "contact_email": null, "status": 1, "source_type": 1, "numberReviews": 4}, {"name": "Sushi Shop Toulouse", "type": "restaurant", "image": "https://dynamic-media-cdn.tripadvisor.com/media/photo-o/23/71/6d/03/sushi-shop-decouvrez.jpg?w=1000&s=1", "address": "34 rue Boulbonne, 31000, Toulouse France", "lat": 43.601025, "lng": 1.448165, "ref_id": 3221338, "rating": 2, "num_reviews": 0, "website": "https://sushishop.commander1.com/c3/?tcs=2478&chn=seo-yext&src=yext&cmp=annuaires-locaux-FR&med=extnet&pub=&crtive=&vson=&fmt=&cty=FR&url=https://www.sushishop.fr/fr/restaurant/toulouse-boulbonne?utm_campaign=annuaires-locaux-FR&utm_source=seo-yext&utm_medium=extnet", "contact_phone": "+33 826 82 66 28", "contact_email": "toulouse@sushishop.fr", "status": 1, "source_type": 1, "numberReviews": 101}, {"name": "Buffalo Grill", "type": "restaurant", "image": "https://dynamic-media-cdn.tripadvisor.com/media/photo-o/1a/ee/72/8a/photo-de-profil.jpg?w=1000&s=1", "address": "4 impasse Michel Labrousse ZAC de Basso Cambo, 31100, Toulouse France", "lat": 43.5692, "lng": 1.38999, "ref_id": 7626806, "rating": 2, "num_reviews": 0, "website": "https://www.buffalo-grill.fr/nos-restaurants/toulouse-basso-cambo", "contact_phone": "+33 5 61 41 03 93", "contact_email": null, "status": 1, "source_type": 1, "numberReviews": 172}, {"name": "Domino's Pizza", "type": "restaurant", "image": "https://dynamic-media-cdn.tripadvisor.com/media/photo-o/16/e2/59/eb/logo.jpg?w=1000&s=1", "address": "163 avenue Jean Chaubet, 31500, Toulouse France", "lat": 43.60669, "lng": 1.482932, "ref_id": 12840237, "rating": 1.5, "num_reviews": 0, "website": "https://www.dominos.fr/", "contact_phone": "+33 5 61 81 02 78", "contact_email": null, "status": 1, "source_type": 1, "numberReviews": 13}, {"name": "McDonald's", "type": "restaurant", "image": "https://dynamic-media-cdn.tripadvisor.com/media/photo-o/0a/9d/28/48/mcdonald-s.jpg?w=1000&s=1", "address": "410 Avenue De Fronton, 31200, Toulouse France", "lat": 43.66146, "lng": 1.431804, "ref_id": 9779487, "rating": 2, "num_reviews": 0, "website": "https://www.facebook.com/103326337935985", "contact_phone": "+33 5 61 70 54 15", "contact_email": null, "status": 1, "source_type": 1, "numberReviews": 25}, {"name": "Pizza Angelo", "type": "restaurant", "image": "https://dynamic-media-cdn.tripadvisor.com/media/photo-o/11/3d/69/58/seating-inside-the-restaurant.jpg?w=1000&s=1", "address": "27 rue du Taur, 31000, Toulouse France", "lat": 43.60582, "lng": 1.442615, "ref_id": 6632244, "rating": 1.5, "num_reviews": 0, "website": null, "contact_phone": null, "contact_email": null, "status": 1, "source_type": 1, "numberReviews": 117}, {"name": "Les Passionn\u00e9s", "type": "restaurant", "image": null, "address": "31 bis All\u00e9e de Brienne, 31000, Toulouse France", "lat": 43.6063, "lng": 1.429727, "ref_id": 27670816, "rating": -1, "num_reviews": 0, "website": "https://les-passionnes-toulouse.fr/fr", "contact_phone": "+33 7 65 25 47 56", "contact_email": "lespassionnestoulouse@gmail.com", "status": 1, "source_type": 1, "numberReviews": 0}, {"name": "Lionel Ganard", "type": "restaurant", "image": null, "address": "99b Avenue Jean Rieux, 31500 Vieille-Toulouse, Toulouse France", "lat": 43.59506, "lng": 1.46434, "ref_id": 27328325, "rating": -1, "num_reviews": 0, "website": "https://www.facebook.com/121331708412488", "contact_phone": "+33 5 61 80 82 30", "contact_email": null, "status": 1, "source_type": 1, "numberReviews": 0}, {"name": "Columbus Caf\u00e9 & Co", "type": "restaurant", "image": "https://dynamic-media-cdn.tripadvisor.com/media/photo-o/1f/e4/b6/1a/photo-de-profil.jpg?w=1000&s=1", "address": "35 boulevard de Strasbourg, 31000, Toulouse France", "lat": 43.60834, "lng": 1.445616, "ref_id": 23586120, "rating": -1, "num_reviews": 0, "website": "http://www.columbuscafe.com/boutique/toulouse-jeanne-darc/", "contact_phone": null, "contact_email": null, "status": 1, "source_type": 1, "numberReviews": 0}, {"name": "Smoking Barrel", "type": "restaurant", "image": "https://dynamic-media-cdn.tripadvisor.com/media/photo-o/13/0b/e8/db/smoking-barrel.jpg?w=1000&s=1", "address": "5 Place Jean Diebold, 31300, Toulouse France", "lat": 43.59787, "lng": 1.430249, "ref_id": 11885603, "rating": 4.5, "num_reviews": 0, "website": "http://www.facebook.com/pg/smokingbarreltoulouse/", "contact_phone": "+33 5 34 63 12 17", "contact_email": "contact@smoking-barrel.com", "status": 1, "source_type": 1, "numberReviews": 63}, {"name": "Caffe Cotti", "type": "restaurant", "image": "https://dynamic-media-cdn.tripadvisor.com/media/photo-o/0f/9a/06/cc/20170606-132030-largejpg.jpg?w=1000&s=1", "address": "108 boulevard Silvio Trentin, 31200, Toulouse France", "lat": 43.626553, "lng": 1.4331, "ref_id": 3901843, "rating": 4, "num_reviews": 0, "website": "http://www.caffecotti.fr", "contact_phone": "+33 9 81 19 22 25", "contact_email": "caffecotti@gmail.com", "status": 1, "source_type": 1, "numberReviews": 107},