[{"name": "Ubon Tap Taste House", "type": "restaurant", "image": "https://dynamic-media-cdn.tripadvisor.com/media/photo-o/1a/78/c9/d0/img-20191229-175817-largejpg.jpg?w=1000&s=1", "address": "212, Phichitrangsan Rd Nai Mueang, Ubon Ratchathani 34000 Thailand", "lat": 15.233244, "lng": 104.85802, "ref_id": 13142224, "rating": 4, "num_reviews": 0, "website": "https://www.facebook.com/ubontaptastehouse/", "contact_phone": "+66 89 625 8200", "contact_email": null, "status": 1, "source_type": 1, "numberReviews": 8}, {"name": "Ban Ya Kaad D Cafe", "type": "restaurant", "image": "https://dynamic-media-cdn.tripadvisor.com/media/photo-o/1c/da/66/41/cafe-parks-and-gardens.jpg?w=1000&s=1", "address": "2134 Khu Lu, Trakan Phuet Phon 34130 Thailand", "lat": 15.607578, "lng": 105.03217, "ref_id": 23311055, "rating": 4.5, "num_reviews": 0, "website": "", "contact_phone": "+66 89 659 9891", "contact_email": null, "status": 1, "source_type": 1, "numberReviews": 3}, {"name": "Krua Rim Moon", "type": "restaurant", "image": "https://dynamic-media-cdn.tripadvisor.com/media/photo-o/13/e5/75/a8/krua-rim-moon.jpg?w=1000&s=1", "address": "Ratchabut Road Direkt Am River Moon, Ubon Ratchathani 34000 Thailand", "lat": 15.22688, "lng": 104.85898, "ref_id": 8712493, "rating": 4, "num_reviews": 0, "website": "https://www.facebook.com/KhruaRimMoon", "contact_phone": "+66 87 646 1854", "contact_email": null, "status": 1, "source_type": 1, "numberReviews": 9}, {"name": "Fuji Japanese Restaurant", "type": "restaurant", "image": "https://dynamic-media-cdn.tripadvisor.com/media/photo-o/0d/93/62/56/caption.jpg?w=1000&s=1", "address": "Chayangune Rd. Tesco Lotus, G Floor / F86, Ubon Ratchathani 34000 Thailand", "lat": 15.25941, "lng": 104.8466, "ref_id": 10036147, "rating": 4, "num_reviews": 0, "website": "http://www.fuji.co.th/2009/TH/home/index.php#_=_", "contact_phone": "+66 45 316 738", "contact_email": null, "status": 1, "source_type": 1, "numberReviews": 9}, {"name": "Chio Kee Restaurant", "type": "restaurant", "image": "https://dynamic-media-cdn.tripadvisor.com/media/photo-o/18/09/34/70/caption.jpg?w=1000&s=1", "address": "Khuanthani Road Nai Mueang, Ubon Ratchathani 34000 Thailand", "lat": 15.227469, "lng": 104.8585, "ref_id": 12946377, "rating": 4.5, "num_reviews": 0, "website": null, "contact_phone": null, "contact_email": null, "status": 1, "source_type": 1, "numberReviews": 6}, {"name": "Mk Restaurants", "type": "restaurant", "image": "https://dynamic-media-cdn.tripadvisor.com/media/photo-o/1a/88/1e/6d/img-20200106-160354-largejpg.jpg?w=1000&s=1", "address": "92, Soi Thamma Withi 4 1st Floor, Big C Ubon Building, Ubon Ratchathani Thailand", "lat": 15.265642, "lng": 104.84011, "ref_id": 3711817, "rating": 5, "num_reviews": 0, "website": "http://www.mkrestaurant.com", "contact_phone": "0452845545", "contact_email": null, "status": 1, "source_type": 1, "numberReviews": 5}, {"name": "Lap Pet Khonlue", "type": "restaurant", "image": "https://dynamic-media-cdn.tripadvisor.com/media/photo-o/16/aa/82/ae/lap-pet-khonlue.jpg?w=1000&s=1", "address": "Si Khai Subdistrict, Ubon Ratchathani 34000 Thailand", "lat": 15.26243, "lng": 104.8332, "ref_id": 7645670, "rating": 4.5, "num_reviews": 0, "website": null, "contact_phone": "48322233", "contact_email": null, "status": 1, "source_type": 1, "numberReviews": 6}, {"name": "Caff\u00e9 di Firenze", "type": "restaurant", "image": "https://dynamic-media-cdn.tripadvisor.com/media/photo-o/1b/2c/f2/13/cafe-di-firenze.jpg?w=1000&s=1", "address": "889 ADD Link Building, 3rd Floor Kham Yai Subdistrict, Ubon Ratchathani 34000 Thailand", "lat": 15.268877, "lng": 104.819115, "ref_id": 20266002, "rating": 5, "num_reviews": 0, "website": "http://www.facebook.com/Caffedifirenze", "contact_phone": "+66 84 888 8968", "contact_email": "di.firenze889@gmail.com", "status": 1, "source_type": 1, "numberReviews": 3}, {"name": "Rimkong Restaurant", "type": "restaurant", "image": "https://dynamic-media-cdn.tripadvisor.com/media/photo-o/11/33/3c/09/caption.jpg?w=1000&s=1", "address": "37 Klaewpradit Rd. Beside Ban Rim Khong Resort, Khong Chiam 34220 Thailand", "lat": 15.296181, "lng": 105.441956, "ref_id": 3711400, "rating": 4, "num_reviews": 0, "website": null, "contact_phone": "+66 45 351 101", "contact_email": null, "status": 1, "source_type": 1, "numberReviews": 7}, {"name": "Yayay Cafe", "type": "restaurant", "image": "https://dynamic-media-cdn.tripadvisor.com/media/photo-o/17/90/d0/91/yayay.jpg?w=1000&s=1", "address": "01 Pracha Rd, Det Udom 34160 Thailand", "lat": 14.903528, "lng": 105.07453, "ref_id": 16818447, "rating": 5, "num_reviews": 0, "website": "https://www.facebook.com/yayay.cafe/", "contact_phone": "+66 82 126 9596", "contact_email": null, "status": 1, "source_type": 1, "numberReviews": 3}, {"name": "Khaotom Ti Amnuai Chok", "type": "restaurant", "image": "https://dynamic-media-cdn.tripadvisor.com/media/photo-o/11/fa/90/2d/caption.jpg?w=1000&s=1", "address": "377-379  Suppasith Road, Nai Mueang  Subdistrict  , Mueang Ubon Ratchathani District, Ubon Ratchathani Thailand", "lat": null, "lng": null, "ref_id": 3713396, "rating": 4.5, "num_reviews": 0, "website": null, "contact_phone": "+66 45 241 809", "contact_email": null, "status": 1, "source_type": 1, "numberReviews": 5}, {"name": "The Bliss Restaurant", "type": "restaurant", "image": null, "address": "9, Soi Sukha-Uppatham 19, Sukha-Uppatham Road Nai Mueang, Ubon Ratchathani 34000 Thailand", "lat": 15.250685, "lng": 104.83868, "ref_id": 13142761, "rating": 4.5, "num_reviews": 0, "website": null, "contact_phone": "+66 45 281 919", "contact_email": "theblissubon@gmail.com", "status": 1, "source_type": 1, "numberReviews": 5}, {"name": "Chao Lay Buffet Talay Pao", "type": "restaurant", "image": null, "address": "Pracha Rat Rd., Warin Chamrap 34190 Thailand", "lat": 15.20298, "lng": 104.81421, "ref_id": 9714468, "rating": 4.5, "num_reviews": 0, "website": "https://www.facebook.com/%E0%B8%8A%E0%B8%B2%E0%B8%A7%E0%B9%80%E0%B8%A5-%E0%B8%9A%E0%B8%B8%E0%B8%9F%E0%B9%80%E0%B8%9F%E0%B9%88%E0%B8%95%E0%B9%8C%E0%B8%97%E0%B8%B0%E0%B9%80%E0%B8%A5%E0%B9%80%E0%B8%9C%E0%B8%B2-609812365702381/", "contact_phone": "+66 45 266 574", "contact_email": null, "status": 1, "source_type": 1, "numberReviews": 6}, {"name": "Guay Jub Ta Mhee", "type": "restaurant", "image": null, "address": "Yutthaphan Rd., Ubon Ratchathani 34000 Thailand", "lat": 15.22618, "lng": 104.86044, "ref_id": 9601767, "rating": 5, "num_reviews": 0, "website": null, "contact_phone": null, "contact_email": null, "status": 1, "source_type": 1, "numberReviews": 4}, {"name": "Seven Seas", "type": "restaurant", "image": "https://dynamic-media-cdn.tripadvisor.com/media/photo-o/1a/68/66/86/caption.jpg?w=1000&s=1", "address": "198 Moo 5, Soi Chapman, Tambon That, Warin Chamrap 34190 Thailand", "lat": 15.139187, "lng": 104.89479, "ref_id": 17390094, "rating": 4.5, "num_reviews": 0, "website": "https://www.facebook.com/SevenSeasWarin/", "contact_phone": "+66 66 045 8798", "contact_email": null, "status": 1, "source_type": 1, "numberReviews": 3}, {"name": "Big Ubon Breakfasts", "type": "restaurant", "image": "https://dynamic-media-cdn.tripadvisor.com/media/photo-o/2a/83/41/95/full-english-breakfast.jpg?w=1000&s=1", "address": "71 Ratbamrung Rd, Patum, Ubon Ratchathani 34000 Thailand", "lat": 15.245211, "lng": 104.87049, "ref_id": 26223118, "rating": 4.5, "num_reviews": 0, "website": null, "contact_phone": "+66 62 418 4770", "contact_email": null, "status": 1, "source_type": 1, "numberReviews": 2}, {"name": "Kuai Jab Chao Wang", "type": "restaurant", "image": null, "address": "Upparat Rd, Ubon Ratchathani Thailand", "lat": 15.22941, "lng": 104.85639, "ref_id": 10727274, "rating": 4, "num_reviews": 0, "website": null, "contact_phone": null, "contact_email": null, "status": 1, "source_type": 1, "numberReviews": 6}, {"name": "Chomjan Bar And Restaurant", "type": "restaurant", "image": "https://dynamic-media-cdn.tripadvisor.com/media/photo-o/26/f8/43/73/caption.jpg?w=1000&s=1", "address": "Kham Nam Seep Warin Chamrap District, Ubon Ratchathani, Ubon Ratchathani 34190 Thailand", "lat": 15.196356, "lng": 104.81714, "ref_id": 23963359, "rating": 3.5, "num_reviews": 0, "website": null, "contact_phone": "+66 45 950 789", "contact_email": null, "status": 1, "source_type": 1, "numberReviews": 6}, {"name": "Nap's Coffee & Roasters", "type": "restaurant", "image": "https://dynamic-media-cdn.tripadvisor.com/media/photo-o/1a/ad/e4/7d/from-the-street.jpg?w=1000&s=1", "address": "49/1 Srinarong Road, Tambon Nai Mueang, Ubon Ratchathani 34000 Thailand", "lat": 15.228807, "lng": 104.86541, "ref_id": 19929704, "rating": 5, "num_reviews": 0, "website": "http://www.facebook.com/napscoffeeroasters/", "contact_phone": "+66 97 205 9002", "contact_email": null, "status": 1, "source_type": 1, "numberReviews": 2}, {"name": "Khrua Chak Kaohat", "type": "restaurant", "image": "https://dynamic-media-cdn.tripadvisor.com/media/photo-o/0a/5e/d5/84/caption.jpg?w=1000&s=1", "address": "293 Phalo Chai Road., Ubon Ratchathani Thailand", "lat": 15.233836, "lng": 104.837814, "ref_id": 8064976, "rating": 4.5, "num_reviews": 0, "website": "http://www.facebook.com/zaabbakkak", "contact_phone": "+66 87 457 8822", "contact_email": null, "status": 1, "source_type": 1, "numberReviews": 5}, {"name": "Swensens", "type": "restaurant", "image": "https://dynamic-media-cdn.tripadvisor.com/media/photo-o/1a/85/86/42/img-20200106-181002-largejpg.jpg?w=1000&s=1", "address": "92, Soi Thammavidhi 4, Thammavidhi Rd. 1st Floor Big C, Ubon Ratchathani 34000 Thailand", "lat": 15.244845, "lng": 104.8473, "ref_id": 3744534, "rating": 4.5, "num_reviews": 0, "website": "https://www.facebook.com/swensens.bigc.ubon/", "contact_phone": "+66 1112", "contact_email": null, "status": 1, "source_type": 1, "numberReviews": 4}, {"name": "Bann Teng Steak House", "type": "restaurant", "image": "https://dynamic-media-cdn.tripadvisor.com/media/photo-o/0a/9a/25/44/beatiful-in-the-night.jpg?w=1000&s=1", "address": "6 Chayangkoor Road, Ubon Ratchathani Thailand", "lat": 15.27143, "lng": 104.84306, "ref_id": 10043452, "rating": 3.5, "num_reviews": 0, "website": "http://steakbannteng.blogspot.sg/", "contact_phone": "+66 99 072 7038", "contact_email": null, "status": 1, "source_type": 1, "numberReviews": 13}, {"name": "SP House", "type": "restaurant", "image": "https://dynamic-media-cdn.tripadvisor.com/media/photo-o/17/44/d5/87/sp-house.jpg?w=1000&s=1", "address": "76-78 Ratchabut Road, Ubon Ratchathani 34000 Thailand", "lat": 15.22577, "lng": 104.85927, "ref_id": 17376831, "rating": 5, "num_reviews": 0, "website": "https://family-restaurant-sphouse.business.site/", "contact_phone": "+66 45 254 278", "contact_email": "sphouse1989@gmail.com", "status": 1, "source_type": 1, "numberReviews": 2}, {"name": "Nobu Growing Space", "type": "restaurant", "image": "https://dynamic-media-cdn.tripadvisor.com/media/photo-o/15/a4/13/20/photo2jpg.jpg?w=1000&s=1", "address": "126, Moo 15, Changsanit Rd Kham Yai, Ubon Ratchathani 34000 Thailand", "lat": 15.267048, "lng": 104.81775, "ref_id": 15580472, "rating": 5, "num_reviews": 0, "website": "https://www.facebook.com/Nobu-Growing-space-442414269495281/", "contact_phone": "+66 89 444 8046", "contact_email": null, "status": 1, "source_type": 1, "numberReviews": 2}, {"name": "Chomchan Restaurant", "type": "restaurant", "image": null, "address": "119/1 Village No. 8, Kham Nam Saep 34190 Thailand", "lat": 15.222614, "lng": 104.87451, "ref_id": 27145716, "rating": 5, "num_reviews": 0, "website": "https://www.facebook.com/ChomjanUbon/", "contact_phone": "+66 84 477 1999", "contact_email": null, "status": 1, "source_type": 1, "numberReviews": 1}, {"name": "Ubon Ocha", "type": "restaurant", "image": "https://dynamic-media-cdn.tripadvisor.com/media/photo-o/2b/27/da/07/caption.jpg?w=1000&s=1", "address": "250 Luang Alley 250 Luang Alley, Ubon Ratchathani 34000 Thailand", "lat": 15.231597, "lng": 104.86248, "ref_id": 25166084, "rating": 5, "num_reviews": 0, "website": "https://www.facebook.com/profile.php?id=100063532901233", "contact_phone": "+66 63 434 2242", "contact_email": null, "status": 1, "source_type": 1, "numberReviews": 1}, {"name": "Stu-Fe Coffee", "type": "restaurant", "image": "https://dynamic-media-cdn.tripadvisor.com/media/photo-o/0e/60/22/0d/stu-fe-coffee.jpg?w=1000&s=1", "address": "181 Suriyart Road, Ubon Ratchathani Thailand", "lat": 15.240834, "lng": 104.877, "ref_id": 12114091, "rating": 4.5, "num_reviews": 0, "website": "https://www.facebook.com/stufecoffee/", "contact_phone": "+66 81 148 3056", "contact_email": null, "status": 1, "source_type": 1, "numberReviews": 4}, {"name": "Mae Chareang", "type": "restaurant", "image": "https://dynamic-media-cdn.tripadvisor.com/media/photo-o/2a/7f/29/f8/caption.jpg?w=1000&s=1", "address": "Thch 2413, Ubon Ratchathani 34150 Thailand", "lat": null, "lng": null, "ref_id": 26631932, "rating": 5, "num_reviews": 0, "website": "https://www.facebook.com/tudlayum2kkc?mibextid=lqqj4d", "contact_phone": "+66 95 649 9860", "contact_email": null, "status": 1, "source_type": 1, "numberReviews": 1}, {"name": "UMAYA Donburi", "type": "restaurant", "image": "https://dynamic-media-cdn.tripadvisor.com/media/photo-o/17/2f/5b/63/umaya-donburi.jpg?w=1000&s=1", "address": "332 Sappasit Road, Tambon Nai Mueang, Amphur Muang Nai Mueang, Ubon Ratchathani 34000 Thailand", "lat": 15.235798, "lng": 104.85229, "ref_id": 15801349, "rating": 4, "num_reviews": 0, "website": "https://www.facebook.com/umayadonburi/", "contact_phone": "+66 97 347 2994", "contact_email": "umayadonburi@gmail.com", "status": 1, "source_type": 1, "numberReviews": 4}, {"name": "Steak & Grill Restaurant Ubon", "type": "restaurant", "image": "https://dynamic-media-cdn.tripadvisor.com/media/photo-s/02/e1/e4/dc/menu.jpg?w=1000&s=1", "address": "713, Sukha Phattana Rd, Ubon Ratchathani 34000 Thailand", "lat": 15.27603, "lng": 104.83502, "ref_id": 3293695, "rating": 4.5, "num_reviews": 0, "website": "http://www.facebook.com/steakhouseubon", "contact_phone": "+66 86 083 2771", "contact_email": "steakhouseubon@gmail.com", "status": 1, "source_type": 1, "numberReviews": 4}, {"name": "Ricco Caf", "type": "restaurant", "image": "https://dynamic-media-cdn.tripadvisor.com/media/photo-o/1b/9d/48/1d/caption.jpg?w=1000&s=1", "address": "466 Moo 7, Ubon Ratchathani 34000 Thailand", "lat": 15.25783, "lng": 104.831276, "ref_id": 12711405, "rating": 5, "num_reviews": 0, "website": "https://www.facebook.com/RICCO-CAF-most-popular-bar-in-town-1296801730330866/", "contact_phone": "+66 86 868 7888", "contact_email": "ricco_caf@hotmail.com", "status": 1, "source_type": 1, "numberReviews": 115}, {"name": "The Outside Inn", "type": "restaurant", "image": "https://dynamic-media-cdn.tripadvisor.com/media/photo-o/04/36/3b/a4/the-outside-inn.jpg?w=1000&s=1", "address": "11 Suriyat Rd. Across From Suriyat Soi 4, Near Wat Si Pradu, Ubon Ratchathani 34000 Thailand", "lat": 15.236998, "lng": 104.87485, "ref_id": 4544011, "rating": 4.5, "num_reviews": 0, "website": "http://www.theoutsideinnubon.com", "contact_phone": "+66 88 581 2069", "contact_email": "info@theoutsideinnubon.com", "status": 1, "source_type": 1, "numberReviews": 164}, {"name": "Peppers Restaurant & Bakery", "type": "restaurant", "image": "https://dynamic-media-cdn.tripadvisor.com/media/photo-o/1a/df/23/97/front-entrance.jpg?w=1000&s=1", "address": "297/2-3 Uppalisan Rd, Ubon Ratchathani 34000 Thailand", "lat": 15.239616, "lng": 104.85554, "ref_id": 2080583, "rating": 4.5, "num_reviews": 0, "website": "http://www.peppersbakery.com/", "contact_phone": "+66 45 245 275", "contact_email": "info@peppersbakery.com", "status": 1, "source_type": 1, "numberReviews": 224}, {"name": "Spago", "type": "restaurant", "image": "https://dynamic-media-cdn.tripadvisor.com/media/photo-o/12/b1/80/58/street-view-of-spago.jpg?w=1000&s=1", "address": "Yuu hotel 179/1-4 Upparat road Tambon Nai Mueang Mueang Ratchathani, Ubon Ratchathani 34000 Thailand", "lat": 15.231859, "lng": 104.855606, "ref_id": 1531996, "rating": 4.5, "num_reviews": 0, "website": "http://www.spagoitalian.com", "contact_phone": "+66 45 900 629", "contact_email": "john@spagoitalian.com", "status": 1, "source_type": 1, "numberReviews": 184}, {"name": "Indochine - Ubon Ratchahani", "type": "restaurant", "image": "https://dynamic-media-cdn.tripadvisor.com/media/photo-o/18/4c/c7/b4/photo0jpg.jpg?w=1000&s=1", "address": "170  Next to Wat Chaeng  Sappasit Road  Nai Mueang Subdistrict Mueang Ubon Ratchathani District, Ubon Ratchathani Thailand", "lat": 15.235811, "lng": 104.85836, "ref_id": 1722858, "rating": 4, "num_reviews": 0, "website": "http://www.facebook.com/Indochinubon/", "contact_phone": "+66 45 245 584", "contact_email": null, "status": 1, "source_type": 1, "numberReviews": 115}, {"name": "The Home", "type": "restaurant", "image": "https://dynamic-media-cdn.tripadvisor.com/media/photo-o/07/42/f2/71/the-home.jpg?w=1000&s=1", "address": "166 Liang Mueang Road Nai Mueang Subdistrict, Ubon Ratchathani 34000 Thailand", "lat": 15.261608, "lng": 104.833046, "ref_id": 7067745, "rating": 4, "num_reviews": 0, "website": "http://www.thehomeubon.com", "contact_phone": "+66 45 312 222", "contact_email": null, "status": 1, "source_type": 1, "numberReviews": 50}, {"name": "Risotto", "type": "restaurant", "image": "https://dynamic-media-cdn.tripadvisor.com/media/photo-o/06/46/01/c6/second-dining-area.jpg?w=1000&s=1", "address": "Chayangkul Road, Soi 30, Ubon Ratchathani 34000 Thailand", "lat": 15.2362, "lng": 104.85431, "ref_id": 3150955, "rating": 4.5, "num_reviews": 0, "website": "", "contact_phone": "+66 86 259 5289", "contact_email": "", "status": 1, "source_type": 1, "numberReviews": 45}, {"name": "Samchai Coffee 2000", "type": "restaurant", "image": "https://dynamic-media-cdn.tripadvisor.com/media/photo-o/1a/78/c6/af/img-20191229-172852-largejpg.jpg?w=1000&s=1", "address": "56-58 Phadaeng Rd Just North of Tung Sri Muang Park, Ubon Ratchathani 34000 Thailand", "lat": 15.234933, "lng": 104.857376, "ref_id": 6637409, "rating": 4, "num_reviews": 0, "website": null, "contact_phone": "+66 45 240 241", "contact_email": null, "status": 1, "source_type": 1, "numberReviews": 35}, {"name": "Oshin", "type": "restaurant", "image": "https://dynamic-media-cdn.tripadvisor.com/media/photo-o/11/cf/10/cb/photo1jpg.jpg?w=1000&s=1", "address": "Pichitrangsan Rd, Ubon Ratchathani Thailand", "lat": 15.237349, "lng": 104.85012, "ref_id": 10727544, "rating": 4.5, "num_reviews": 0, "website": null, "contact_phone": null, "contact_email": null, "status": 1, "source_type": 1, "numberReviews": 20}, {"name": "Sabai Chai Restaurant", "type": "restaurant", "image": "https://dynamic-media-cdn.tripadvisor.com/media/photo-o/1c/82/c2/ba/caption.jpg?w=1000&s=1", "address": "Uppalisan Rd. Nai Muang Subdistrict, Ubon Ratchathani 34000 Thailand", "lat": 15.239874, "lng": 104.85054, "ref_id": 9710357, "rating": 4.5, "num_reviews": 0, "website": null, "contact_phone": "+66 45 242 581", "contact_email": null, "status": 1, "source_type": 1, "numberReviews": 23}, {"name": "Zaap Soi 9", "type": "restaurant", "image": "https://dynamic-media-cdn.tripadvisor.com/media/photo-o/16/c5/9e/48/miam.jpg?w=1000&s=1", "address": "U Park, Chayangkun Rd., Ubon Ratchathani 34000 Thailand", "lat": 15.250273, "lng": 104.859825, "ref_id": 3709582, "rating": 4, "num_reviews": 0, "website": "https://www.facebook.com/%E0%B9%81%E0%B8%8B%E0%B8%9A%E0%B8%8B%E0%B8%AD%E0%B8%A29-312449542274592/", "contact_phone": "+66 85 490 0440", "contact_email": null, "status": 1, "source_type": 1, "numberReviews": 27}, {"name": "Kuey-Jab 99", "type": "restaurant", "image": "https://dynamic-media-cdn.tripadvisor.com/media/photo-o/11/29/01/2c/caption.jpg?w=1000&s=1", "address": "97 Phichit Rangsan Road,Nai Mueang, Ubon Ratchathani Thailand", "lat": 15.233225, "lng": 104.86472, "ref_id": 4557843, "rating": 4, "num_reviews": 0, "website": "https://th-th.facebook.com/pages/%E0%B8%A3%E0%B9%89%E0%B8%B2%E0%B8%99%E0%B8%81%E0%B9%8B%E0%B8%A7%E0%B8%A2%E0%B8%88%E0%B8%B1%E0%B9%8A%E0%B8%9A-99Ubonratchathani/347160305322532", "contact_phone": "+66 45 260 424", "contact_email": null, "status": 1, "source_type": 1, "numberReviews": 36}, {"name": "Sapori Italian Restaurant", "type": "restaurant", "image": "https://dynamic-media-cdn.tripadvisor.com/media/photo-o/17/2f/ac/31/sapori-italian-restaurant.jpg?w=1000&s=1", "address": "418-420 Chaengsanit Road, Ubon Ratchathani 34000 Thailand", "lat": 15.255132, "lng": 104.83496, "ref_id": 16779680, "rating": 4.5, "num_reviews": 0, "website": "https://www.facebook.com/chaengsanit/", "contact_phone": "+66 45 994 135", "contact_email": "francesco@saporiubon.com", "status": 1, "source_type": 1, "numberReviews": 14}, {"name": "Nadia Pizza", "type": "restaurant", "image": "https://dynamic-media-cdn.tripadvisor.com/media/photo-o/1b/30/c1/ac/nadia-pizza.jpg?w=1000&s=1", "address": "Somdet Alley, Ubon Ratchathani 34000 Thailand", "lat": 15.23835, "lng": 104.87368, "ref_id": 17154657, "rating": 5, "num_reviews": 0, "website": null, "contact_phone": "+66 63 047 6735", "contact_email": null, "status": 1, "source_type": 1, "numberReviews": 10}, {"name": "Venezia Ubon", "type": "restaurant", "image": "https://dynamic-media-cdn.tripadvisor.com/media/photo-o/11/db/fb/ab/luxury-dining.jpg?w=1000&s=1", "address": "889 ADDLink Building, 1st Floor, Ubon Ratchathani 34000 Thailand", "lat": 15.268837, "lng": 104.81902, "ref_id": 13275718, "rating": 4, "num_reviews": 0, "website": "https://www.facebook.com/VeneziainUbon/", "contact_phone": "+66 82 148 8889", "contact_email": "venezia.ubon889@gmail.com", "status": 1, "source_type": 1, "numberReviews": 24}, {"name": "Wrong Way Cafe", "type": "restaurant", "image": "https://dynamic-media-cdn.tripadvisor.com/media/photo-o/07/32/32/71/pool-table.jpg?w=1000&s=1", "address": "Pha Daeng Road, Ubon Ratchathani Thailand", "lat": 15.234733, "lng": 104.857544, "ref_id": 3742973, "rating": 3.5, "num_reviews": 0, "website": "http://www.wrongwayhome.com/wrong-way-cafe", "contact_phone": null, "contact_email": null, "status": 1, "source_type": 1, "numberReviews": 47}, {"name": "Rung Roj Stew Lin", "type": "restaurant", "image": "https://dynamic-media-cdn.tripadvisor.com/media/photo-o/1a/7b/b0/e7/img-20200103-144858-largejpg.jpg?w=1000&s=1", "address": "Nakhonban Road, Ubon Ratchathani 34000 Thailand", "lat": 15.236166, "lng": 104.86078, "ref_id": 7803196, "rating": 4.5, "num_reviews": 0, "website": null, "contact_phone": "+66 45 263 155", "contact_email": null, "status": 1, "source_type": 1, "numberReviews": 13}, {"name": "Ubon Seafood", "type": "restaurant", "image": "https://dynamic-media-cdn.tripadvisor.com/media/photo-o/09/5f/27/24/caption.jpg?w=1000&s=1", "address": "33 Si Saeng Thong Road Nai Mueang, Ubon Ratchathani 34000 Thailand", "lat": 15.28715, "lng": 104.85985, "ref_id": 6554986, "rating": 4.5, "num_reviews": 0, "website": "http://www.facebook.com/ubonseafood", "contact_phone": "+66 80 729 0014", "contact_email": "dougal.lamph@gmail.com", "status": 1, "source_type": 1, "numberReviews": 14}, {"name": "Agave/Vietnam Cuisine & Caf\u00e9", "type": "restaurant", "image": "https://dynamic-media-cdn.tripadvisor.com/media/photo-o/14/1f/0c/94/img-20180727-131532-largejpg.jpg?w=1000&s=1", "address": "153 Palorangrit Road Nai Mueang, Ubon Ratchathani 34000 Thailand", "lat": 15.230347, "lng": 104.8643, "ref_id": 13837629, "rating": 5, "num_reviews": 0, "website": "https://www.facebook.com/agave.ubon/", "contact_phone": "+66 45 900 241", "contact_email": "mangkala.new@gmail.com", "status": 1, "source_type": 1, "numberReviews": 7}, {"name": "Golfer House", "type": "restaurant", "image": "https://dynamic-media-cdn.tripadvisor.com/media/photo-o/07/7d/b8/82/caption.jpg?w=1000&s=1", "address": "457, Soi Phichit Rangsan Lane, Samakkhi School area, Phichit Rangsan Rd., Nai Muang Sub-District, Mueang Ubon Ratchathani District, Ubon Ratchathani Thailand", "lat": 15.234753, "lng": 104.847435, "ref_id": 3714643, "rating": 4, "num_reviews": 0, "website": null, "contact_phone": "+66 45 261 196", "contact_email": null, "status": 1, "source_type": 1, "numberReviews": 20}, {"name": "Baan Klang Soi", "type": "restaurant", "image": null, "address": "111/60 Soi Upatham 15 Chaeng Sanit Road Nai Muang Subdistrict Mueang Ubon Ratcha Thani District, Ubon Ratchathani Thailand", "lat": 15.252971, "lng": 104.83735, "ref_id": 3715135, "rating": 4, "num_reviews": 0, "website": "http://www.baanklangsoi.com", "contact_phone": "+66 86 718 2669", "contact_email": null, "status": 1, "source_type": 1, "numberReviews": 17}, {"name": "300 Grams Butcher and Restaurant", "type": "restaurant", "image": "https://dynamic-media-cdn.tripadvisor.com/media/photo-o/17/e8/28/41/inside-the-restaurant.jpg?w=1000&s=1", "address": "68 Ratchawong Road Nai Muang, Ubon Ratchathani 34000 Thailand", "lat": 15.230106, "lng": 104.86357, "ref_id": 15106519, "rating": 4, "num_reviews": 0, "website": "http://300gramsbeef.com", "contact_phone": "+66 62 338 9938", "contact_email": "admin@300gramsbeef.com", "status": 1, "source_type": 1, "numberReviews": 14}, {"name": "Balcony Kiss", "type": "restaurant", "image": "https://dynamic-media-cdn.tripadvisor.com/media/photo-o/1a/88/1f/ce/img-20200107-183504-largejpg.jpg?w=1000&s=1", "address": "Phichitrangsan Road, Ubon Ratchathani 34000 Thailand", "lat": 15.233, "lng": 104.8623, "ref_id": 6090558, "rating": 4, "num_reviews": 0, "website": "http://www.facebook.com/pages/Balconykisscoffee/221588017977637", "contact_phone": "+66 81 549 2888", "contact_email": null, "status": 1, "source_type": 1, "numberReviews": 12}, {"name": "Bennie Burger", "type": "restaurant", "image": "https://dynamic-media-cdn.tripadvisor.com/media/photo-o/11/9c/98/8e/cheap-eats.jpg?w=1000&s=1", "address": "Thung Sri Mueang Park, Ubon Ratchathani 35000 Thailand", "lat": null, "lng": null, "ref_id": 10077937, "rating": 4.5, "num_reviews": 0, "website": null, "contact_phone": "+66 80 488 8898", "contact_email": null, "status": 1, "source_type": 1, "numberReviews": 7}, {"name": "Top Tube Bike & Cafe'", "type": "restaurant", "image": "https://dynamic-media-cdn.tripadvisor.com/media/photo-o/0f/14/b5/d4/getlstd-property-photo.jpg?w=1000&s=1", "address": "Mueng Ubon, Ubon Ratchathani 34000 Thailand", "lat": 15.232892, "lng": 104.86095, "ref_id": 12385916, "rating": 4.5, "num_reviews": 0, "website": "https://www.facebook.com/TopTubeBikeAndCafe/", "contact_phone": "+66 95 605 8389", "contact_email": "topgun_ce@hotmail.com", "status": 1, "source_type": 1, "numberReviews": 6}, {"name": "Mok", "type": "restaurant", "image": "https://dynamic-media-cdn.tripadvisor.com/media/photo-o/1a/e0/87/38/the-front-door.jpg?w=1000&s=1", "address": "115 Phrom Rat Road, Tambon Nai Mueang, Ubon Ratchathani 34000 Thailand", "lat": 15.226128, "lng": 104.8663, "ref_id": 20094336, "rating": 5, "num_reviews": 0, "website": "https://www.facebook.com/mok113myauntykitchen/", "contact_phone": "+66 96 054 2796", "contact_email": null, "status": 1, "source_type": 1, "numberReviews": 3}, {"name": "Phonthip Restaurant", "type": "restaurant", "image": "https://dynamic-media-cdn.tripadvisor.com/media/photo-o/08/f3/8e/7d/caption.jpg?w=1000&s=1", "address": "136 Sappasit Road, Ubon Ratchathani 34000 Thailand", "lat": 15.235695, "lng": 104.8677, "ref_id": 8651111, "rating": 4, "num_reviews": 0, "website": "https://www.facebook.com/Kaiyang.Prontip.Ubon.34000/timeline", "contact_phone": "+66 89 720 8101", "contact_email": "teerapong_2517@hotmail.com", "status": 1, "source_type": 1, "numberReviews": 17}, {"name": "Y'did", "type": "restaurant", "image": "https://dynamic-media-cdn.tripadvisor.com/media/photo-o/17/63/ed/ad/y-did.jpg?w=1000&s=1", "address": "78/9 Phichitrangsan Road, Ubon Ratchathani 34000 Thailand", "lat": 15.23334, "lng": 104.85777, "ref_id": 14911733, "rating": 5, "num_reviews": 0, "website": "https://www.facebook.com/Y9did/", "contact_phone": "+66 81 593 8133", "contact_email": "yoclub69@hotmail.com", "status": 1, "source_type": 1, "numberReviews": 4}, {"name": "14 Cafe'", "type": "restaurant", "image": "https://dynamic-media-cdn.tripadvisor.com/media/photo-o/1a/8f/50/66/img-20200109-175404-largejpg.jpg?w=1000&s=1", "address": "49/3, Phichitrangsan Road Nai Mueang, Ubon Ratchathani 34000 Thailand", "lat": 15.233, "lng": 104.8623, "ref_id": 13123287, "rating": 4.5, "num_reviews": 0, "website": "https://www.facebook.com/14CAFEUBONRATCHATHANI/", "contact_phone": "+66 99 146 2899", "contact_email": null, "status": 1, "source_type": 1, "numberReviews": 5}, {"name": "Cuppa Station", "type": "restaurant", "image": null, "address": "Sathit Nimarakan Road, Khong Chiam 34350 Thailand", "lat": 15.17172, "lng": 105.35191, "ref_id": 23197938, "rating": 5, "num_reviews": 0, "website": "https://www.facebook.com/CuppaStation/", "contact_phone": "+66 88 617 8819", "contact_email": "", "status": 1, "source_type": 1, "numberReviews": 3}, {"name": "Retro Steak", "type": "restaurant", "image": "https://dynamic-media-cdn.tripadvisor.com/media/photo-o/06/1d/76/f5/retro-steak.jpg?w=1000&s=1", "address": "Sukka Upatham Road, Ubon Ratchathani 34000 Thailand", "lat": 15.25347, "lng": 104.8318, "ref_id": 6819560, "rating": 2, "num_reviews": 0, "website": "https://www.facebook.com/retrosteak.ubon", "contact_phone": "+66 81 470 8325", "contact_email": null, "status": 1, "source_type": 1, "numberReviews": 1}, {"name": "Taiyo", "type": "restaurant", "image": null, "address": "541/543 Wat Sawang Arom Suppasit Road Mueang Ubon Ratcha Thani, Ubon Ratchathani Thailand", "lat": null, "lng": null, "ref_id": 3713754, "rating": -1, "num_reviews": 0, "website": null, "contact_phone": "+66 45 209 136", "contact_email": null, "status": 1, "source_type": 1, "numberReviews": 0}, {"name": "Spicy Restaurant At Ubonratchathani", "type": "restaurant", "image": "https://dynamic-media-cdn.tripadvisor.com/media/photo-o/1c/93/88/7c/that-s-amazing.jpg?w=1000&s=1", "address": "73 Chonprathan-Tha Bo Road, Ubon Ratchathani 34000 Thailand", "lat": 15.246601, "lng": 104.83161, "ref_id": 23106930, "rating": -1, "num_reviews": 0, "website": "https://website--315822462817542861133-restaurant.business.site/?utm_source=gmb&utm_medium=referral", "contact_phone": "+66 64 670 9589", "contact_email": "spicycafe63@gmail.com", "status": 1, "source_type": 1, "numberReviews": 0}, {"name": "Coffee Lecker", "type": "restaurant", "image": null, "address": "180/4 Moo 14, Kut Khaopun 34270 Thailand", "lat": 15.833383, "lng": 105.02684, "ref_id": 19812819, "rating": -1, "num_reviews": 0, "website": null, "contact_phone": "+66 99 173 3874", "contact_email": null, "status": 1, "source_type": 1, "numberReviews": 0}, {"name": "Pizza Thai (Ubon Ratchathani)", "type": "restaurant", "image": null, "address": "Front Mu Ban Sa rin 10, Ubon Ratchathani 34000 Thailand", "lat": null, "lng": null, "ref_id": 14087106, "rating": -1, "num_reviews": 0, "website": "https://www.facebook.com/Pizza-Thai-%E0%B8%AD%E0%B8%B8%E0%B8%9A%E0%B8%A5%E0%B8%A3%E0%B8%B2%E0%B8%8A%E0%B8%98%E0%B8%B2%E0%B8%99%E0%B8%B5-529974330525629/", "contact_phone": "+66 90 985 3826", "contact_email": null, "status": 1, "source_type": 1, "numberReviews": 0}, {"name": "Fugo Japanese Restaurant", "type": "restaurant", "image": null, "address": "464 Sappasit Road Tambon Nai Mueang, Ubon Ratchathani 34000 Thailand", "lat": 15.235521, "lng": 104.85392, "ref_id": 15036092, "rating": -1, "num_reviews": 0, "website": "https://www.facebook.com/FUGO-%E0%B8%A3%E0%B9%89%E0%B8%B2%E0%B8%99%E0%B8%AD%E0%B8%B2%E0%B8%AB%E0%B8%B2%E0%B8%A3%E0%B8%8D%E0%B8%B5%E0%B9%88%E0%B8%9B%E0%B8%B8%E0%B9%88%E0%B8%99%E0%B8%9F%E0%B8%B9%E0%B9%82%E0%B8%87%E0%B8%B0-1677351852486152/", "contact_phone": "+66 84 692 7207", "contact_email": "jayjay.agianapa@gmail.com", "status": 1, "source_type": 1, "numberReviews": 0}, {"name": "Ingfah Farm Cafe", "type": "restaurant", "image": "https://dynamic-media-cdn.tripadvisor.com/media/photo-o/25/1b/04/e8/ratified-gardens-and.jpg?w=1000&s=1", "address": "284 Moo 5 Nong Tao, Samrong 34360 Thailand", "lat": 15.02011, "lng": 104.77163, "ref_id": 24840870, "rating": -1, "num_reviews": 0, "website": null, "contact_phone": "+66 89 220 8854", "contact_email": "thaijb@gmail.com", "status": 1, "source_type": 1, "numberReviews": 0}, {"name": "Phet Lamphu Barbeque", "type": "restaurant", "image": null, "address": "Rural Road Ubon Ratchathani 4071, Na Yia 34160 Thailand", "lat": 15.059352, "lng": 105.05574, "ref_id": 4884435, "rating": -1, "num_reviews": 0, "website": null, "contact_phone": "+66 45 306 001", "contact_email": null, "status": 1, "source_type": 1, "numberReviews": 0}, {"name": "Maenumsongsea", "type": "restaurant", "image": null, "address": "346 Moo 1, Liap Maenam Khong, Rim Khong Road, Khong Chiam Subdistrict, Khong Chiam District, Ubon Ratchathani Thailand", "lat": null, "lng": null, "ref_id": 3712024, "rating": -1, "num_reviews": 0, "website": null, "contact_phone": "+66 45 351 070", "contact_email": null, "status": 1, "source_type": 1, "numberReviews": 0}, {"name": "Banri R\u1ea1tn", "type": "restaurant", "image": null, "address": "123 Moo 4, Ubon Ratchathani 34000 Thailand", "lat": 15.284563, "lng": 104.869385, "ref_id": 15234874, "rating": -1, "num_reviews": 0, "website": "https://www.facebook.com/%E0%B8%9A%E0%B9%89%E0%B8%B2%E0%B8%99%E0%B9%84%E0%B8%A3%E0%B9%88%E0%B8%A3%E0%B8%B1%E0%B8%95%E0%B8%99-1874788279436695/", "contact_phone": "+66 86 300 9563", "contact_email": null, "status": 1, "source_type": 1, "numberReviews": 0}, {"name": "Mk Restaurants", "type": "restaurant", "image": null, "address": "492 Chayangkun Rd, Tambon Nai Mueang Tesco Lotus Ubon Ratchathani, Floor 1, Ubon Ratchathani 34000 Thailand", "lat": 15.252876, "lng": 104.85015, "ref_id": 3710766, "rating": -1, "num_reviews": 0, "website": "http://www.mkrestaurant.com", "contact_phone": "+66452843712", "contact_email": null, "status": 1, "source_type": 1, "numberReviews": 0}, {"name": "Xenon Cocktail Bar", "type": "restaurant", "image": null, "address": "\u0e2b\u0e49\u0e2d\u0e07L106 \u0e2d\u0e32\u0e04\u0e32\u0e23\u0e27\u0e34\u0e25\u0e40\u0e25\u0e08 \u0e28\u0e39\u0e19\u0e22\u0e4c\u0e01\u0e32\u0e23\u0e04\u0e49\u0e32\u0e2d\u0e38\u0e1a\u0e25\u0e2a\u0e41\u0e04\u0e27\u0e23\u0e4c \u0e2b\u0e25\u0e31\u0e07\u0e23\u0e49\u0e32\u0e19\u0e0a\u0e32\u0e1a\u0e39\u0e42\u0e2d\u0e15\u0e30 \u0e40\u0e22\u0e37\u0e49\u0e2d\u0e07\u0e46\u0e23\u0e49\u0e32\u0e19 99 restaurant \u0e43\u0e19\u0e40\u0e21\u0e37\u0e2d\u0e07, Ubon Ratchathani 34000 Thailand", "lat": 15.269756, "lng": 104.84082, "ref_id": 24036916, "rating": -1, "num_reviews": 0, "website": null, "contact_phone": null, "contact_email": null, "status": 1, "source_type": 1, "numberReviews": 0}, {"name": "Somsuk Cafe by Vatcharaporn", "type": "restaurant", "image": "https://dynamic-media-cdn.tripadvisor.com/media/photo-o/15/7f/44/b6/getlstd-property-photo.jpg?w=1000&s=1", "address": "In front of Bua Ngam Wittaya School, Bua Ngam, Det Udom 34160 Thailand", "lat": 14.835993, "lng": 105.23293, "ref_id": 15551801, "rating": -1, "num_reviews": 0, "website": "http://www.facebook.com/vatcharapornsomsuk/", "contact_phone": "+66 86 990 9996", "contact_email": null, "status": 1, "source_type": 1, "numberReviews": 0}, {"name": "K.K\u0304\u0125\u0101w K\u0304h\u1ecb\u0300ce\u012byw Buff\u00e8t\u0312", "type": "restaurant", "image": "https://dynamic-media-cdn.tripadvisor.com/media/photo-o/1b/e3/3d/dd/caption.jpg?w=1000&s=1", "address": "14/4 Sxy S\u0304uk\u0304h\u0101 Xupt\u0304h\u1ea1mp\u0323h\u0312 9 T.n\u0131 Me\u1ee5\u0304xng, Ubon Ratchathani 34000 Thailand", "lat": null, "lng": null, "ref_id": 21250005, "rating": -1, "num_reviews": 0, "website": "https://www.facebook.com/%E0%B8%81%E0%B9%84%E0%B8%82%E0%B9%88%E0%B9%80%E0%B8%88%E0%B8%B5%E0%B8%A2%E0%B8%A7-%E0%B8%AB%E0%B8%8D%E0%B8%B4%E0%B8%87-%E0%B8%9A%E0%B8%B8%E0%B8%9F%E0%B9%80%E0%B8%9F%E0%B9%88%E0%B8%95%E0%B9%8C-111640343936171/", "contact_phone": "+66 94 584 6184", "contact_email": null, "status": 1, "source_type": 1, "numberReviews": 0}, {"name": "Kom-Kiew Restaurant", "type": "restaurant", "image": null, "address": "Sathinimankan Rd., Warin Chamrap 34190 Thailand", "lat": 15.19723, "lng": 104.89109, "ref_id": 14021650, "rating": -1, "num_reviews": 0, "website": null, "contact_phone": "+66 99 070 7099", "contact_email": null, "status": 1, "source_type": 1, "numberReviews": 0}, {"name": "Plathong", "type": "restaurant", "image": null, "address": "142/1-4  (near) Bridge on the River Moon, Khern Thani Road, Nai Mueang  Subdistrict  , Mueang Ubon Ratchathani District, Ubon Ratchathani Thailand", "lat": null, "lng": null, "ref_id": 3713547, "rating": -1, "num_reviews": 0, "website": null, "contact_phone": "+66 45 242 394", "contact_email": null, "status": 1, "source_type": 1, "numberReviews": 0}, {"name": "Cozy Cafe", "type": "restaurant", "image": null, "address": "182/2 Warin-Piboon Road Warin Chamrap District, Ubon Ratchathani 34190 Thailand", "lat": 15.195888, "lng": 104.86538, "ref_id": 20229152, "rating": -1, "num_reviews": 0, "website": "http://cozy-cafe.com/", "contact_phone": "+66 95 618 8595", "contact_email": "", "status": 1, "source_type": 1, "numberReviews": 0}, {"name": "Baan Takieng", "type": "restaurant", "image": null, "address": "170 Upleesan Road Nai Mueang Subdistrict Mueang Ubon Ratcha Thani District, Ubon Ratchathani Thailand", "lat": null, "lng": null, "ref_id": 3713485, "rating": -1, "num_reviews": 0, "website": null, "contact_phone": "+66 45 242 189", "contact_email": null, "status": 1, "source_type": 1, "numberReviews": 0}, {"name": "Delicious Restaurant", "type": "restaurant", "image": null, "address": "120 9 Down The Salung Beach, Ban Pa Kha Chum Chon, Song Khon 34340 Thailand", "lat": 15.827215, "lng": 105.34824, "ref_id": 17714022, "rating": -1, "num_reviews": 0, "website": "https://www.facebook.com/chefaoza/", "contact_phone": "+66 61 359 6155", "contact_email": null, "status": 1, "source_type": 1, "numberReviews": 0}, {"name": "Krua Aim Amm", "type": "restaurant", "image": null, "address": "29 Next to Kum Pun Silk Shop Pha Daeng Road Nai Mueang Subdistrict Mueang Ubon Ratchathaini District, Ubon Ratchathani Thailand", "lat": null, "lng": null, "ref_id": 3712887, "rating": -1, "num_reviews": 0, "website": null, "contact_phone": "+66 45 263 025", "contact_email": null, "status": 1, "source_type": 1, "numberReviews": 0}, {"name": "Soi Dog Pub & Restaurant", "type": "restaurant", "image": "https://dynamic-media-cdn.tripadvisor.com/media/photo-o/1c/a5/4a/6a/soi-dog-pub-restaurant.jpg?w=1000&s=1", "address": "941 26-27 Chayangkun Road Ubon Square Across From Big C, Ubon Ratchathani 34000 Thailand", "lat": 15.235922, "lng": 104.85466, "ref_id": 23142326, "rating": -1, "num_reviews": 0, "website": "", "contact_phone": "+66 62 665 1775", "contact_email": null, "status": 1, "source_type": 1, "numberReviews": 0}, {"name": "Jib House Restaurant", "type": "restaurant", "image": "https://dynamic-media-cdn.tripadvisor.com/media/photo-o/12/4e/9f/b9/caption.jpg?w=1000&s=1", "address": "37, Moo 16, Sathit Nimankan Road Kut Chomphu, Phibun Mangsahan 34110 Thailand", "lat": 15.23798, "lng": 105.2075, "ref_id": 13576599, "rating": -1, "num_reviews": 0, "website": "https://www.facebook.com/jibhouse555/", "contact_phone": "+66 83 460 1866", "contact_email": "pooh5_cu@hotmail.com", "status": 1, "source_type": 1, "numberReviews": 0}, {"name": "Pinto B.E.2497", "type": "restaurant", "image": null, "address": "300 Phichitrangsan Rd. Nai Mueang, Ubon Ratchathani 34000 Thailand", "lat": 15.233787, "lng": 104.853165, "ref_id": 13984721, "rating": -1, "num_reviews": 0, "website": "https://www.facebook.com/pintoubon2497/", "contact_phone": "+66 88 123 4889", "contact_email": null, "status": 1, "source_type": 1, "numberReviews": 0}, {"name": "Masuma", "type": "restaurant", "image": "https://dynamic-media-cdn.tripadvisor.com/media/photo-o/16/78/be/1a/our-cafe-store-front.jpg?w=1000&s=1", "address": "70, Phalochai Road, Ubon Ratchathani 34000 Thailand", "lat": 15.23177, "lng": 104.85215, "ref_id": 15512617, "rating": -1, "num_reviews": 0, "website": "http://Facebook.com/masumacafe", "contact_phone": "+66 81 637 3224", "contact_email": "sutinee.ltk@gmail.com", "status": 1, "source_type": 1, "numberReviews": 0}, {"name": "Nobu Growing Space", "type": "restaurant", "image": null, "address": "126, Moo 15, Srinarong Road Khamyai, Ubon Ratchathani 34000 Thailand", "lat": 15.22886, "lng": 104.8621, "ref_id": 15584757, "rating": -1, "num_reviews": 0, "website": "https://www.facebook.com/Nobu-Growing-space-442414269495281/", "contact_phone": "+66 89 444 8046", "contact_email": null, "status": 1, "source_type": 1, "numberReviews": 0}, {"name": "Kway Teow Rea Chao Phraya", "type": "restaurant", "image": "https://dynamic-media-cdn.tripadvisor.com/media/photo-o/15/6d/1d/2b/getlstd-property-photo.jpg?w=1000&s=1", "address": "Kham Yai, Ubon Ratchathani 34000 Thailand", "lat": 15.293328, "lng": 104.83765, "ref_id": 15520447, "rating": -1, "num_reviews": 0, "website": "www.facebook.com/jaoprayanoodleboat/", "contact_phone": "+66 89 630 1182", "contact_email": null, "status": 1, "source_type": 1, "numberReviews": 0}, {"name": "Sarin Coffee", "type": "restaurant", "image": null, "address": "341 Rd Sappasit Tambon Nai Mueang, Ubon Ratchathani 34000 Thailand", "lat": 15.23577, "lng": 104.85314, "ref_id": 17698580, "rating": -1, "num_reviews": 0, "website": null, "contact_phone": null, "contact_email": null, "status": 1, "source_type": 1, "numberReviews": 0}, {"name": "Tiparos", "type": "restaurant", "image": null, "address": "113  Pichit Rungson Road, Nai Mueang  Subdistrict  , Mueang Ubon Ratchathani District, Ubon Ratchathani Thailand", "lat": null, "lng": null, "ref_id": 3715337, "rating": -1, "num_reviews": 0, "website": null, "contact_phone": "+66 45 263 941", "contact_email": null, "status": 1, "source_type": 1, "numberReviews": 0}, {"name": "Kho Khon Coffee Shop", "type": "restaurant", "image": null, "address": "Nai Mueang Subdistrict, Mueang Ubon Ratchathani District., Ubon Ratchathani Thailand", "lat": null, "lng": null, "ref_id": 3744076, "rating": -1, "num_reviews": 0, "website": null, "contact_phone": null, "contact_email": null, "status": 1, "source_type": 1, "numberReviews": 0}, {"name": "SAFE HOUSE", "type": "restaurant", "image": null, "address": "Pichitrangsan Road Across from the Roasted Beef Muen Thip, Ubon Ratchathani 34000 Thailand", "lat": 15.23372, "lng": 104.86583, "ref_id": 25282156, "rating": -1, "num_reviews": 0, "website": "https://www.facebook.com/safehouse788/?show_switched_toast=0&show_invite_to_follow=0&show_switched_tooltip=0&show_podcast_settings=0&show_community_transition=0&show_community_review_changes=0&show_community_rollback=0&show_follower_visibility_disclosure=0", "contact_phone": "+66 95 431 0605", "contact_email": null, "status": 1, "source_type": 1, "numberReviews": 0}, {"name": "Phloenview Fusion Restaurant", "type": "restaurant", "image": "https://dynamic-media-cdn.tripadvisor.com/media/photo-o/19/e8/5f/23/caption.jpg?w=1000&s=1", "address": "81 Moo 1 Ban Daeng, Tambon Ban Daeng, Trakan Phuet Phon 34130 Thailand", "lat": 15.6221, "lng": 105.03085, "ref_id": 17886095, "rating": 5, "num_reviews": 0, "website": "https://phloenview-fusion-restaurant.business.site/", "contact_phone": "+66 62 376 8856", "contact_email": "phloenview981@gmail.com", "status": 1, "source_type": 1, "numberReviews": 1}, {"name": "Mum Aroi Ubon", "type": "restaurant", "image": "https://dynamic-media-cdn.tripadvisor.com/media/photo-o/02/87/f6/e8/filename-img-1353-jpg.jpg?w=1000&s=1", "address": "Soi Techno, Ubon Ratchathani 34000 Thailand", "lat": 15.244845, "lng": 104.8473, "ref_id": 3176786, "rating": 4.5, "num_reviews": 0, "website": "https://www.facebook.com/pages/category/Thai-Restaurant/%E0%B8%A3%E0%B9%89%E0%B8%B2%E0%B8%99%E0%B8%A1%E0%B8%B8%E0%B8%A1%E0%B8%AD%E0%B8%A3%E0%B9%88%E0%B8%AD%E0%B8%A2%E0%B8%AD%E0%B8%B8%E0%B8%9A%E0%B8%A5-297493326954432/", "contact_phone": "", "contact_email": "", "status": 1, "source_type": 1, "numberReviews": 3}, {"name": "Caf\u00e9 de Rinda", "type": "restaurant", "image": "https://dynamic-media-cdn.tripadvisor.com/media/photo-o/0a/12/f2/a6/cafe-de-rinda.jpg?w=1000&s=1", "address": "Sathonlamak Rd., Warin Chamrap 34190 Thailand", "lat": 15.19402, "lng": 104.866, "ref_id": 9586282, "rating": 4.5, "num_reviews": 0, "website": "http://www.facebook.com/CAFEDERINDA/", "contact_phone": null, "contact_email": null, "status": 1, "source_type": 1, "numberReviews": 2}, {"name": "Chum Restaurant", "type": "restaurant", "image": "https://dynamic-media-cdn.tripadvisor.com/media/photo-o/15/33/11/ca/logo.jpg?w=1000&s=1", "address": "436/1, Chayangkun Road Nai Mueang, Nevada Theater, 1st Floor, Ubon Ratchathani 34000 Thailand", "lat": 15.247053, "lng": 104.851166, "ref_id": 13222813, "rating": 5, "num_reviews": 0, "website": "https://www.facebook.com/chumrest/", "contact_phone": "+66 61 045 1552", "contact_email": "chum.nevada.ubon@gmail.com", "status": 1, "source_type": 1, "numberReviews": 1}, {"name": "Dream Coffee & Restaurant", "type": "restaurant", "image": "https://dynamic-media-cdn.tripadvisor.com/media/photo-o/15/1d/a7/f9/caption.jpg?w=1000&s=1", "address": "22/1 Mueang Det, Det Udom 34160 Thailand", "lat": 14.902916, "lng": 105.07327, "ref_id": 13313468, "rating": 5, "num_reviews": 0, "website": "https://www.facebook.com/coffeedreamdet/", "contact_phone": "+66 86 423 6551", "contact_email": "poi_benchaya@hotmail.com", "status": 1, "source_type": 1, "numberReviews": 1}, {"name": "Whale Jai Dee Shabu 15 Soup& 7 Jim", "type": "restaurant", "image": null, "address": "40 Phichitrangsan Rd. Close Laithong Hotel, Ubon Ratchathani 34000 Thailand", "lat": 15.233785, "lng": 104.86952, "ref_id": 15129529, "rating": 5, "num_reviews": 0, "website": null, "contact_phone": null, "contact_email": null, "status": 1, "source_type": 1, "numberReviews": 1}, {"name": "Johnny Zap Ubon Ratchathani", "type": "restaurant", "image": "https://dynamic-media-cdn.tripadvisor.com/media/photo-o/28/f7/a2/a9/caption.jpg?w=1000&s=1", "address": "Warin Chamrap 34190 Thailand", "lat": 15.219316, "lng": 104.87266, "ref_id": 25452066, "rating": 4, "num_reviews": 0, "website": "https://www.facebook.com/Johnny.LarbTom/", "contact_phone": "+66 63 330 9988", "contact_email": null, "status": 1, "source_type": 1, "numberReviews": 1}, {"name": "Ubon Homenoodle", "type": "restaurant", "image": "https://dynamic-media-cdn.tripadvisor.com/media/photo-o/12/c3/87/9d/caption.jpg?w=1000&s=1", "address": "13/ 3 Soi Thammawithi 4, Thammawithi Road Nai Mueang, Ubon Ratchathani 34000 Thailand", "lat": 15.262301, "lng": 104.84471, "ref_id": 13957757, "rating": 5, "num_reviews": 0, "website": "https://www.facebook.com/ubon.homenoodle/", "contact_phone": "+66 80 898 8893", "contact_email": "homenoodle.ubon@gmail.com", "status": 1, "source_type": 1, "numberReviews": 1}, {"name": "Ubon Vegan", "type": "restaurant", "image": "https://dynamic-media-cdn.tripadvisor.com/media/photo-o/11/75/b9/57/getlstd-property-photo.jpg?w=1000&s=1", "address": "186, Khuanthani Road Nai Mueang, Ubon Ratchathani 34000 Thailand", "lat": 15.227949, "lng": 104.86831, "ref_id": 13296581, "rating": 5, "num_reviews": 0, "website": null, "contact_phone": "+66 45 256 353", "contact_email": null, "status": 1, "source_type": 1, "numberReviews": 1}, {"name": "Boeng Tawan Restaurant", "type": "restaurant", "image": "https://dynamic-media-cdn.tripadvisor.com/media/photo-o/10/b0/c2/e0/photo0jpg.jpg?w=1000&s=1", "address": "2222 Highway, Khong Chiam 34220 Thailand", "lat": 15.326637, "lng": 105.483, "ref_id": 12899982, "rating": 5, "num_reviews": 0, "website": null, "contact_phone": "+66 45 351 418", "contact_email": null, "status": 1, "source_type": 1, "numberReviews": 1}, {"name": "Sansook Homecafe", "type": "restaurant", "image": "https://dynamic-media-cdn.tripadvisor.com/media/photo-o/10/b0/b2/14/photo0jpg.jpg?w=1000&s=1", "address": "215, Sathonlamak Road Saen Suk, Warin Chamrap 34190 Thailand", "lat": 15.161577, "lng": 104.88582, "ref_id": 12900011, "rating": 5, "num_reviews": 0, "website": "https://www.facebook.com/sansookhomecafe/", "contact_phone": "+66 83 589 9090", "contact_email": "sansookhomecafe@gmail.com", "status": 1, "source_type": 1, "numberReviews": 1}, {"name": "Namo Bistro", "type": "restaurant", "image": "https://dynamic-media-cdn.tripadvisor.com/media/photo-o/1c/98/96/42/club-sandwich.jpg?w=1000&s=1", "address": "949/1 Chayang Kun 21 Alley, Kham Yai Near Rear Of Big C, Ubon Ratchathani 34000 Thailand", "lat": 15.272426, "lng": 104.841675, "ref_id": 23126761, "rating": 4, "num_reviews": 0, "website": "http://www.facebook.com/nokliw", "contact_phone": "+66 84 328 3489", "contact_email": null, "status": 1, "source_type": 1, "numberReviews": 1}, {"name": "Phae Samran", "type": "restaurant", "image": null, "address": "Sathit Nimanan Road, Sirindhorn 34350 Thailand", "lat": 15.01115, "lng": 105.453674, "ref_id": 10122275, "rating": 5, "num_reviews": 0, "website": "https://www.facebook.com/%E0%B8%A3%E0%B9%89%E0%B8%B2%E0%B8%99%E0%B8%AD%E0%B8%B2%E0%B8%AB%E0%B8%B2%E0%B8%A3%E0%B9%81%E0%B8%9E%E0%B8%AA%E0%B8%B3%E0%B8%A3%E0%B8%B2%E0%B8%8D-%E0%B8%9E%E0%B8%B1%E0%B8%97%E0%B8%A2%E0%B8%B2%E0%B8%99%E0%B9%89%E0%B8%AD%E0%B8%A2%E0%B9%80%E0%B8%82%E0%B8%B7%E0%B9%88%E0%B8%AD%E0%B8%99%E0%B8%AA%E0%B8%B4%E0%B8%A3%E0%B8%B4%E0%B8%99%E0%B8%98%E0%B8%A3-437192019782007/", "contact_phone": "+66 87 480 7140", "contact_email": null, "status": 1, "source_type": 1, "numberReviews": 1}, {"name": "Ruenthong Restaurant", "type": "restaurant", "image": "https://dynamic-media-cdn.tripadvisor.com/media/photo-o/0d/8d/5f/9d/caption.jpg?w=1000&s=1", "address": "50 Phichitrangsan Rd, Tambon Nai Mueang Laithong Hotel, Ubon Ratchathani 34000 Thailand", "lat": 15.233814, "lng": 104.86804, "ref_id": 7193377, "rating": 4, "num_reviews": 0, "website": "http://www.laithong.com/en/restaurant.php", "contact_phone": "+66 45 264 290", "contact_email": "customer_service@laithong.com", "status": 1, "source_type": 1, "numberReviews": 2}, {"name": "Golfresourt", "type": "restaurant", "image": null, "address": "Nikkom Lamdom Noi 1, Sirindhorn 34350 Thailand", "lat": 15.229561, "lng": 105.418526, "ref_id": 21184560, "rating": 4, "num_reviews": 0, "website": "", "contact_phone": "", "contact_email": null, "status": 1, "source_type": 1, "numberReviews": 1}, {"name": "Kraw Sam Phan Bok", "type": "restaurant", "image": null, "address": "109 Tambon Lao Ngam, Pho Sai 34340 Thailand", "lat": null, "lng": null, "ref_id": 19719050, "rating": 4, "num_reviews": 0, "website": null, "contact_phone": "+66 85 026 6295", "contact_email": null, "status": 1, "source_type": 1, "numberReviews": 1}, {"name": "Steak Bar Fast and Easy", "type": "restaurant", "image": "https://dynamic-media-cdn.tripadvisor.com/media/photo-o/1a/82/49/bf/img-20200103-155906-largejpg.jpg?w=1000&s=1", "address": "Apsalean Road Nai Mueang, Ubon Ratchathani 34000 Thailand", "lat": 15.23952, "lng": 104.86066, "ref_id": 13339831, "rating": 3.5, "num_reviews": 0, "website": "https://www.facebook.com/STEAK-BAR-FastEasy-1644986782382406/", "contact_phone": "+66 93 568 2555", "contact_email": null, "status": 1, "source_type": 1, "numberReviews": 4}, {"name": "Ran Lab Klang Pa", "type": "restaurant", "image": "https://dynamic-media-cdn.tripadvisor.com/media/photo-o/17/d3/8a/4f/caption.jpg?w=1000&s=1", "address": "88 Moo 4, Ban Chan Lai Tambon Nong Khon, Ubon Ratchathani 34000 Thailand", "lat": 15.32, "lng": 104.76376, "ref_id": 17569292, "rating": 4, "num_reviews": 0, "website": "https://www.facebook.com/%E0%B8%A5%E0%B8%B2%E0%B8%9A%E0%B8%81%E0%B8%A5%E0%B8%B2%E0%B8%87%E0%B8%9B%E0%B9%88%E0%B8%B2-1177317999001965/", "contact_phone": "+66 81 063 0032", "contact_email": null, "status": 1, "source_type": 1, "numberReviews": 1}, {"name": "Pa Pa Ping", "type": "restaurant", "image": null, "address": "30 Soi Chayang Kun 12, Chayang Kun Road, Ubon Ratchathani 34000 Thailand", "lat": 15.238048, "lng": 104.85346, "ref_id": 15000380, "rating": 4, "num_reviews": 0, "website": "https://www.facebook.com/PapapingUbon/", "contact_phone": "+66 98 174 0766", "contact_email": null, "status": 1, "source_type": 1, "numberReviews": 1}, {"name": "Pleng Pin", "type": "restaurant", "image": null, "address": "177/66 Kanyarat, Khong Chiam Thailand", "lat": null, "lng": null, "ref_id": 4358288, "rating": 5, "num_reviews": 0, "website": null, "contact_phone": null, "contact_email": null, "status": 1, "source_type": 1, "numberReviews": 1}, {"name": "Phatthana Thani Restaurant", "type": "restaurant", "image": null, "address": "149, Chaeng Sanit Road Chaeramae, Ubon Ratchathani 34000 Thailand", "lat": 15.251758, "lng": 104.83863, "ref_id": 13485028, "rating": 4, "num_reviews": 0, "website": "https://www.facebook.com/%E0%B8%A3%E0%B9%89%E0%B8%B2%E0%B8%99%E0%B8%AD%E0%B8%B2%E0%B8%AB%E0%B8%B2%E0%B8%A3%E0%B8%9E%E0%B8%B1%E0%B8%97%E0%B8%A2%E0%B8%B2%E0%B8%98%E0%B8%B2%E0%B8%99%E0%B8%B5-143257129348032/", "contact_phone": "+66 81 760 3217", "contact_email": null, "status": 1, "source_type": 1, "numberReviews": 1}, {"name": "Chok Naksuep", "type": "restaurant", "image": "https://dynamic-media-cdn.tripadvisor.com/media/photo-o/11/49/4a/24/caption.jpg?w=1000&s=1", "address": "Chayangkun Road Nai Mueang, Ubon Ratchathani 34000 Thailand", "lat": 15.25625, "lng": 104.84731, "ref_id": 13142242, "rating": 4, "num_reviews": 0, "website": null, "contact_phone": null, "contact_email": null, "status": 1, "source_type": 1, "numberReviews": 1}, {"name": "Steak Heanmai", "type": "restaurant", "image": null, "address": "240 Moo 17, Tambon Rai Noi, Ubon Ratchathani 34000 Thailand", "lat": 15.179524, "lng": 104.87995, "ref_id": 12451071, "rating": 4, "num_reviews": 0, "website": "http://www.facebook.com/Steakheanmai", "contact_phone": "+66 83 100 7441", "contact_email": "tookta_u@hotmail.com", "status": 1, "source_type": 1, "numberReviews": 1}, {"name": "Penser Cafe 2", "type": "restaurant", "image": null, "address": "103 5 Ratcha Thani Rd, Tambon Nai Mueang, Ubon Ratchathani 34000 Thailand", "lat": 15.24514, "lng": 104.84872, "ref_id": 12262480, "rating": 4, "num_reviews": 0, "website": "https://www.facebook.com/Penser-caf%C3%A9-604914882944620/", "contact_phone": "+66 95 613 1837", "contact_email": null, "status": 1, "source_type": 1, "numberReviews": 1}, {"name": "Palorangsarit", "type": "restaurant", "image": "https://dynamic-media-cdn.tripadvisor.com/media/photo-o/11/df/f4/ff/caption.jpg?w=1000&s=1", "address": "65 Palorangsarit Rd, Ubon Ratchathani 34000 Thailand", "lat": 15.23114, "lng": 104.85878, "ref_id": 12208943, "rating": 4, "num_reviews": 0, "website": "https://www.facebook.com/allnewpalo/", "contact_phone": "+66 87 878 7499", "contact_email": null, "status": 1, "source_type": 1, "numberReviews": 1}, {"name": "Khanom Chin Sen Sod Samoonprai", "type": "restaurant", "image": null, "address": "34/4 soi Sukha-Uppatham, Ubon Ratchathani 34000 Thailand", "lat": 15.265097, "lng": 104.83842, "ref_id": 10001185, "rating": 4, "num_reviews": 0, "website": "https://www.facebook.com/%E0%B8%82%E0%B8%99%E0%B8%A1%E0%B8%88%E0%B8%B5%E0%B8%99%E0%B9%80%E0%B8%AA%E0%B9%89%E0%B8%99%E0%B8%AA%E0%B8%94%E0%B8%AA%E0%B8%A1%E0%B8%B8%E0%B8%99%E0%B9%84%E0%B8%9E%E0%B8%A3%E0%B8%AD%E0%B8%B8%E0%B8%9A%E0%B8%A5%E0%B8%A3%E0%B8%B2%E0%B8%8A%E0%B8%98%E0%B8%B2%E0%B8%99%E0%B8%B5-569117426524897/", "contact_phone": "+66 61 141 4514", "contact_email": null, "status": 1, "source_type": 1, "numberReviews": 1}, {"name": "Nom La Moon", "type": "restaurant", "image": null, "address": "Ivory Dormitory, Warin Chamrap 34190 Thailand", "lat": null, "lng": null, "ref_id": 9751893, "rating": 4, "num_reviews": 0, "website": null, "contact_phone": "+66 80 488 1333", "contact_email": null, "status": 1, "source_type": 1, "numberReviews": 1}, {"name": "\u0e47H 2 O Pub", "type": "restaurant", "image": null, "address": "Mueang Ubon Ratcha Thani District, Ubon Ratchathani Thailand", "lat": null, "lng": null, "ref_id": 3745126, "rating": 4, "num_reviews": 0, "website": null, "contact_phone": null, "contact_email": null, "status": 1, "source_type": 1, "numberReviews": 1}, {"name": "My Papilio", "type": "restaurant", "image": null, "address": "545, Sappasit Road Nai Mueang, Ubon Ratchathani 34000 Thailand", "lat": 15.23764, "lng": 104.85527, "ref_id": 15611996, "rating": 3, "num_reviews": 0, "website": "https://www.facebook.com/My-Papilio-1398491903699054/", "contact_phone": "+66 81 600 6460", "contact_email": null, "status": 1, "source_type": 1, "numberReviews": 2}, {"name": "Sam Chai Kai Yang", "type": "restaurant", "image": null, "address": "282-282/1 Near Thor Sang Hotel Palochai Road Nai Mueang Subdistrict Mueang Ubon Ratcha Thani District, Ubon Ratchathani Thailand", "lat": null, "lng": null, "ref_id": 3713123, "rating": 3, "num_reviews": 0, "website": null, "contact_phone": "+66 45 209 118", "contact_email": null, "status": 1, "source_type": 1, "numberReviews": 4}, {"name": "Grow Up Eatery & Farm", "type": "restaurant", "image": null, "address": "312 Khuanthani Rd Tambon Nai Mueang, Ubon Ratchathani 34000 Thailand", "lat": 15.227642, "lng": 104.85906, "ref_id": 19881161, "rating": 5, "num_reviews": 0, "website": "https://www.facebook.com/growupeateryandfarm/", "contact_phone": "+66 97 213 0680", "contact_email": "growupinterfood.th@gmail.com", "status": 1, "source_type": 1, "numberReviews": 1}, {"name": "Mellow Meat&Grill", "type": "restaurant", "image": "https://dynamic-media-cdn.tripadvisor.com/media/photo-o/12/88/b3/63/caption.jpg?w=1000&s=1", "address": "60- Chayangkun Rd - Chayang Kun 42 Nai Mueang, Ubon Ratchathani 34000 Thailand", "lat": 15.236129, "lng": 104.85412, "ref_id": 13908747, "rating": 5, "num_reviews": 0, "website": "http://mellow-meatgrill.business.site/", "contact_phone": "+66 92 919 4299", "contact_email": null, "status": 1, "source_type": 1, "numberReviews": 2}, {"name": "Ninety Nine Bar & Restaurant", "type": "restaurant", "image": null, "address": "Ubon Ratchathani 34000 Thailand", "lat": 15.269092, "lng": 104.84048, "ref_id": 13576465, "rating": 5, "num_reviews": 0, "website": "https://www.facebook.com/ninetynine99bar/", "contact_phone": "+66 89 649 6555", "contact_email": null, "status": 1, "source_type": 1, "numberReviews": 2}, {"name": "Baan Hao Lab Ped", "type": "restaurant", "image": null, "address": "58/1 Moo  15, Changsanit Road, Kharm Yai Subdistrict, Mueang Ubon Ratchathani District, Ubon Ratchathani Thailand", "lat": 15.252523, "lng": 104.8377, "ref_id": 3712116, "rating": 4.5, "num_reviews": 0, "website": null, "contact_phone": "+66 45 314 214", "contact_email": null, "status": 1, "source_type": 1, "numberReviews": 4}, {"name": "Yayoi", "type": "restaurant", "image": "https://dynamic-media-cdn.tripadvisor.com/media/photo-o/1a/7b/bc/52/img-20200102-194422-largejpg.jpg?w=1000&s=1", "address": "Floor G, 512/8 Chayangkun Rd, Ubon Ratchathani 34000 Thailand", "lat": 15.25941, "lng": 104.84661, "ref_id": 16661863, "rating": 4.5, "num_reviews": 0, "website": null, "contact_phone": null, "contact_email": null, "status": 1, "source_type": 1, "numberReviews": 2}, {"name": "\u0e3aBuono Steak", "type": "restaurant", "image": "https://dynamic-media-cdn.tripadvisor.com/media/photo-o/15/15/ac/5c/photo0jpg.jpg?w=1000&s=1", "address": "Det Udom 34160 Thailand", "lat": 14.854846, "lng": 105.079124, "ref_id": 9586268, "rating": 5, "num_reviews": 0, "website": null, "contact_phone": "+66 87 006 1400", "contact_email": null, "status": 1, "source_type": 1, "numberReviews": 2}, {"name": "Aya Steak House", "type": "restaurant", "image": "https://dynamic-media-cdn.tripadvisor.com/media/photo-o/07/03/2a/50/aya-steak-house.jpg?w=1000&s=1", "address": "108 Sukhasongkro Rd., Soi Wat Ban Na Kwai T. Kam Yai, Ubon Ratchathani 34000 Thailand", "lat": 15.26106, "lng": 104.85104, "ref_id": 7267488, "rating": 4, "num_reviews": 0, "website": null, "contact_phone": "+66 99 281 6889", "contact_email": null, "status": 1, "source_type": 1, "numberReviews": 6}, {"name": "Petch's Authentic Thai Local Food", "type": "restaurant", "image": "https://dynamic-media-cdn.tripadvisor.com/media/photo-o/1b/49/ab/99/steamed-fish-with-chilli.jpg?w=1000&s=1", "address": "68 Nakhon Ban Road Nai Mueang, Ubon Ratchathani 34000 Thailand", "lat": 15.232698, "lng": 104.86016, "ref_id": 2711402, "rating": 4.5, "num_reviews": 0, "website": "http://www.facebook.com/petchrestuarant", "contact_phone": "+66 45 256 519", "contact_email": "surachai_s@hotmail.co.uk", "status": 1, "source_type": 1, "numberReviews": 2}, {"name": "Rawangthang Handicraft", "type": "restaurant", "image": "https://dynamic-media-cdn.tripadvisor.com/media/photo-o/1a/68/79/d5/img-20191227-172735-largejpg.jpg?w=1000&s=1", "address": "301 Khuanthani Road, Ubon Ratchathani 34000 Thailand", "lat": 15.22762, "lng": 104.85775, "ref_id": 14971142, "rating": 4.5, "num_reviews": 0, "website": "https://www.facebook.com/rawangthang.shop/", "contact_phone": "+66 81 700 7013", "contact_email": "rawang_thang@hotmail.com", "status": 1, "source_type": 1, "numberReviews": 2}, {"name": "In-Cheon Bar", "type": "restaurant", "image": "https://dynamic-media-cdn.tripadvisor.com/media/photo-o/21/21/35/50/korean-food-and-drinking.jpg?w=1000&s=1", "address": "Ubon Square, Ubon Ratchathani 34000 Thailand", "lat": 15.269756, "lng": 104.84082, "ref_id": 21491252, "rating": 5, "num_reviews": 0, "website": "https://www.facebook.com/In-Cheon-Bar-%E0%B8%AD%E0%B8%B4%E0%B8%99%E0%B8%8A%E0%B8%AD%E0%B8%99-%E0%B8%9A%E0%B8%B2%E0%B8%A3%E0%B9%8C-107975357750807/", "contact_phone": "+66 88 583 7946", "contact_email": null, "status": 1, "source_type": 1, "numberReviews": 1}, {"name": "Delight88", "type": "restaurant", "image": null, "address": "12-14 Soi Chayangkul 3, Chayangkul Road Nai Muang Subdistrict, Ubon Ratchathani 34000 Thailand", "lat": 15.266593, "lng": 104.84519, "ref_id": 8866332, "rating": 4.5, "num_reviews": 0, "website": "http://www.facebook.com/Delight88", "contact_phone": "+66 45 954 588", "contact_email": null, "status": 1, "source_type": 1, "numberReviews": 4}, {"name": "Hip 28", "type": "restaurant", "image": "https://dynamic-media-cdn.tripadvisor.com/media/photo-o/0a/ad/f9/d9/cool-nights-in-a-hot.jpg?w=1000&s=1", "address": "328/25 Moo 8 Somdet Road Soi 28, Ubon Ratchathani 34000 Thailand", "lat": 15.2445, "lng": 104.89324, "ref_id": 9826859, "rating": 5, "num_reviews": 0, "website": "https://www.facebook.com/HIP28", "contact_phone": "+66 99 823 5324", "contact_email": null, "status": 1, "source_type": 1, "numberReviews": 3}, {"name": "Myhomeubon", "type": "restaurant", "image": "https://dynamic-media-cdn.tripadvisor.com/media/photo-o/2b/0e/fd/38/thai-isaan-restaurant.jpg?w=1000&s=1", "address": "224/1 Moo 15 Kham Yai Subdistrict, Ubon Ratchathani 34000 Thailand", "lat": 15.31435, "lng": 104.83136, "ref_id": 10388661, "rating": 3.5, "num_reviews": 0, "website": "https://www.facebook.com/myhomeubon", "contact_phone": "+66 87 330 0333", "contact_email": "ubonmyhome@gmail.com", "status": 1, "source_type": 1, "numberReviews": 5}, {"name": "Sahapochana", "type": "restaurant", "image": "https://dynamic-media-cdn.tripadvisor.com/media/photo-o/11/aa/1b/79/getlstd-property-photo.jpg?w=1000&s=1", "address": "1/1, Wiphak Road Phibun, Phibun Mangsahan 34110 Thailand", "lat": 15.246476, "lng": 105.24255, "ref_id": 13355188, "rating": 5, "num_reviews": 0, "website": "https://www.facebook.com/Sahapochana.k", "contact_phone": "+66 86 138 3322", "contact_email": "bizwithu999@gmail.com", "status": 1, "source_type": 1, "numberReviews": 1}, {"name": "Pizza Pa Proun", "type": "restaurant", "image": "https://dynamic-media-cdn.tripadvisor.com/media/photo-o/1b/8d/4a/5b/lovely-clean-eating-area.jpg?w=1000&s=1", "address": "Main Street, Trakan Phuet Phon Thailand", "lat": 15.61288, "lng": 105.026115, "ref_id": 21056499, "rating": 5, "num_reviews": 0, "website": "", "contact_phone": "+66 65 743 1978", "contact_email": null, "status": 1, "source_type": 1, "numberReviews": 1}, {"name": "Khong Chiam Restaurant", "type": "restaurant", "image": "https://dynamic-media-cdn.tripadvisor.com/media/photo-o/03/84/f2/7a/khong-chiam-restaurant.jpg?w=1000&s=1", "address": "Khaewpradit, Khong Chiam Thailand", "lat": 15.23259, "lng": 104.84721, "ref_id": 3859458, "rating": 4, "num_reviews": 0, "website": "www.khongchiam.net", "contact_phone": null, "contact_email": null, "status": 1, "source_type": 1, "numberReviews": 4}, {"name": "Santi Phochana", "type": "restaurant", "image": "https://dynamic-media-cdn.tripadvisor.com/media/photo-o/1a/62/bd/1a/caption.jpg?w=1000&s=1", "address": "101-17 Chawalanok Rd, Tambon Nai Mueang, Ubon Ratchathani 34000 Thailand", "lat": 15.233914, "lng": 104.84653, "ref_id": 19758271, "rating": 4, "num_reviews": 0, "website": "https://www.facebook.com/SantiPhochana/", "contact_phone": "+66 45 240 233", "contact_email": null, "status": 1, "source_type": 1, "numberReviews": 2}, {"name": "Bua Dang Det Udom", "type": "restaurant", "image": "https://dynamic-media-cdn.tripadvisor.com/media/photo-o/0c/d1/18/b0/bua-dang-det-udom.jpg?w=1000&s=1", "address": "23 Moo 14 Pon-asa Rd, Det Udom 34160 Thailand", "lat": 15.155474, "lng": 105.00363, "ref_id": 10802784, "rating": 4.5, "num_reviews": 0, "website": null, "contact_phone": "+(66)9615150630", "contact_email": null, "status": 1, "source_type": 1, "numberReviews": 2}, {"name": "Ma-Nee Ban Suan", "type": "restaurant", "image": "https://dynamic-media-cdn.tripadvisor.com/media/photo-o/1b/d5/72/1f/caption.jpg?w=1000&s=1", "address": "223 M.6, Khueang Nai 34150 Thailand", "lat": 15.380012, "lng": 104.57548, "ref_id": 21204887, "rating": 5, "num_reviews": 0, "website": "https://www.facebook.com/pages/category/Restaurant/Ma-Nee-Bansuan-%E0%B8%A1%E0%B8%93%E0%B8%B5%E0%B8%9A%E0%B9%89%E0%B8%B2%E0%B8%99%E0%B8%AA%E0%B8%A7%E0%B8%99-2349431595337361/", "contact_phone": "+66 45 959 231", "contact_email": null, "status": 1, "source_type": 1, "numberReviews": 1}, {"name": "BaansuanHugmom", "type": "restaurant", "image": "https://dynamic-media-cdn.tripadvisor.com/media/photo-o/0e/2f/8e/21/caption.jpg?w=1000&s=1", "address": "72 Suka Uppatham 9, Ubon Ratchathani 34000 Thailand", "lat": 15.28868, "lng": 104.84228, "ref_id": 11871708, "rating": 4.5, "num_reviews": 0, "website": "https://www.facebook.com/BaansuanHugmom-280388525652457/?hc_location=ufi", "contact_phone": "+66 94 532 9455", "contact_email": null, "status": 1, "source_type": 1, "numberReviews": 2}, {"name": "Nam Ya Poo Ran Nua Khao Nua Sen", "type": "restaurant", "image": null, "address": "97/2 Soi Chayangkul 40, Chayangkul Rd, Ubon Ratchathani Thailand", "lat": 15.260933, "lng": 104.84581, "ref_id": 10727279, "rating": 4, "num_reviews": 0, "website": "https://www.facebook.com/%E0%B8%99%E0%B9%89%E0%B8%B3%E0%B8%A2%E0%B8%B2%E0%B8%9B%E0%B8%B9-%E0%B8%A3%E0%B9%89%E0%B8%B2%E0%B8%99%E0%B8%99%E0%B8%B1%E0%B8%A7%E0%B8%82%E0%B9%89%E0%B8%B2%E0%B8%A7-%E0%B8%99%E0%B8%B1%E0%B8%A7%E0%B9%80%E0%B8%AA%E0%B9%89%E0%B8%99-503857159786885/", "contact_phone": "+66 93 778 2780", "contact_email": null, "status": 1, "source_type": 1, "numberReviews": 3}, {"name": "Papilio", "type": "restaurant", "image": "https://dynamic-media-cdn.tripadvisor.com/media/photo-o/1a/bc/d9/54/photo0jpg.jpg?w=1000&s=1", "address": "Niwat Withi Road, Tambon Kham Nam Saep, Warin Chamrap 34190 Thailand", "lat": 15.19521, "lng": 104.86649, "ref_id": 19507411, "rating": 5, "num_reviews": 0, "website": null, "contact_phone": "+66 61 871 8716", "contact_email": null, "status": 1, "source_type": 1, "numberReviews": 1}, {"name": "Oshinei Ubon", "type": "restaurant", "image": "https://dynamic-media-cdn.tripadvisor.com/media/photo-o/1a/91/66/b5/received-789344314903474.jpg?w=1000&s=1", "address": "94 Chawalanai Rd, Tambon Nai Mueang, Ubon Ratchathani 34000 Thailand", "lat": 15.237252, "lng": 104.850235, "ref_id": 19857901, "rating": 5, "num_reviews": 0, "website": "https://www.facebook.com/oshineiubon/?rf=1419866371608281", "contact_phone": "+66 45 241 111", "contact_email": null, "status": 1, "source_type": 1, "numberReviews": 1}, {"name": "Oishi Ramen", "type": "restaurant", "image": "https://dynamic-media-cdn.tripadvisor.com/media/photo-o/1a/85/7e/5c/img-20200106-160219-largejpg.jpg?w=1000&s=1", "address": "512/8 Chayangkun Road Tambon Nai Mueang Sunee Tower Ubon, Ubon Ratchathani 34000 Thailand", "lat": 15.270235, "lng": 104.84297, "ref_id": 3711305, "rating": 5, "num_reviews": 0, "website": "http://www.oishigroup.com", "contact_phone": "+66 45 315 407", "contact_email": null, "status": 1, "source_type": 1, "numberReviews": 1}, {"name": "Coffee Lecker", "type": "restaurant", "image": "https://dynamic-media-cdn.tripadvisor.com/media/photo-o/1a/7a/35/de/live-music-in-the-evening.jpg?w=1000&s=1", "address": "180/4 Village No. 14, Kut Khaopun 34270 Thailand", "lat": null, "lng": null, "ref_id": 19801558, "rating": 5, "num_reviews": 0, "website": null, "contact_phone": "+66 99 173 3874", "contact_email": null, "status": 1, "source_type": 1, "numberReviews": 1}, {"name": "Somtum Jinda", "type": "restaurant", "image": "https://dynamic-media-cdn.tripadvisor.com/media/photo-o/1a/8f/de/76/img-20200109-174935-largejpg.jpg?w=1000&s=1", "address": "63/1 Pichit Rangsan Road, Ubon Ratchathani 34000 Thailand", "lat": 15.23445, "lng": 104.84926, "ref_id": 14914185, "rating": 4, "num_reviews": 0, "website": "https://www.facebook.com/Somtum-Jinda-571057999645203/?rf=795794920454765", "contact_phone": "+66 45 255 223", "contact_email": null, "status": 1, "source_type": 1, "numberReviews": 2}, {"name": "Three Trees Cafe", "type": "restaurant", "image": null, "address": "244 Tumbon Nakham, Si Mueang Mai 34250 Thailand", "lat": 15.48766, "lng": 105.27796, "ref_id": 18314907, "rating": 5, "num_reviews": 0, "website": "https://www.facebook.com/Three-Trees-Cafe-1155622341287652/", "contact_phone": null, "contact_email": null, "status": 1, "source_type": 1, "numberReviews": 1}, {"name": "Makinne Bakery", "type": "restaurant", "image": "https://dynamic-media-cdn.tripadvisor.com/media/photo-o/1a/7b/bf/25/img-20200103-142401-largejpg.jpg?w=1000&s=1", "address": "22, Nakhonban Road Nai Mueang, Ubon Ratchathani 34000 Thailand", "lat": 15.23907, "lng": 104.86097, "ref_id": 16646023, "rating": 4, "num_reviews": 0, "website": "https://www.facebook.com/MakinneBakeryUbon/", "contact_phone": "+66 95 619 3126", "contact_email": null, "status": 1, "source_type": 1, "numberReviews": 2}, {"name": "Madam Hueng", "type": "restaurant", "image": "https://dynamic-media-cdn.tripadvisor.com/media/photo-o/19/35/62/1d/fb-img-1568231681919.jpg?w=1000&s=1", "address": "89/1 Phalochai Rd Tambon Nai Mueang, Ubon Ratchathani 34000 Thailand", "lat": 15.2326, "lng": 104.84617, "ref_id": 17754611, "rating": 4.5, "num_reviews": 0, "website": "https://www.facebook.com/MadamHueng/", "contact_phone": "+66 85 566 5425", "contact_email": null, "status": 1, "source_type": 1, "numberReviews": 3}, {"name": "The Palazzo Khemarat", "type": "restaurant", "image": "https://dynamic-media-cdn.tripadvisor.com/media/photo-o/0c/49/b2/6f/kao-pad-american.jpg?w=1000&s=1", "address": "Liang Mueang Rd, Khemmarat 34170 Thailand", "lat": 16.038649, "lng": 105.22277, "ref_id": 10626369, "rating": 4.5, "num_reviews": 0, "website": "http://www.facebook.com/ThePalazzoKhemarat", "contact_phone": "+66 85 860 3107", "contact_email": "rittchun@gmail.com", "status": 1, "source_type": 1, "numberReviews": 3}, {"name": "Baan Ingsuan", "type": "hotel", "image": null, "address": "Kham Khwang, Warin Chamrap 34190 Thailand", "lat": 15.175434, "lng": 104.89578, "ref_id": 15140355, "rating": -1, "num_reviews": 0, "website": null, "contact_phone": null, "contact_email": null, "status": 1, "source_type": 1, "numberReviews": 0}, {"name": "Lomthong Place", "type": "hotel", "image": null, "address": "49/1 Tessaban 1 Road, Warin Chamrap 34190 Thailand", "lat": 15.19713, "lng": 104.86711, "ref_id": 13799911, "rating": -1, "num_reviews": 0, "website": null, "contact_phone": null, "contact_email": null, "status": 1, "source_type": 1, "numberReviews": 0}, {"name": "Farmesland Resort & Spa", "type": "hotel", "image": null, "address": "135 Moo 6 Ubon-Sisaket Rd, Huai Khayung 34310 Thailand", "lat": 15.113073, "lng": 104.6816, "ref_id": 26666855, "rating": -1, "num_reviews": 0, "website": null, "contact_phone": "+66 45 251 428", "contact_email": null, "status": 1, "source_type": 1, "numberReviews": 0}, {"name": "VIP Resort", "type": "hotel", "image": "https://dynamic-media-cdn.tripadvisor.com/media/partner/bookingcom/photo-o/1b/2f/70/9e/5608077.jpg?w=1000&s=1", "address": "341 Hmu 12, Kut Lat 34000 Thailand", "lat": 15.251546, "lng": 104.90171, "ref_id": 20098201, "rating": -1, "num_reviews": 0, "website": null, "contact_phone": "+66 89 846 1874", "contact_email": null, "status": 1, "source_type": 1, "numberReviews": 0}, {"name": "Sudachat Resort", "type": "hotel", "image": null, "address": "337 M. 9, Kut Lat 34000 Thailand", "lat": 15.271717, "lng": 104.91523, "ref_id": 26681507, "rating": -1, "num_reviews": 0, "website": "https://www.facebook.com/profile.php?id=100087249821701", "contact_phone": "+66 98 221 8086", "contact_email": null, "status": 1, "source_type": 1, "numberReviews": 0}, {"name": "We by Samkwan", "type": "hotel", "image": null, "address": "3/2 Bangsaen Sai 4 Tai Road, Saen Suk 20130 Thailand", "lat": 13.286483, "lng": 100.92835, "ref_id": 25569950, "rating": -1, "num_reviews": 0, "website": null, "contact_phone": null, "contact_email": null, "status": 1, "source_type": 1, "numberReviews": 0}, {"name": "Baan Saen Rak Apartment", "type": "hotel", "image": null, "address": "Satonmark Km 2 Road 478/7, Saen Suk Thailand", "lat": 15.17909, "lng": 104.86905, "ref_id": 20905154, "rating": -1, "num_reviews": 0, "website": null, "contact_phone": null, "contact_email": null, "status": 1, "source_type": 1, "numberReviews": 0}, {"name": "JB Resort", "type": "hotel", "image": null, "address": "84 M. 15, Khan Rai 34350 Thailand", "lat": 15.172089, "lng": 105.35115, "ref_id": 20412161, "rating": -1, "num_reviews": 0, "website": null, "contact_phone": null, "contact_email": null, "status": 1, "source_type": 1, "numberReviews": 0}, {"name": "Meecheewa Garden Resort", "type": "hotel", "image": null, "address": "56/11 Nongloengna Village Tumbon Bungmalang, Tha Chang 34190 Thailand", "lat": 15.200573, "lng": 105.026634, "ref_id": 21370924, "rating": -1, "num_reviews": 0, "website": null, "contact_phone": "+66 99 265 9194", "contact_email": null, "status": 1, "source_type": 1, "numberReviews": 0}, {"name": "Waranon House", "type": "hotel", "image": null, "address": "90/1 Soi Chayangkoon 42, Kham Yai Thailand", "lat": 15.273647, "lng": 104.840744, "ref_id": 20901088, "rating": -1, "num_reviews": 0, "website": null, "contact_phone": null, "contact_email": null, "status": 1, "source_type": 1, "numberReviews": 0}, {"name": "Most Family 9", "type": "hotel", "image": null, "address": "599/9 Supalia Bella Chayangkul-Kam Yai Muang, Kham Yai 34000 Thailand", "lat": 15.290848, "lng": 104.85355, "ref_id": 27454004, "rating": -1, "num_reviews": 0, "website": null, "contact_phone": "+66 89 422 5444", "contact_email": null, "status": 1, "source_type": 1, "numberReviews": 0}, {"name": "Metta Residence", "type": "hotel", "image": null, "address": "15 Moo 23 Sukhasongkhro Road, Kham Yai 34000 Thailand", "lat": 15.261983, "lng": 104.855286, "ref_id": 27476478, "rating": -1, "num_reviews": 0, "website": "https://mettapartment.com", "contact_phone": "+1966519749", "contact_email": "mettapartment@gmail.com", "status": 1, "source_type": 1, "numberReviews": 0}, {"name": "3P Resort and Hotel", "type": "hotel", "image": null, "address": "80 Mu. 20 Ubon-trakal Road, Kham Yai 34000 Thailand", "lat": 15.282337, "lng": 104.868385, "ref_id": 20056218, "rating": -1, "num_reviews": 0, "website": null, "contact_phone": "+66 81 321 9342", "contact_email": null, "status": 1, "source_type": 1, "numberReviews": 0}, {"name": "Baan Kiatprawut Family", "type": "hotel", "image": null, "address": "Ubon 2 Road, Kham Yai 34000 Thailand", "lat": 15.27678, "lng": 104.85548, "ref_id": 25414435, "rating": -1, "num_reviews": 0, "website": null, "contact_phone": "+66 82 202 6168", "contact_email": null, "status": 1, "source_type": 1, "numberReviews": 0}, {"name": "Baanpak Pha Taem Resort and Krua Je Mon", "type": "hotel", "image": null, "address": "64 Moo 7, Huay Pai, Khonhjiam, Ban Huai Phai 34220 Thailand", "lat": 15.402878, "lng": 105.48648, "ref_id": 11966052, "rating": -1, "num_reviews": 0, "website": null, "contact_phone": null, "contact_email": null, "status": 1, "source_type": 1, "numberReviews": 0}, {"name": "JC Resort", "type": "hotel", "image": null, "address": "347 M. 2, Khu Lu 34130 Thailand", "lat": 15.614681, "lng": 105.03391, "ref_id": 19186023, "rating": -1, "num_reviews": 0, "website": "https://jc-resort.business.site/", "contact_phone": "+66 84 236 4191", "contact_email": null, "status": 1, "source_type": 1, "numberReviews": 0}, {"name": "Liew Sai Resort", "type": "hotel", "image": null, "address": "260 Moo. 4 Tambon Chae Ramae, Amphoe Mueang, Ubon Ratchathani 34000 Thailand", "lat": 15.284914, "lng": 104.86862, "ref_id": 15043705, "rating": -1, "num_reviews": 0, "website": null, "contact_phone": "+66 83 101 6363", "contact_email": null, "status": 1, "source_type": 1, "numberReviews": 0}, {"name": "The Laguna Rest", "type": "hotel", "image": null, "address": "Hauy Wang Nong Road, Ubon Ratchathani 34000 Thailand", "lat": 15.24247, "lng": 104.87845, "ref_id": 11870453, "rating": -1, "num_reviews": 0, "website": null, "contact_phone": null, "contact_email": null, "status": 1, "source_type": 1, "numberReviews": 0}, {"name": "Bararin Resort", "type": "hotel", "image": null, "address": "71 Moo 2, Kut Ya Luan, Trakan Phuet Phon, Ubon Ratchathani 34130 Thailand", "lat": 15.726105, "lng": 105.02826, "ref_id": 13200624, "rating": -1, "num_reviews": 0, "website": null, "contact_phone": null, "contact_email": null, "status": 1, "source_type": 1, "numberReviews": 0}, {"name": "Sansuk Resort 2", "type": "hotel", "image": null, "address": "M.1 Sansuk Varin 555/5, Ubon Ratchathani Thailand", "lat": 15.228686, "lng": 104.85642, "ref_id": 20906123, "rating": -1, "num_reviews": 0, "website": null, "contact_phone": null, "contact_email": null, "status": 1, "source_type": 1, "numberReviews": 0}, {"name": "Chorchaipruk Guest House", "type": "hotel", "image": null, "address": "26 Soi.Side of Warin5.,M.20.,T.Sansook.,A.Warinchamrap, Warinchamrap, Ubon Ratchathani 34190 Thailand", "lat": 15.17164, "lng": 104.85849, "ref_id": 3792669, "rating": -1, "num_reviews": 0, "website": null, "contact_phone": null, "contact_email": null, "status": 1, "source_type": 1, "numberReviews": 0}, {"name": "Rabiengdao Place Resort", "type": "hotel", "image": null, "address": "Rieb Huai Wang Nong Road 39, Ubon Ratchathani Thailand", "lat": 15.252719, "lng": 104.88456, "ref_id": 20906097, "rating": -1, "num_reviews": 0, "website": null, "contact_phone": null, "contact_email": null, "status": 1, "source_type": 1, "numberReviews": 0}, {"name": "Rosenie Resort", "type": "hotel", "image": null, "address": "259 Moo 5 Tambon Rai Noi, Amphoe Mueang, Ubon Ratchathani 34000 Thailand", "lat": 15.28833, "lng": 104.83367, "ref_id": 14990802, "rating": -1, "num_reviews": 0, "website": null, "contact_phone": "+66 82 331 3409", "contact_email": null, "status": 1, "source_type": 1, "numberReviews": 0}, {"name": "Changton Residence", "type": "hotel", "image": null, "address": "216 Suriyatra Rd., Ubon Ratchathani Thailand", "lat": 15.237535, "lng": 104.85625, "ref_id": 1202010, "rating": -1, "num_reviews": 0, "website": null, "contact_phone": "", "contact_email": "", "status": 1, "source_type": 1, "numberReviews": 0}, {"name": "Baan RomDee Sirinthorn", "type": "hotel", "image": null, "address": "House number 287, Village No. 2, Ubon Ratchathani 34350 Thailand", "lat": null, "lng": null, "ref_id": 27496874, "rating": -1, "num_reviews": 0, "website": null, "contact_phone": "+66 86 386 2029", "contact_email": null, "status": 1, "source_type": 1, "numberReviews": 0}, {"name": "Rinrada Place Hotel", "type": "hotel", "image": null, "address": "33 Soi Chayang Kun 2 Tambon Nai Mueang, Amphoe Mueang, Ubon Ratchathani 34000 Thailand", "lat": 15.247616, "lng": 104.85357, "ref_id": 13569433, "rating": -1, "num_reviews": 0, "website": null, "contact_phone": null, "contact_email": null, "status": 1, "source_type": 1, "numberReviews": 0}, {"name": "Buasod Home", "type": "hotel", "image": null, "address": "2 Thnn Su Ri Yatr Ban Du T. Ni Meuxng, Ubon Ratchathani 34000 Thailand", "lat": 15.237182, "lng": 104.8762, "ref_id": 19802481, "rating": -1, "num_reviews": 0, "website": "https://www.facebook.com/pages/category/Hotel-Resort/Buasod-Home-665333470574559/", "contact_phone": "+66 91 832 5381", "contact_email": null, "status": 1, "source_type": 1, "numberReviews": 0}, {"name": "Toobs Hostel", "type": "hotel", "image": "https://dynamic-media-cdn.tripadvisor.com/media/partner/bookingcom/photo-o/19/b1/5c/85/3754907.jpg?w=1000&s=1", "address": "3, Soi Thamma Withi 15 Tambol Naimuang, Muang, Ubon Ratchathani 34000 Thailand", "lat": 15.26097, "lng": 104.83381, "ref_id": 15116873, "rating": -1, "num_reviews": 0, "website": null, "contact_phone": null, "contact_email": null, "status": 1, "source_type": 1, "numberReviews": 0}, {"name": "Nantanakan Mansion", "type": "hotel", "image": null, "address": "465 Moo 1 Klang Awut Road, T. Kham Yai Muang, Ubon Ratchathani 34000 Thailand", "lat": 15.271538, "lng": 104.82137, "ref_id": 3308629, "rating": -1, "num_reviews": 0, "website": null, "contact_phone": null, "contact_email": null, "status": 1, "source_type": 1, "numberReviews": 0}, {"name": "Wangnong Resort", "type": "hotel", "image": null, "address": "30 Sri Saengthong Rd T Naimaung, Ubon Ratchathani 34000 Thailand", "lat": 15.250615, "lng": 104.884476, "ref_id": 23274316, "rating": -1, "num_reviews": 0, "website": null, "contact_phone": "+66 94 291 5419", "contact_email": null, "status": 1, "source_type": 1, "numberReviews": 0}, {"name": "Centara Ubon", "type": "hotel", "image": "https://dynamic-media-cdn.tripadvisor.com/media/photo-o/2c/04/f4/66/01-deluxe-1.jpg?w=1000&s=1", "address": "355, Jaeramae, Ubon Ratchathani 34000 Thailand", "lat": 15.242116, "lng": 104.82344, "ref_id": 25084475, "rating": 4.5, "num_reviews": 0, "website": "https://www.centarahotelsresorts.com/centara/cub", "contact_phone": "+66 45 319 556", "contact_email": "cub@chr.co.th", "status": 1, "source_type": 1, "numberReviews": 128}, {"name": "V Hotel Ubon Ratchathani", "type": "hotel", "image": "https://dynamic-media-cdn.tripadvisor.com/media/photo-o/07/f2/6b/fe/v-hotel-ubon-ratchathani.jpg?w=1000&s=1", "address": "63 Cheangsanit Road Nai Muang Subdistrict, Ubon Ratchathani 34000 Thailand", "lat": 15.248725, "lng": 104.842026, "ref_id": 8092038, "rating": 4, "num_reviews": 0, "website": "http://www.vhotelthailand.com", "contact_phone": "+66 45 285 757", "contact_email": "vhotelubon@gmail.com", "status": 1, "source_type": 1, "numberReviews": 67}, {"name": "Sunee Grand Hotel", "type": "hotel", "image": "https://dynamic-media-cdn.tripadvisor.com/media/photo-o/11/29/26/b2/caption.jpg?w=1000&s=1", "address": "512/8 Chayangkul Road, Ubon Ratchathani 34000 Thailand", "lat": 15.256707, "lng": 104.84843, "ref_id": 1553431, "rating": 4, "num_reviews": 0, "website": "http://www.suneegrandhotel.com/", "contact_phone": "+66 45 283 999", "contact_email": "reservation@suneegrandhotel.com", "status": 1, "source_type": 1, "numberReviews": 285}, {"name": "Pen Ta Hug Hotel", "type": "hotel", "image": "https://dynamic-media-cdn.tripadvisor.com/media/photo-o/1a/93/b6/57/img-20200111-180705-largejpg.jpg?w=1000&s=1", "address": "13 Soi Sukha Uppatham 9, Muang Ubon, Ubon Ratchathani 34000 Thailand", "lat": 15.250287, "lng": 104.83509, "ref_id": 2614929, "rating": 4, "num_reviews": 0, "website": null, "contact_phone": "+66 85 311 6088", "contact_email": "penta.hug@hotmail.com", "status": 1, "source_type": 1, "numberReviews": 78}, {"name": "B2 Ubon Hotel", "type": "hotel", "image": "https://dynamic-media-cdn.tripadvisor.com/media/photo-o/19/70/e3/ee/img-20190928-164015-largejpg.jpg?w=1000&s=1", "address": "131 Liang Muang Road, Ubon Ratchathani 34000 Thailand", "lat": 15.250786, "lng": 104.82783, "ref_id": 12545405, "rating": 4.5, "num_reviews": 0, "website": "https://www.facebook.com/B2Ubon/", "contact_phone": "+66 45 950 909", "contact_email": "info@b2hotel.com", "status": 1, "source_type": 1, "numberReviews": 16}, {"name": "Tohsang Heritage Ubonratchathani Hotel", "type": "hotel", "image": "https://dynamic-media-cdn.tripadvisor.com/media/photo-o/1f/14/68/25/10-situated-in-the-heart.jpg?w=1000&s=1", "address": "251 Palochai Road, Ubon Ratchathani 34000 Thailand", "lat": 15.23254, "lng": 104.84519, "ref_id": 658685, "rating": 4, "num_reviews": 0, "website": "https://www.facebook.com/TohsangUbonHotel", "contact_phone": "6645-245531-9", "contact_email": "info@tohsang.com", "status": 1, "source_type": 1, "numberReviews": 112}, {"name": "Excella Hotel", "type": "hotel", "image": "https://dynamic-media-cdn.tripadvisor.com/media/photo-o/0a/b4/ac/da/caption.jpg?w=1000&s=1", "address": "66/1 Soi Chayangkul 34 Soi 40, 10 Juction, Ubon Ratchathani 34000 Thailand", "lat": 15.268115, "lng": 104.84945, "ref_id": 6840407, "rating": 4.5, "num_reviews": 0, "website": "http://www.excellahotel.com", "contact_phone": "+66 96 629 6493", "contact_email": "info@excellahotel.com", "status": 1, "source_type": 1, "numberReviews": 43}, {"name": "The Bliss Ubon", "type": "hotel", "image": "https://dynamic-media-cdn.tripadvisor.com/media/photo-o/1a/88/40/c7/the-bliss-ubon.jpg?w=1000&s=1", "address": "9, Soi Sukha-Uppatham 19, Sukha-Uppatham Road Nai Mueang, Ubon Ratchathani 34000 Thailand", "lat": 15.251629, "lng": 104.8312, "ref_id": 8527054, "rating": 4.5, "num_reviews": 0, "website": "http://www.theblissubon.com/en/", "contact_phone": "+66 45 281 919", "contact_email": "theblissubon@gmail.com", "status": 1, "source_type": 1, "numberReviews": 137}, {"name": "Rapeepan Ville Hotel", "type": "hotel", "image": "https://dynamic-media-cdn.tripadvisor.com/media/photo-s/02/ea/84/48/rapeepan-ville-hotel.jpg?w=1000&s=1", "address": "9 Sukha Uppatham Soi 11,Sukha Uppatham Rd,Nai Mueang, Ubon Ratchathani 34000 Thailand", "lat": 15.251219, "lng": 104.834236, "ref_id": 2441313, "rating": 4.5, "num_reviews": 0, "website": "http://hilarity.hlbnb.tw/index.htm", "contact_phone": "+66 45 312 841", "contact_email": "rapeepanvillhotelubon@windowslive.com", "status": 1, "source_type": 1, "numberReviews": 86}, {"name": "Yuu Hotel & Cafe", "type": "hotel", "image": "https://dynamic-media-cdn.tripadvisor.com/media/photo-o/2a/97/05/6d/caption.jpg?w=1000&s=1", "address": "179/1-4 Upparat Rd., Ubon Ratchathani 34000 Thailand", "lat": 15.232287, "lng": 104.855415, "ref_id": 4346314, "rating": 4.5, "num_reviews": 0, "website": "https://www.facebook.com/yuuhotelandcafe", "contact_phone": "+66 85 614 1111", "contact_email": "yuuhotel@gmail.com", "status": 1, "source_type": 1, "numberReviews": 56}, {"name": "HOP INN Ubon Ratchathani", "type": "hotel", "image": "https://dynamic-media-cdn.tripadvisor.com/media/photo-o/15/d8/8e/6d/hop-inn-ubon-ratchathani.jpg?w=1000&s=1", "address": "263 Moo 1 Chaeramae Sub District, Ubon Ratchathani 34000 Thailand", "lat": 15.28764, "lng": 104.83379, "ref_id": 7650522, "rating": 4, "num_reviews": 0, "website": "https://www.hopinnhotel.com/our-hotels/hop-inn-ubon-ratchathani", "contact_phone": "+66 2 659 2899", "contact_email": "info@hopinnhotel.com", "status": 1, "source_type": 1, "numberReviews": 19}, {"name": "De Lit Hotel", "type": "hotel", "image": "https://dynamic-media-cdn.tripadvisor.com/media/photo-o/0f/46/5e/9a/20170511-095231-largejpg.jpg?w=1000&s=1", "address": "51 Soi Chayang Kun 22, Ubon Ratchathani 34000 Thailand", "lat": 15.263275, "lng": 104.84762, "ref_id": 9996962, "rating": 4.5, "num_reviews": 0, "website": null, "contact_phone": "+66 81 900 7287", "contact_email": null, "status": 1, "source_type": 1, "numberReviews": 26}, {"name": "APlus Hotel Ubonrajchatani", "type": "hotel", "image": "https://dynamic-media-cdn.tripadvisor.com/media/photo-o/0c/aa/ae/c4/caption.jpg?w=1000&s=1", "address": "48 Soi 12 Chayangkun Road A. Muang, Ubon Ratchathani 34000 Thailand", "lat": 15.253261, "lng": 104.85586, "ref_id": 5319944, "rating": 3.5, "num_reviews": 0, "website": "https://www.facebook.com/APLUSHOTEL/", "contact_phone": "+66 45 284 888", "contact_email": null, "status": 1, "source_type": 1, "numberReviews": 11}, {"name": "Eco Inn Ubon Ratchathani", "type": "hotel", "image": "https://dynamic-media-cdn.tripadvisor.com/media/photo-o/12/7d/06/1c/eco-inn-ubon-ratchathani.jpg?w=1000&s=1", "address": "152 Srinarong Road, Ubon Ratchathani 34000 Thailand", "lat": 15.228879, "lng": 104.86234, "ref_id": 8356881, "rating": 4, "num_reviews": 0, "website": "http://www.ecoinnhotelthailand.com", "contact_phone": "+66 45 254 200", "contact_email": "ecoinn_ubon@gmail.com", "status": 1, "source_type": 1, "numberReviews": 22}, {"name": "T3 House", "type": "hotel", "image": "https://dynamic-media-cdn.tripadvisor.com/media/photo-o/0e/b1/14/ba/photo6jpg.jpg?w=1000&s=1", "address": "1/1 Soi Sapphasit 1, Sapphasit Rd. Nai Mueang, Ubon Ratchathani 34000 Thailand", "lat": 15.235111, "lng": 104.85992, "ref_id": 3659709, "rating": 4, "num_reviews": 0, "website": "http://www.facebook.com/T3HouseUbon", "contact_phone": "+66 45 244 911", "contact_email": "t3house.ubon@gmail.com", "status": 1, "source_type": 1, "numberReviews": 132}, {"name": "Thosawan Resort", "type": "hotel", "image": "https://dynamic-media-cdn.tripadvisor.com/media/photo-o/16/2f/c0/2f/for-more-people.jpg?w=1000&s=1", "address": "743, Moo. 1, Khong Chiam 34220 Thailand", "lat": 15.316012, "lng": 105.49918, "ref_id": 13237986, "rating": 4.5, "num_reviews": 0, "website": null, "contact_phone": null, "contact_email": null, "status": 1, "source_type": 1, "numberReviews": 6}, {"name": "Laithong Hotel", "type": "hotel", "image": "https://dynamic-media-cdn.tripadvisor.com/media/photo-o/0d/8a/fe/e9/caption.jpg?w=1000&s=1", "address": "50 Pichitrungsun Road, Amphur Muang, Ubon Ratchathani 34000 Thailand", "lat": 15.233748, "lng": 104.86807, "ref_id": 645672, "rating": 3.5, "num_reviews": 0, "website": "http://www.sawadee.com/hotel/isan/laithong/", "contact_phone": "+66 45 264 290", "contact_email": "", "status": 1, "source_type": 1, "numberReviews": 87}, {"name": "Chatsuree Boutique Resort", "type": "hotel", "image": "https://dynamic-media-cdn.tripadvisor.com/media/partner/bookingcom/photo-o/1a/8e/ef/30/livingroom.jpg?w=1000&s=1", "address": "232 Tanon Khlang Awut, Tambon Kham Yai Ban Na Kham, Ubon Ratchathani 34000 Thailand", "lat": 15.279197, "lng": 104.83152, "ref_id": 12923490, "rating": 3, "num_reviews": 0, "website": null, "contact_phone": null, "contact_email": null, "status": 1, "source_type": 1, "numberReviews": 1}, {"name": "De Proud Hotel", "type": "hotel", "image": "https://dynamic-media-cdn.tripadvisor.com/media/photo-o/0f/f3/d2/77/caption.jpg?w=1000&s=1", "address": "42/4 Soi Chayangkun 40, Chayangkun Road Nai Maung Subdistrict, Ubon Ratchathani 34000 Thailand", "lat": 15.271575, "lng": 104.84653, "ref_id": 8556063, "rating": 4, "num_reviews": 0, "website": "https://www.facebook.com/deproudhotel/", "contact_phone": "+66 95 620 1919", "contact_email": "deproudhotel@gmail.com", "status": 1, "source_type": 1, "numberReviews": 10}, {"name": "Saabpaiboon Grand Resort", "type": "hotel", "image": "https://dynamic-media-cdn.tripadvisor.com/media/partner/bookingcom/photo-o/29/31/53/1f/caption.jpg?w=1000&s=1", "address": "99 Moo23, Ubon Ratchathani 34160 Thailand", "lat": 14.901712, "lng": 105.063255, "ref_id": 5509841, "rating": 3, "num_reviews": 0, "website": null, "contact_phone": null, "contact_email": null, "status": 1, "source_type": 1, "numberReviews": 1}, {"name": "The Regent Ubon", "type": "hotel", "image": "https://dynamic-media-cdn.tripadvisor.com/media/photo-o/0f/e7/c0/fb/high-value-room.jpg?w=1000&s=1", "address": "265 - 271 Chayangkul Rd., Muang, Ubon Ratchathani 34000 Thailand", "lat": 15.241944, "lng": 104.85218, "ref_id": 1405117, "rating": 3, "num_reviews": 0, "website": "", "contact_phone": "+66 45 262 920", "contact_email": "reservations.regentubon@gmail.com", "status": 1, "source_type": 1, "numberReviews": 22}, {"name": "Bluemoon Riverside Resort Ubon Ratchathani", "type": "hotel", "image": "https://dynamic-media-cdn.tripadvisor.com/media/photo-o/0e/2f/c9/29/modern-cottage.jpg?w=1000&s=1", "address": "250 Moo 5 Ban Khan Lum Tambon Sai Mun, Phibun Mangsahan 34110 Thailand", "lat": 15.29261, "lng": 105.34641, "ref_id": 12033023, "rating": 4, "num_reviews": 0, "website": "https://www.facebook.com/bluemoonriverside", "contact_phone": "+66 62 904 4441", "contact_email": "info@bluemoonriverside.com", "status": 1, "source_type": 1, "numberReviews": 17}, {"name": "The Goose Cafe And Hostel Ubon", "type": "hotel", "image": "https://dynamic-media-cdn.tripadvisor.com/media/photo-o/12/63/e8/77/photo1jpg.jpg?w=1000&s=1", "address": "19 Sapphasit soi10, Ubon Ratchathani Thailand", "lat": 15.238328, "lng": 104.84414, "ref_id": 7856035, "rating": 4.5, "num_reviews": 0, "website": null, "contact_phone": null, "contact_email": null, "status": 1, "source_type": 1, "numberReviews": 22}, {"name": "Suwi Coco Ville Resort", "type": "hotel", "image": "https://dynamic-media-cdn.tripadvisor.com/media/photo-o/13/51/50/ef/suwi-coco-boutique-resort.jpg?w=1000&s=1", "address": "512 Moo 16 Rainoi, Ubon Ratchathani 34000 Thailand", "lat": 15.299044, "lng": 104.88908, "ref_id": 12950303, "rating": 5, "num_reviews": 0, "website": "https://www.facebook.com/suwicoco/", "contact_phone": "+66 85 228 0798", "contact_email": null, "status": 1, "source_type": 1, "numberReviews": 2}, {"name": "Luck Esan Loft", "type": "hotel", "image": "https://dynamic-media-cdn.tripadvisor.com/media/photo-o/14/e7/92/1c/front-loft.jpg?w=1000&s=1", "address": "6, Soi Chayankun 9, Chayangkun Road Nai-Muang, Ubon Ratchathani 34000 Thailand", "lat": 15.254454, "lng": 104.847404, "ref_id": 15009063, "rating": 5, "num_reviews": 0, "website": "http://www.luckesanloft.com", "contact_phone": "+66 62 629 2597", "contact_email": "luckesanloft@gmail.com", "status": 1, "source_type": 1, "numberReviews": 1}, {"name": "Arista Hotel Ubon", "type": "hotel", "image": "https://dynamic-media-cdn.tripadvisor.com/media/photo-o/1a/98/2f/a5/arista-hotel-ubon.jpg?w=1000&s=1", "address": "11/1 Soi Chayangkun 40, Tambon Nai Mueang, Ubon Ratchathani 34000 Thailand", "lat": 15.272154, "lng": 104.84348, "ref_id": 19857160, "rating": 4.5, "num_reviews": 0, "website": "http://www.facebook.com/AristaHotelUbon/", "contact_phone": "+66 45 953 955", "contact_email": "aristahotelubon@gmail.com", "status": 1, "source_type": 1, "numberReviews": 7}, {"name": "Future Place Mansion", "type": "hotel", "image": "https://dynamic-media-cdn.tripadvisor.com/media/photo-o/0b/c5/d0/34/getlstd-property-photo.jpg?w=1000&s=1", "address": "436 Pichitrangsan Road Nai Muang Subdistrict, Ubon Ratchathani 34000 Thailand", "lat": 15.234284, "lng": 104.85254, "ref_id": 10492617, "rating": 4, "num_reviews": 0, "website": "http://futureplacemansion.wordpress.com/", "contact_phone": "+66 45 240 353", "contact_email": "aey1666@gmail.com", "status": 1, "source_type": 1, "numberReviews": 1}, {"name": "Tokyo Hotel", "type": "hotel", "image": "https://dynamic-media-cdn.tripadvisor.com/media/photo-o/0a/07/b0/ae/tokyo-hotel.jpg?w=1000&s=1", "address": "360 Upparat Rd., Ubon Ratchathani 34000 Thailand", "lat": 15.234373, "lng": 104.85513, "ref_id": 3539328, "rating": 3.5, "num_reviews": 0, "website": null, "contact_phone": "+66 45 241 739", "contact_email": null, "status": 1, "source_type": 1, "numberReviews": 10}, {"name": "Mini-Golf & Resort Ubon Ratchathani", "type": "hotel", "image": "https://dynamic-media-cdn.tripadvisor.com/media/photo-o/0c/b0/79/1a/our-pool.jpg?w=1000&s=1", "address": "219 Moo 6 Amphoe Warin-Tambon Nong Kin Pehn, Warin Chamrap 34190 Thailand", "lat": 15.206621, "lng": 104.79082, "ref_id": 2085140, "rating": 2.5, "num_reviews": 0, "website": "http://www.minigolfubon.sitew.in", "contact_phone": "+66 84 549 9266", "contact_email": null, "status": 1, "source_type": 1, "numberReviews": 16}, {"name": "Waen Petch Place", "type": "hotel", "image": "https://dynamic-media-cdn.tripadvisor.com/media/photo-o/09/1b/db/fd/caption.jpg?w=1000&s=1", "address": "339/1 Kantharalak Rd, Warin Chamrap 34190 Thailand", "lat": 15.188478, "lng": 104.859604, "ref_id": 8113284, "rating": 2, "num_reviews": 0, "website": null, "contact_phone": "+66 85 827 8728", "contact_email": null, "status": 1, "source_type": 1, "numberReviews": 3}, {"name": "168 Studio Hotel Ubonratchathani", "type": "hotel", "image": null, "address": "Chaeng Sanit Road Village No. 1, Ubon Ratchathani 34000 Thailand", "lat": 15.248903, "lng": 104.841606, "ref_id": 27537943, "rating": -1, "num_reviews": 0, "website": "https://www.facebook.com/168studioubon/", "contact_phone": "+66 63 750 3311", "contact_email": "168studio.hotel@gmail.com", "status": 1, "source_type": 1, "numberReviews": 0}, {"name": "Bua Boutique Hotel", "type": "hotel", "image": null, "address": "179/1-4 Aupparat Rd, Ubon Ratchathani 34000 Thailand", "lat": 15.2323, "lng": 104.856, "ref_id": 24135794, "rating": -1, "num_reviews": 0, "website": null, "contact_phone": null, "contact_email": null, "status": 1, "source_type": 1, "numberReviews": 0}, {"name": "Asean Resort", "type": "hotel", "image": null, "address": "House No.292, House Khumklan,Bung Mai Warin, Ubon Ratchathani 34190 Thailand", "lat": 15.21059, "lng": 104.9178, "ref_id": 24833679, "rating": -1, "num_reviews": 0, "website": null, "contact_phone": null, "contact_email": null, "status": 1, "source_type": 1, "numberReviews": 0}, {"name": "Palanchai Hemp Accomodation", "type": "hotel", "image": null, "address": "587 M.10 Nonkor , Sirindhon Ban Palanchai, Ubon Ratchathani 34350 Thailand", "lat": 15.01115, "lng": 105.453674, "ref_id": 25130674, "rating": -1, "num_reviews": 0, "website": null, "contact_phone": "+61 432 393 012", "contact_email": "katlockie@gmail.com", "status": 1, "source_type": 1, "numberReviews": 0}, {"name": "Nap At Mun", "type": "hotel", "image": null, "address": "324 Prommarat Rd, Ubon Ratchathani 34000 Thailand", "lat": 15.22617, "lng": 104.86238, "ref_id": 17522565, "rating": -1, "num_reviews": 0, "website": "https://napatmun.business.site/", "contact_phone": "+66 81 470 2850", "contact_email": null, "status": 1, "source_type": 1, "numberReviews": 0}, {"name": "Thapani Apartment", "type": "hotel", "image": null, "address": "Chayangkoon Road 1/1 Soi Chayangkoon10, Ubon Ratchathani Thailand", "lat": 15.258676, "lng": 104.852554, "ref_id": 20905008, "rating": -1, "num_reviews": 0, "website": null, "contact_phone": null, "contact_email": null, "status": 1, "source_type": 1, "numberReviews": 0}, {"name": "Loginn Hotel", "type": "hotel", "image": null, "address": "86/6-8 Phalorangrit Road, T. Nai Muang, Ubon Ratchathani 34000 Thailand", "lat": 15.232498, "lng": 104.87497, "ref_id": 11865971, "rating": -1, "num_reviews": 0, "website": "http://www.loginn.world/", "contact_phone": "+66 45 255 909", "contact_email": "Booking.loginnhotel@gmail.com", "status": 1, "source_type": 1, "numberReviews": 0}, {"name": "Rim Mool Riverside Hotel", "type": "hotel", "image": null, "address": "646 Moo 1 T. Khongjiam, Ubon Ratchathani 34220 Thailand", "lat": 15.313617, "lng": 105.49777, "ref_id": 3916091, "rating": -1, "num_reviews": 0, "website": null, "contact_phone": null, "contact_email": null, "status": 1, "source_type": 1, "numberReviews": 0},