[{"name": "Prime Station", "type": "restaurant", "image": null, "address": "5147 Washington Street West, Cross Lanes, WV 25313", "lat": 38.42035, "lng": -81.7894, "ref_id": 13337655, "rating": 3, "num_reviews": 0, "website": "https://prime-station.com/", "contact_phone": "+1 681-217-2013", "contact_email": "primestation5147@gmail.com", "status": 1, "source_type": 1, "numberReviews": 2}, {"name": "Tudor's Biscuit World", "type": "restaurant", "image": "https://dynamic-media-cdn.tripadvisor.com/media/photo-o/09/b2/ba/d3/tudor-s-biscuit-world.jpg?w=1000&s=1", "address": "10501 Maccorkle Ave, Marmet, WV 25315-1967", "lat": 38.24102, "lng": -81.56117, "ref_id": 3905437, "rating": 3, "num_reviews": 0, "website": "http://www.tudorsbiscuitworld.com/", "contact_phone": "+1 304-949-2088", "contact_email": "contact@tudorsbiscuitworld.com", "status": 1, "source_type": 1, "numberReviews": 19}, {"name": "Logan's Roadhouse", "type": "restaurant", "image": "https://dynamic-media-cdn.tripadvisor.com/media/photo-o/10/08/42/c6/photo0jpg.jpg?w=1000&s=1", "address": "201 R H L Blvd, Charleston, WV 25309-8267", "lat": 38.327824, "lng": -81.714165, "ref_id": 4433832, "rating": 3, "num_reviews": 0, "website": "https://logansroadhouse.com/locations/us/wv/charleston/201-rhl-boulevard/", "contact_phone": "+13047444833", "contact_email": null, "status": 1, "source_type": 1, "numberReviews": 71}, {"name": "Larobi's Pizza", "type": "restaurant", "image": null, "address": "500 Gateway Rd, Charleston, WV 25309", "lat": 38.315674, "lng": -81.70139, "ref_id": 25441210, "rating": 3, "num_reviews": 0, "website": null, "contact_phone": "+1 304-744-6480", "contact_email": null, "status": 1, "source_type": 1, "numberReviews": 1}, {"name": "Shoney's", "type": "restaurant", "image": "https://dynamic-media-cdn.tripadvisor.com/media/photo-o/2c/79/d9/2d/caption.jpg?w=1000&s=1", "address": "3600 Maccorkle Ave SE, Charleston, WV 25304-1422", "lat": 38.32844, "lng": -81.59631, "ref_id": 419838, "rating": 3, "num_reviews": 0, "website": "https://www.shoneys.com/", "contact_phone": "+1 304-925-2127", "contact_email": "", "status": 1, "source_type": 1, "numberReviews": 28}, {"name": "Long John Silver's", "type": "restaurant", "image": null, "address": "9109 Maccorkle Ave Se, Charleston, WV 25315-2025", "lat": 38.247, "lng": -81.56863, "ref_id": 4612886, "rating": 3, "num_reviews": 0, "website": "https://www.ljsilvers.com/?y_source=1_MTc1NzI3MzgtNzY5LWxvY2F0aW9uLndlYnNpdGU%3D", "contact_phone": "+1 304-949-4339", "contact_email": "ljs31445@ljsilvers.com", "status": 1, "source_type": 1, "numberReviews": 5}, {"name": "Wok & Roll", "type": "restaurant", "image": null, "address": "200 Patrick St Ste B, Charleston, WV 25387-2511", "lat": 38.36838, "lng": -81.667, "ref_id": 419840, "rating": 3, "num_reviews": 0, "website": null, "contact_phone": "+1 304-344-8861", "contact_email": "", "status": 1, "source_type": 1, "numberReviews": 6}, {"name": "Starbucks", "type": "restaurant", "image": null, "address": "3320 Maccorkle Ave SE, Charleston, WV 25304-1333", "lat": 38.35425, "lng": -81.72585, "ref_id": 17850966, "rating": 3, "num_reviews": 0, "website": "https://www.starbucks.com/", "contact_phone": "+1 304-342-1124", "contact_email": null, "status": 1, "source_type": 1, "numberReviews": 2}, {"name": "Gino's Pizza & Spaghetti House", "type": "restaurant", "image": "https://dynamic-media-cdn.tripadvisor.com/media/photo-o/11/89/aa/bf/photo2jpg.jpg?w=1000&s=1", "address": "3405 Kanawha Blvd E, Malden, WV 25306-6626", "lat": 38.31321, "lng": -81.55968, "ref_id": 419931, "rating": 3, "num_reviews": 0, "website": "http://ginospizza.com/", "contact_phone": "+1 304-925-0103", "contact_email": "", "status": 1, "source_type": 1, "numberReviews": 9}, {"name": "McDonald's", "type": "restaurant", "image": null, "address": "6400 Sissonville Dr, Charleston, WV 25312-9499", "lat": 38.47677, "lng": -81.670364, "ref_id": 5106054, "rating": 3.5, "num_reviews": 0, "website": "https://www.mcdonalds.com/us/en-us/location/wv/charleston/6400-sissonville-drive/14438.html?cid=rf%3ayxt%3aron%3a%3aclicks%3fcid%3drf%3ayxt%3afb%3a%3aclicks", "contact_phone": "+1 304-984-1640", "contact_email": null, "status": 1, "source_type": 1, "numberReviews": 3}, {"name": "Gino's Pizza & Spaghetti House", "type": "restaurant", "image": null, "address": "647 Washington St W, Charleston, WV 25302-2037", "lat": 38.365334, "lng": -81.64658, "ref_id": 419915, "rating": 3.5, "num_reviews": 0, "website": "http://ginospizza.com/", "contact_phone": "+1 304-343-7691", "contact_email": "", "status": 1, "source_type": 1, "numberReviews": 6}, {"name": "Gino's Pizza & Spaghetti House", "type": "restaurant", "image": null, "address": "1500 Washington St E, Charleston, WV 25311-2506", "lat": 38.34376, "lng": -81.6226, "ref_id": 419905, "rating": 3, "num_reviews": 0, "website": "http://ginospizza.com/", "contact_phone": "+1 304-346-0561", "contact_email": "", "status": 1, "source_type": 1, "numberReviews": 11}, {"name": "McDonald's", "type": "restaurant", "image": null, "address": "5448 Big Tyler Rd, Cross Lanes, WV 25313-1146", "lat": 38.42694, "lng": -81.78521, "ref_id": 3148872, "rating": 3, "num_reviews": 0, "website": "https://www.mcdonalds.com/us/en-us/location/wv/cross-lanes/5448-big-tyler-rd/12531.html?cid=rf%3ayxt%3aron%3a%3aclicks%3fcid%3drf%3ayxt%3afb%3a%3aclicks", "contact_phone": "+13047766985", "contact_email": null, "status": 1, "source_type": 1, "numberReviews": 4}, {"name": "Chipotle Mexican Grill", "type": "restaurant", "image": null, "address": "2811 Mountaineer Blvd, Charleston, WV 25309", "lat": 38.31856, "lng": -81.71871, "ref_id": 12315560, "rating": 3, "num_reviews": 0, "website": "https://locations.chipotle.com/wv/charleston/2811-mountaineer-blvd?utm_source=extendednetwork&utm_medium=yext&utm_campaign=yext_listings", "contact_phone": "+1 681-265-9444", "contact_email": "WV.2467.CorridorG@chipotle.com", "status": 1, "source_type": 1, "numberReviews": 5}, {"name": "KFC", "type": "restaurant", "image": "https://dynamic-media-cdn.tripadvisor.com/media/photo-o/1a/1d/6b/91/kfc.jpg?w=1000&s=1", "address": "2 Trace Fork Blvd, Charleston, WV 25309-8280", "lat": 38.332935, "lng": -81.71245, "ref_id": 4635752, "rating": 2.5, "num_reviews": 0, "website": "https://locations.kfc.com/wv/south-charleston/2-trace-fork-boulevard", "contact_phone": "+1 304-744-9550", "contact_email": null, "status": 1, "source_type": 1, "numberReviews": 5}, {"name": "7-Eleven", "type": "restaurant", "image": null, "address": "4929 Maccorkle Ave SE, Charleston, WV 25304-2053", "lat": 38.31911, "lng": -81.57827, "ref_id": 13843064, "rating": 2, "num_reviews": 0, "website": "http://www.7-eleven.com/?yext=35910", "contact_phone": "+1 304-925-2008", "contact_email": null, "status": 1, "source_type": 1, "numberReviews": 1}, {"name": "Burger King", "type": "restaurant", "image": null, "address": "2 Riverwalk Plaza, South Charleston, WV 25303", "lat": 38.364536, "lng": -81.708824, "ref_id": 15249504, "rating": 2, "num_reviews": 0, "website": "https://burgerking.com/store-locator/store/restaurant_3,577", "contact_phone": "+1 304-744-3428", "contact_email": "bk6300@amplergroup.com", "status": 1, "source_type": 1, "numberReviews": 1}, {"name": "7-Eleven", "type": "restaurant", "image": null, "address": "1630 Washington St E, Charleston, WV 25311-2100", "lat": 38.33981, "lng": -81.61469, "ref_id": 13845957, "rating": 2, "num_reviews": 0, "website": "http://www.7-eleven.com/?yext=35904", "contact_phone": "+1 304-342-7679", "contact_email": null, "status": 1, "source_type": 1, "numberReviews": 1}, {"name": "McDonald's", "type": "restaurant", "image": null, "address": "6414 MacCorkle Ave SE, Charleston, WV 25304-2920", "lat": 38.305294, "lng": -81.56282, "ref_id": 15265748, "rating": 2, "num_reviews": 0, "website": "https://www.mcdonalds.com/us/en-us/location/wv/charleston/6414-maccorkle-ave-se/11645.html?cid=rf%3ayxt%3aron%3a%3aclicks%3fcid%3drf%3ayxt%3afb%3a%3aclicks", "contact_phone": "+1 304-925-0147", "contact_email": null, "status": 1, "source_type": 1, "numberReviews": 1}, {"name": "Bob Evans", "type": "restaurant", "image": "https://dynamic-media-cdn.tripadvisor.com/media/photo-o/1c/bc/4e/98/bob-evans.jpg?w=1000&s=1", "address": "101 Alex Ln, Charleston, WV 25304-2971", "lat": 38.306473, "lng": -81.56391, "ref_id": 3297058, "rating": 3, "num_reviews": 0, "website": "https://www.bobevans.com/locations/kanawha-city?utm_source=facebook&utm_medium=local&utm_campaign=54-kanawha-city-wv", "contact_phone": "+1 304-925-2223", "contact_email": "Unit.0054@bobevans.com", "status": 1, "source_type": 1, "numberReviews": 37}, {"name": "QDOBA Mexican Eats", "type": "restaurant", "image": "https://dynamic-media-cdn.tripadvisor.com/media/photo-o/21/5a/f7/db/caption.jpg?w=1000&s=1", "address": "98 Rhl Blvd, South Charleston, WV 25309", "lat": 38.32906, "lng": -81.71432, "ref_id": 13287791, "rating": 2, "num_reviews": 0, "website": "https://locations.qdoba.com/us/wv/south-charleston/98-rhl-blvd.html", "contact_phone": "+1 304-744-2700", "contact_email": null, "status": 1, "source_type": 1, "numberReviews": 1}, {"name": "7-Eleven", "type": "restaurant", "image": null, "address": "1300 Bigley Ave, Charleston, WV 25302-3705", "lat": 38.3605, "lng": -81.62695, "ref_id": 13841380, "rating": 2, "num_reviews": 0, "website": "http://www.7-eleven.com/?yext=35933", "contact_phone": "+1 304-343-2023", "contact_email": null, "status": 1, "source_type": 1, "numberReviews": 1}, {"name": "Wendy's", "type": "restaurant", "image": null, "address": "121 Virginia St E, Charleston, WV 25301-2518", "lat": 38.35359, "lng": -81.6417, "ref_id": 4890017, "rating": 2.5, "num_reviews": 0, "website": "https://locations.wendys.com/united-states/wv/charleston/121-virginia-street-e", "contact_phone": "+1 304-342-0662", "contact_email": null, "status": 1, "source_type": 1, "numberReviews": 8}, {"name": "Dunkin'", "type": "restaurant", "image": null, "address": "932 Cross Lanes Dr, Keslers Cross Lanes, WV 25313", "lat": 38.420177, "lng": -81.79191, "ref_id": 19817452, "rating": 2, "num_reviews": 0, "website": "https://locations.dunkindonuts.com/en/wv/cross-lanes/932-cross-lanes-dr/359248?y_source=1_MTM1OTg0NjgtNzY5LWxvY2F0aW9uLndlYnNpdGU%3D", "contact_phone": "+1 304-759-9185", "contact_email": null, "status": 1, "source_type": 1, "numberReviews": 1}, {"name": "Texas Steakhouse & Saloon", "type": "restaurant", "image": "https://dynamic-media-cdn.tripadvisor.com/media/photo-o/08/82/e1/b9/skillet-cookie.jpg?w=1000&s=1", "address": "103 Alex Ln, Charleston, WV 25304-2971", "lat": 38.30608, "lng": -81.56447, "ref_id": 1558144, "rating": 3, "num_reviews": 0, "website": "http://texassteakhouse.com/", "contact_phone": "+1 304-925-7258", "contact_email": "", "status": 1, "source_type": 1, "numberReviews": 123}, {"name": "Cafe Orleans", "type": "restaurant", "image": null, "address": "1 Greyhound Dr, Charleston, WV 25313-1474", "lat": 38.419285, "lng": -81.80984, "ref_id": 26130984, "rating": 2, "num_reviews": 0, "website": "https://www.mardigrascasinowv.com/dining/cafe-orleans", "contact_phone": "+13047761000", "contact_email": null, "status": 1, "source_type": 1, "numberReviews": 1}, {"name": "Wendy's", "type": "restaurant", "image": null, "address": "4007 Maccorkle Ave Sw, South Charleston, WV 25309-1510", "lat": 38.35913, "lng": -81.71761, "ref_id": 15654153, "rating": 2.5, "num_reviews": 0, "website": "https://locations.wendys.com/united-states/wv/south-charleston/4007-maccorkle-ave-sw", "contact_phone": "+1 304-744-1007", "contact_email": null, "status": 1, "source_type": 1, "numberReviews": 2}, {"name": "Penn Station East Coast Subs", "type": "restaurant", "image": "https://dynamic-media-cdn.tripadvisor.com/media/photo-o/15/fb/d9/73/where-s-the-meat.jpg?w=1000&s=1", "address": "2478 Mountaineer Blvd, South Charleston, WV 25309-9448", "lat": 38.32304, "lng": -81.71262, "ref_id": 10455719, "rating": 3, "num_reviews": 0, "website": "http://www.penn-station.com/", "contact_phone": "+1 304-343-7366", "contact_email": "info@gotopennstation.com", "status": 1, "source_type": 1, "numberReviews": 6}, {"name": "Taco Bell", "type": "restaurant", "image": null, "address": "2525 Mountaineer Blvd, South Charleston, WV 25309-9439", "lat": 38.32125, "lng": -81.71617, "ref_id": 15652478, "rating": 2.5, "num_reviews": 0, "website": "https://www.facebook.com/230068713734975", "contact_phone": "+1 304-746-7722", "contact_email": null, "status": 1, "source_type": 1, "numberReviews": 2}, {"name": "Gino's Pizza & Spaghetti House", "type": "restaurant", "image": null, "address": "217 Lee St W, Charleston, WV 25302-2224", "lat": 38.3611, "lng": -81.64345, "ref_id": 5072831, "rating": 2.5, "num_reviews": 0, "website": "http://www.ginospizza.com", "contact_phone": "+1 304-343-7691", "contact_email": null, "status": 1, "source_type": 1, "numberReviews": 4}, {"name": "Peking House Chinese Restaurnt", "type": "restaurant", "image": null, "address": "1059 Stafford Dr, Princeton, WV 24740-2409", "lat": 37.36287, "lng": -81.0939, "ref_id": 4679993, "rating": 3, "num_reviews": 0, "website": "https://riny.top/peking-house-chinese-buffet", "contact_phone": "+1 304-425-6662", "contact_email": null, "status": 1, "source_type": 1, "numberReviews": 17}, {"name": "Subway", "type": "restaurant", "image": null, "address": "201 Greasy Ridge Rd, Princeton, WV 24739-6900", "lat": 37.359554, "lng": -81.04402, "ref_id": 14148782, "rating": 4, "num_reviews": 0, "website": "http://www.subway.com/en-us", "contact_phone": "+1 304-425-4782", "contact_email": null, "status": 1, "source_type": 1, "numberReviews": 1}, {"name": "McDonald's", "type": "restaurant", "image": null, "address": "1310 Stafford Dr, Princeton, WV 24740-2468", "lat": 37.360737, "lng": -81.101555, "ref_id": 4974750, "rating": 3.5, "num_reviews": 0, "website": "https://www.mcdonalds.com/us/en-us/location/wv/princeton/1310-stafford-dr/4290.html?cid=rf%3ayxt%3aron%3a%3aclicks%3fcid%3drf%3ayxt%3afb%3a%3aclicks", "contact_phone": "+1 304-425-7009", "contact_email": null, "status": 1, "source_type": 1, "numberReviews": 8}, {"name": "Slice Italian Beef & Pizza", "type": "restaurant", "image": null, "address": "289 Courthouse Rd, Princeton, WV 24740-2433", "lat": 37.35718, "lng": -81.11173, "ref_id": 17748453, "rating": 3, "num_reviews": 0, "website": "https://www.facebook.com/SliceItalian/", "contact_phone": "+1 304-921-0449", "contact_email": null, "status": 1, "source_type": 1, "numberReviews": 1}, {"name": "Taco Bell", "type": "restaurant", "image": "https://dynamic-media-cdn.tripadvisor.com/media/photo-o/18/a2/ad/a1/taco-bell.jpg?w=1000&s=1", "address": "1225 Stafford Dr, Princeton, WV 24740-2465", "lat": 37.361774, "lng": -81.0969, "ref_id": 4649512, "rating": 3, "num_reviews": 0, "website": "https://www.facebook.com/223910124356475", "contact_phone": "+1 304-487-6076", "contact_email": null, "status": 1, "source_type": 1, "numberReviews": 6}, {"name": "Domino's Pizza", "type": "restaurant", "image": null, "address": "700 Stafford Dr, Princeton, WV 24740", "lat": 37.36598, "lng": -81.09067, "ref_id": 4890820, "rating": 2.5, "num_reviews": 0, "website": "https://www.dominos.com/en/?redirect=homepage&utm_source=locallistings&utm_medium=loclist&utm_campaign=localmaps", "contact_phone": "+1 304-425-0505", "contact_email": null, "status": 1, "source_type": 1, "numberReviews": 3}, {"name": "Burger King", "type": "restaurant", "image": null, "address": "327 Ingleside Rd, Princeton, WV 24740", "lat": 37.359344, "lng": -81.09775, "ref_id": 15249768, "rating": 2, "num_reviews": 0, "website": "https://burgerking.com/store-locator/store/restaurant_7,876", "contact_phone": "+1 304-487-9839", "contact_email": "princetonbk@lgstores.com", "status": 1, "source_type": 1, "numberReviews": 1}, {"name": "Starbucks", "type": "restaurant", "image": "https://dynamic-media-cdn.tripadvisor.com/media/photo-o/1c/d7/f5/5e/photo1jpg.jpg?w=1000&s=1", "address": "Milepost 18 Northbound I-77 Bluestone Travel Plaza, Princeton, WV 24740", "lat": 37.47507, "lng": -81.06862, "ref_id": 15231424, "rating": 2.5, "num_reviews": 0, "website": "https://www.starbucks.com/store-locator/store/13823/bluestone-travel-plaza-milepost-18-i-77-princeton-wv-24740-us", "contact_phone": null, "contact_email": null, "status": 1, "source_type": 1, "numberReviews": 2}, {"name": "Wendy's", "type": "restaurant", "image": "https://dynamic-media-cdn.tripadvisor.com/media/photo-o/11/ae/0b/5a/food.jpg?w=1000&s=1", "address": "113 Courthouse Rd, Princeton, WV 24740-2419", "lat": 37.35982, "lng": -81.10608, "ref_id": 4466967, "rating": 2.5, "num_reviews": 0, "website": "https://locations.wendys.com/united-states/wv/princeton/113-courthouse-rd", "contact_phone": "+1 304-425-6178", "contact_email": null, "status": 1, "source_type": 1, "numberReviews": 8}, {"name": "Papa Johns Pizza", "type": "restaurant", "image": null, "address": "304 S Walker St, Princeton, WV 24740", "lat": 37.362244, "lng": -81.10487, "ref_id": 4621295, "rating": 2.5, "num_reviews": 0, "website": "https://locations.papajohns.com/united-states/wv/24740/princeton/304-s-walker-st?utm_source=gmb&utm_medium=organic&y_source=1_MTA2OTEyMzUtNzY5LWxvY2F0aW9uLndlYnNpdGU%3D", "contact_phone": "+1 304-431-7272", "contact_email": null, "status": 1, "source_type": 1, "numberReviews": 4}, {"name": "Arby's", "type": "restaurant", "image": null, "address": "326 Ingleside Rd, Princeton, WV 24740", "lat": 37.35859, "lng": -81.09805, "ref_id": 15787809, "rating": -1, "num_reviews": 0, "website": "https://locations.arbys.com/wv/princeton/326-ingleside-rd.html", "contact_phone": "+1 304-487-2229", "contact_email": null, "status": 1, "source_type": 1, "numberReviews": 0}, {"name": "Kristi's", "type": "restaurant", "image": null, "address": "297 Athens Rd, Princeton, WV 24740-6276", "lat": 37.368763, "lng": -81.072495, "ref_id": 26916243, "rating": -1, "num_reviews": 0, "website": "", "contact_phone": "", "contact_email": null, "status": 1, "source_type": 1, "numberReviews": 0}, {"name": "Hunt Brothers Pizza", "type": "restaurant", "image": null, "address": "4178 New Hope Rd, Princeton, WV 24739", "lat": 37.33929, "lng": -81.16586, "ref_id": 26519672, "rating": -1, "num_reviews": 0, "website": "http://www.huntbrotherspizza.com", "contact_phone": "+1 304-425-4411", "contact_email": null, "status": 1, "source_type": 1, "numberReviews": 0}, {"name": "Godfather's Pizza", "type": "restaurant", "image": null, "address": "20 Athens Ter, Princeton, WV 24739-8592", "lat": 37.36704, "lng": -81.074684, "ref_id": 5021146, "rating": -1, "num_reviews": 0, "website": "http://www.godfathers.com", "contact_phone": "+1 304-487-2814", "contact_email": null, "status": 1, "source_type": 1, "numberReviews": 0}, {"name": "Hunt Brothers Pizza", "type": "restaurant", "image": null, "address": "869 Maple Acres Road, Princeton, WV 24739", "lat": 37.336475, "lng": -81.150055, "ref_id": 27755497, "rating": -1, "num_reviews": 0, "website": "http://www.huntbrotherspizza.com", "contact_phone": "+1 304-487-2009", "contact_email": null, "status": 1, "source_type": 1, "numberReviews": 0}, {"name": "Sonic Drive-In", "type": "restaurant", "image": null, "address": "1304 Stafford Dr, Princeton, WV 24740-2468", "lat": 37.361107, "lng": -81.09996, "ref_id": 15259637, "rating": -1, "num_reviews": 0, "website": "https://locations.sonicdrivein.com/wv/princeton/1304-stafford-drive.html", "contact_phone": "+1 304-425-8687", "contact_email": null, "status": 1, "source_type": 1, "numberReviews": 0}, {"name": "Rock Ridge Bar And Grill", "type": "restaurant", "image": null, "address": "17 Rock Ridge Dr, Pipestem, WV 25979", "lat": 37.51057, "lng": -80.96803, "ref_id": 26916092, "rating": -1, "num_reviews": 0, "website": "http://www.rockridgebar.com", "contact_phone": "+13049616889", "contact_email": null, "status": 1, "source_type": 1, "numberReviews": 0}, {"name": "Little General Store", "type": "restaurant", "image": null, "address": "Athens Road, Princeton, WV 24740", "lat": 37.374943, "lng": -81.06666, "ref_id": 25485933, "rating": -1, "num_reviews": 0, "website": null, "contact_phone": null, "contact_email": null, "status": 1, "source_type": 1, "numberReviews": 0}, {"name": "Little Caesars Pizza", "type": "restaurant", "image": null, "address": "1129 Stafford Drive, Princeton, WV 24740", "lat": 37.36288, "lng": -81.0951, "ref_id": 25485880, "rating": -1, "num_reviews": 0, "website": "https://littlecaesars.com/en-us/store/4062", "contact_phone": "+13044876333", "contact_email": null, "status": 1, "source_type": 1, "numberReviews": 0}, {"name": "Jimmies Restaurant", "type": "restaurant", "image": "https://dynamic-media-cdn.tripadvisor.com/media/photo-o/29/ca/3f/a6/caption.jpg?w=1000&s=1", "address": "839 Mercer Street, Princeton, WV 24740", "lat": 37.369385, "lng": -81.09431, "ref_id": 26361020, "rating": -1, "num_reviews": 0, "website": "www.jimmiesrestaurantwv.com", "contact_phone": "+1 304-922-8402", "contact_email": "jimmiesrestaurantwv@gmail.com", "status": 1, "source_type": 1, "numberReviews": 0}, {"name": "Hardee's", "type": "restaurant", "image": null, "address": "1306 Stafford Dr, Princeton, WV 24740-2468", "lat": 37.360992, "lng": -81.10062, "ref_id": 26922787, "rating": -1, "num_reviews": 0, "website": "https://locations.hardees.com/wv/princeton/1306-stafford-dr", "contact_phone": "+13044257048", "contact_email": null, "status": 1, "source_type": 1, "numberReviews": 0}, {"name": "WILD ROOTS coffeehouse", "type": "restaurant", "image": null, "address": "860 Mercer St, Princeton, WV 24740-2908", "lat": 37.36977, "lng": -81.09495, "ref_id": 26995247, "rating": -1, "num_reviews": 0, "website": "", "contact_phone": "+1 304-887-6481", "contact_email": null, "status": 1, "source_type": 1, "numberReviews": 0}, {"name": "Big Bite", "type": "restaurant", "image": null, "address": "1210 Stafford Dr, Princeton, WV 24740-2466", "lat": 37.36287, "lng": -81.096275, "ref_id": 26881872, "rating": -1, "num_reviews": 0, "website": "https://www.facebook.com/109202312127237", "contact_phone": "+13044871555", "contact_email": null, "status": 1, "source_type": 1, "numberReviews": 0}, {"name": "Glenwood Country Store", "type": "restaurant", "image": null, "address": "869 Maple Acres Rd, Princeton, WV 24739-7329", "lat": 37.336353, "lng": -81.150024, "ref_id": 26879521, "rating": -1, "num_reviews": 0, "website": "https://www.facebook.com/105310823184303", "contact_phone": "+13044872009", "contact_email": null, "status": 1, "source_type": 1, "numberReviews": 0}, {"name": "Hunt Brothers Pizza", "type": "restaurant", "image": null, "address": "199 Rogers St, Princeton, WV 24740", "lat": 37.364452, "lng": -81.08426, "ref_id": 27723468, "rating": -1, "num_reviews": 0, "website": "http://www.huntbrotherspizza.com", "contact_phone": "+1 681-282-5761", "contact_email": null, "status": 1, "source_type": 1, "numberReviews": 0}, {"name": "Teriyaki Madness", "type": "restaurant", "image": null, "address": "1010 Oakvale Rd, Princeton, WV 24740", "lat": 37.3632, "lng": -81.05298, "ref_id": 26904929, "rating": -1, "num_reviews": 0, "website": "https://teriyakimadness.com/locations/wv-princeton/", "contact_phone": "3044873368", "contact_email": null, "status": 1, "source_type": 1, "numberReviews": 0}, {"name": "Hunt Brothers Pizza", "type": "restaurant", "image": null, "address": "5127 Eads Mill Rd, Princeton, WV 24740-8507", "lat": 37.451283, "lng": -81.06238, "ref_id": 26519673, "rating": -1, "num_reviews": 0, "website": "http://www.huntbrotherspizza.com", "contact_phone": "+1 304-431-1950", "contact_email": null, "status": 1, "source_type": 1, "numberReviews": 0}, {"name": "Hunt Brothers Pizza", "type": "restaurant", "image": null, "address": "9333 S. St Rt 20, Pipestem, WV 25979", "lat": 37.515476, "lng": -80.968, "ref_id": 26519668, "rating": -1, "num_reviews": 0, "website": "http://www.huntbrotherspizza.com", "contact_phone": "+1 304-466-9121", "contact_email": null, "status": 1, "source_type": 1, "numberReviews": 0}, {"name": "Hunt Brothers Pizza", "type": "restaurant", "image": null, "address": "1016 Low Gap Road, Princeton, WV 24740", "lat": 37.382195, "lng": -81.104294, "ref_id": 27723834, "rating": -1, "num_reviews": 0, "website": "http://www.huntbrotherspizza.com", "contact_phone": "+1 304-487-9076", "contact_email": null, "status": 1, "source_type": 1, "numberReviews": 0}, {"name": "Subway", "type": "restaurant", "image": null, "address": "918 Stafford Dr, Princeton, WV 24740-2405", "lat": 37.36509, "lng": -81.09242, "ref_id": 20159263, "rating": -1, "num_reviews": 0, "website": "https://restaurants.subway.com/united-states/wv/princeton/918-strafford-drive?utm_source=yext-other&utm_medium=local&utm_term=acq&utm_content=4378&utm_campaign=evergreen-2020&y_source=1_MTQ5MDMyNTAtNzY5LWxvY2F0aW9uLndlYnNpdGU%3D", "contact_phone": "+1 304-425-8480", "contact_email": null, "status": 1, "source_type": 1, "numberReviews": 0}, {"name": "Hillbilly Fire Pit", "type": "restaurant", "image": "https://dynamic-media-cdn.tripadvisor.com/media/photo-o/2a/0a/ae/31/hillbilly-firepit.jpg?w=1000&s=1", "address": "401 Market St, Man, WV 25635-1322", "lat": 37.74438, "lng": -81.8716, "ref_id": 4720240, "rating": 5, "num_reviews": 0, "website": "https://www.facebook.com/hillbillyfirepit/", "contact_phone": "+1 304-583-7377", "contact_email": null, "status": 1, "source_type": 1, "numberReviews": 12}, {"name": "Colonial Motel and Restaurant", "type": "restaurant", "image": "https://dynamic-media-cdn.tripadvisor.com/media/photo-o/1d/2a/ac/81/colonial-motel-and-restaurant.jpg?w=1000&s=1", "address": "107 W 2nd St, Man, WV 25635-1120", "lat": 37.74072, "lng": -81.88, "ref_id": 4920062, "rating": 4, "num_reviews": 0, "website": "http://www.colonialmotelmanwv.com/", "contact_phone": "+1 304-583-6138", "contact_email": null, "status": 1, "source_type": 1, "numberReviews": 11}, {"name": "Hardee's", "type": "restaurant", "image": null, "address": "122 Huff Creek Hwy, Man, WV 25635", "lat": 37.729725, "lng": -81.870384, "ref_id": 4941685, "rating": 4.5, "num_reviews": 0, "website": "https://locations.hardees.com/wv/man/122-huff-creek-hwy", "contact_phone": "+1 304-583-6655", "contact_email": null, "status": 1, "source_type": 1, "numberReviews": 3}, {"name": "Giovanni's Italian", "type": "restaurant", "image": null, "address": "601 Main St, Man, WV 25635-1317", "lat": 37.74614, "lng": -81.86934, "ref_id": 23894657, "rating": 5, "num_reviews": 0, "website": "http://www.giovannisnypizza.net/", "contact_phone": "+13045838887", "contact_email": null, "status": 1, "source_type": 1, "numberReviews": 2}, {"name": "Dolce Vita Resturant in Boston North End", "type": "restaurant", "image": null, "address": "214 Hanover Street, Suffolk, VA", "lat": 37.57993, "lng": -81.812225, "ref_id": 4972325, "rating": 4, "num_reviews": 0, "website": "http://www.dolcevitaristorante.com/", "contact_phone": null, "contact_email": null, "status": 1, "source_type": 1, "numberReviews": 8}, {"name": "Wendy's", "type": "restaurant", "image": null, "address": "145 Huff Creek Hwy, Man, WV 25635", "lat": 37.73002, "lng": -81.86942, "ref_id": 4460034, "rating": 3.5, "num_reviews": 0, "website": "https://locations.wendys.com/united-states/wv/man/145-huffcreek-hwy", "contact_phone": "+1 304-583-0106", "contact_email": null, "status": 1, "source_type": 1, "numberReviews": 6}, {"name": "Pizza Mingo", "type": "restaurant", "image": null, "address": "132 Us-52, Gilbert, WV 25621", "lat": 37.61246, "lng": -81.8683, "ref_id": 12879271, "rating": 3.5, "num_reviews": 0, "website": "https://www.facebook.com/pages/Pizzamingo/369353393124699", "contact_phone": "+1 304-664-3205", "contact_email": null, "status": 1, "source_type": 1, "numberReviews": 6}, {"name": "Los Amigos", "type": "restaurant", "image": null, "address": "Route 52, Gilbert, WV 25621", "lat": 37.63646, "lng": -81.93134, "ref_id": 14898058, "rating": 3.5, "num_reviews": 0, "website": null, "contact_phone": null, "contact_email": null, "status": 1, "source_type": 1, "numberReviews": 2}, {"name": "McDonald's", "type": "restaurant", "image": "https://dynamic-media-cdn.tripadvisor.com/media/photo-o/17/c8/5e/05/picture-of-drug-spoon.jpg?w=1000&s=1", "address": "Rt 52, Gilbert, WV 25621", "lat": 37.612473, "lng": -81.86684, "ref_id": 4460213, "rating": 3, "num_reviews": 0, "website": "https://www.mcdonalds.com/us/en-us/location/wv/gilbert/rt-52/15227.html?cid=RF:YXT:RoN::Clicks", "contact_phone": "+1 304-664-3448", "contact_email": null, "status": 1, "source_type": 1, "numberReviews": 7}, {"name": "Man Pic Pac", "type": "restaurant", "image": null, "address": "78 Mingo Hwy, Man, WV 25635-9103", "lat": 37.73119, "lng": -81.87201, "ref_id": 26930330, "rating": -1, "num_reviews": 0, "website": "https://www.facebook.com/1034535863359989", "contact_phone": "+13045832999", "contact_email": null, "status": 1, "source_type": 1, "numberReviews": 0}, {"name": "O'Davaroni's Pizza", "type": "restaurant", "image": null, "address": "2697 Huff Creek Pkwy, Davin, WV 25617", "lat": 37.732174, "lng": -81.82762, "ref_id": 25441456, "rating": -1, "num_reviews": 0, "website": "https://www.facebook.com/112970691198858", "contact_phone": "+1 304-583-8000", "contact_email": null, "status": 1, "source_type": 1, "numberReviews": 0}, {"name": "Giovanni's Pizza", "type": "restaurant", "image": null, "address": "101 Main Street, Gilbert, WV 25621", "lat": 37.61471, "lng": -81.86664, "ref_id": 25551310, "rating": -1, "num_reviews": 0, "website": "https://giovannispizza.com/", "contact_phone": null, "contact_email": null, "status": 1, "source_type": 1, "numberReviews": 0}, {"name": "Kistler Grocery", "type": "restaurant", "image": null, "address": "601 Buffalo Creek Rd, Kistler, WV 25628", "lat": 37.757057, "lng": -81.85807, "ref_id": 26944801, "rating": -1, "num_reviews": 0, "website": "https://www.facebook.com/163834023826873", "contact_phone": "+13045832495", "contact_email": null, "status": 1, "source_type": 1, "numberReviews": 0}, {"name": "Chili's Grill & Bar", "type": "restaurant", "image": "https://dynamic-media-cdn.tripadvisor.com/media/photo-o/0d/85/54/9d/photo0jpg.jpg?w=1000&s=1", "address": "S101 Charleston Town Ctr, Charleston, WV 25389-0004", "lat": 38.352917, "lng": -81.636055, "ref_id": 419865, "rating": 3, "num_reviews": 0, "website": "http://www.chilis.com/locations/us/west-virginia/charleston/charleston", "contact_phone": "+1 304-346-7275", "contact_email": "", "status": 1, "source_type": 1, "numberReviews": 113}, {"name": "Steak Escape of Trace Fork", "type": "restaurant", "image": null, "address": "81 R H L Blvd, South Charleston, WV 25309-8276", "lat": 38.3332, "lng": -81.71153, "ref_id": 419938, "rating": 4, "num_reviews": 0, "website": "http://www.steakescape.com/", "contact_phone": "+1 304-744-5227", "contact_email": null, "status": 1, "source_type": 1, "numberReviews": 12}, {"name": "Domino's Pizza", "type": "restaurant", "image": null, "address": "1631 Washington Street East, Charleston, WV 25311", "lat": 38.33925, "lng": -81.614876, "ref_id": 15251278, "rating": 4.5, "num_reviews": 0, "website": "https://www.dominos.com/en/?redirect=homepage&utm_source=locallistings&utm_medium=loclist&utm_campaign=localmaps", "contact_phone": "+1 304-343-3100", "contact_email": null, "status": 1, "source_type": 1, "numberReviews": 4}, {"name": "Gino's Pizza & Spaghetti House", "type": "restaurant", "image": null, "address": "1305 Fairlawn Ave, Dunbar, WV 25064-2552", "lat": 38.36483, "lng": -81.74103, "ref_id": 3891588, "rating": 4, "num_reviews": 0, "website": "http://www.ginospizza.com", "contact_phone": "+1 304-768-0991", "contact_email": "comments@ginospizza.com", "status": 1, "source_type": 1, "numberReviews": 13}, {"name": "Los Amigos Mexican Restaurant", "type": "restaurant", "image": "https://dynamic-media-cdn.tripadvisor.com/media/photo-o/0d/69/a3/50/photo2jpg.jpg?w=1000&s=1", "address": "2911 7th Ave, Charleston, WV 25387-1728", "lat": 38.37647, "lng": -81.68125, "ref_id": 4927959, "rating": 4, "num_reviews": 0, "website": "http://www.lamexicanrestaurant.com", "contact_phone": "+1 304-205-6353", "contact_email": null, "status": 1, "source_type": 1, "numberReviews": 13}, {"name": "The Lucky Dill Deli", "type": "restaurant", "image": "https://dynamic-media-cdn.tripadvisor.com/media/photo-o/1a/a3/4b/ea/photo0jpg.jpg?w=1000&s=1", "address": "122 Capitol St, Charleston, WV 25301-2626", "lat": 38.34958, "lng": -81.63515, "ref_id": 13448769, "rating": 4.5, "num_reviews": 0, "website": "http://axesandaleswv.com/the-lucky-dill-deli", "contact_phone": "+1 681-205-8344", "contact_email": null, "status": 1, "source_type": 1, "numberReviews": 5}, {"name": "Trivillian's Pharmacy and Soda Fountain", "type": "restaurant", "image": "https://dynamic-media-cdn.tripadvisor.com/media/photo-o/13/7e/d1/7f/photo0jpg.jpg?w=1000&s=1", "address": "215 35th St SE, Charleston, WV 25304-1318", "lat": 38.3296, "lng": -81.59879, "ref_id": 4887093, "rating": 4.5, "num_reviews": 0, "website": "https://www.facebook.com/trivillianspharmacy/", "contact_phone": "+1 304-343-8621", "contact_email": null, "status": 1, "source_type": 1, "numberReviews": 11}, {"name": "Wellingtons' Cafe & Catering", "type": "restaurant", "image": null, "address": "2153 Greenbrier St, Charleston, WV 25311-9623", "lat": 38.37832, "lng": -81.5651, "ref_id": 4721655, "rating": 5, "num_reviews": 0, "website": "https://wellingtonscafe.org/", "contact_phone": "+1 304-343-3222", "contact_email": null, "status": 1, "source_type": 1, "numberReviews": 5}, {"name": "Fife Street Brewing", "type": "restaurant", "image": null, "address": "180 Summers St, Charleston, WV 25301", "lat": 38.351234, "lng": -81.6346, "ref_id": 25558837, "rating": 5, "num_reviews": 0, "website": null, "contact_phone": null, "contact_email": null, "status": 1, "source_type": 1, "numberReviews": 2}, {"name": "IHOP", "type": "restaurant", "image": "https://dynamic-media-cdn.tripadvisor.com/media/photo-o/0c/94/cd/c0/20160818-094100-largejpg.jpg?w=1000&s=1", "address": "46 Rhl Blvd, Charleston, WV 25309-8278", "lat": 38.33643, "lng": -81.71334, "ref_id": 4254799, "rating": 3.5, "num_reviews": 0, "website": "https://restaurants.ihop.com/en-us/wv/south-charleston/breakfast-46-rhl-3054", "contact_phone": "+1 304-746-0070", "contact_email": null, "status": 1, "source_type": 1, "numberReviews": 24}, {"name": "Bellisimo Pizza", "type": "restaurant", "image": null, "address": "3433 W Dupont Ave, Belle, WV 25015-1055", "lat": 38.26829, "lng": -81.56531, "ref_id": 14252092, "rating": 5, "num_reviews": 0, "website": null, "contact_phone": "+1 304-926-0332", "contact_email": null, "status": 1, "source_type": 1, "numberReviews": 3}, {"name": "El Capataz", "type": "restaurant", "image": "https://dynamic-media-cdn.tripadvisor.com/media/photo-o/2b/92/67/df/caption.jpg?w=1000&s=1", "address": "9703 Maccorkle Ave, Marmet, WV 25315-1847", "lat": 38.24229, "lng": -81.56505, "ref_id": 23924112, "rating": 5, "num_reviews": 0, "website": "https://www.facebook.com/107322581817019", "contact_phone": "+13042202238", "contact_email": "elcapataz8522@outlook.com", "status": 1, "source_type": 1, "numberReviews": 2}, {"name": "Daily Dose Cafe", "type": "restaurant", "image": "https://dynamic-media-cdn.tripadvisor.com/media/photo-o/21/86/8e/27/apple-oatmeal-cookie.jpg?w=1000&s=1", "address": "5206 1/2 MacCorkle Ave SE, Charleston, WV 25304", "lat": 38.327774, "lng": -81.59228, "ref_id": 19340733, "rating": 5, "num_reviews": 0, "website": "https://www.facebook.com/DailyDoseWV/", "contact_phone": "+1 681-265-3943", "contact_email": "dailydosewv@gmail.com", "status": 1, "source_type": 1, "numberReviews": 2}, {"name": "Giovanni's Pizza Place", "type": "restaurant", "image": "https://dynamic-media-cdn.tripadvisor.com/media/photo-o/0e/4d/6c/a0/giovanni-s-pizza-place.jpg?w=1000&s=1", "address": "118 Spring St, Charleston, WV 25302-3747", "lat": 38.36038, "lng": -81.62715, "ref_id": 545533, "rating": 3.5, "num_reviews": 0, "website": "http://www.giovannispizzacharleston.com/?utm_source=organic_tripadvisor&utm_medium=ta_website", "contact_phone": "+1 304-345-2525", "contact_email": "pizzariagiovannis@yahoo.com", "status": 1, "source_type": 1, "numberReviews": 26}, {"name": "Lookout Bar & Grill", "type": "restaurant", "image": "https://dynamic-media-cdn.tripadvisor.com/media/photo-o/1c/28/b8/2e/view-from-outdoor-seating.jpg?w=1000&s=1", "address": "530 Silver Maple Ridge, Charleston, WV 25306", "lat": 38.32318, "lng": -81.56609, "ref_id": 17760948, "rating": 3.5, "num_reviews": 0, "website": "http://www.facebook.com/lookoutgrill/", "contact_phone": "+1 681-265-5011", "contact_email": null, "status": 1, "source_type": 1, "numberReviews": 7}, {"name": "Gino's Pizza & Spaghetti House", "type": "restaurant", "image": "https://dynamic-media-cdn.tripadvisor.com/media/photo-o/08/1f/51/02/friendly-staff-nice-lunch.jpg?w=1000&s=1", "address": "305 D St, South Charleston, WV 25303-3105", "lat": 38.36535, "lng": -81.69443, "ref_id": 419788, "rating": 3.5, "num_reviews": 0, "website": "https://www.facebook.com/Ginos-Pizza-And-Spaghetti-South-Charleston-1397508353886015/", "contact_phone": "+1 304-744-5361", "contact_email": "", "status": 1, "source_type": 1, "numberReviews": 38}, {"name": "Subway", "type": "restaurant", "image": null, "address": "300 Goff Mountain Rd, Cross Lanes, WV 25313", "lat": 38.41649, "lng": -81.7947, "ref_id": 3148886, "rating": 4, "num_reviews": 0, "website": "https://restaurants.subway.com/united-states/wv/cross-lanes/300-goff-mountain-rd?utm_source=yext-other&utm_medium=local&utm_term=acq&utm_content=4841&utm_campaign=evergreen-2020&y_source=1_MTQ5MDI2MzMtNzY5LWxvY2F0aW9uLndlYnNpdGU%3D", "contact_phone": "+1 304-776-2227", "contact_email": null, "status": 1, "source_type": 1, "numberReviews": 9}, {"name": "Bob Evans", "type": "restaurant", "image": "https://dynamic-media-cdn.tripadvisor.com/media/photo-o/08/9a/d7/9a/brinner.jpg?w=1000&s=1", "address": "6309 Maccorkle Ave SE, Charleston, WV 25304-2917", "lat": 38.306477, "lng": -81.56373, "ref_id": 419833, "rating": 3.5, "num_reviews": 0, "website": "http://www.bobevans.com", "contact_phone": "+1 304-925-2223", "contact_email": "", "status": 1, "source_type": 1, "numberReviews": 84}, {"name": "Main Tin Chinese Restaurant", "type": "restaurant", "image": "https://dynamic-media-cdn.tripadvisor.com/media/photo-o/0f/52/37/4b/main-tin-chinese-restaurant.jpg?w=1000&s=1", "address": "242 7th Ave, South Charleston, WV 25303-1547", "lat": 38.36821, "lng": -81.69679, "ref_id": 419795, "rating": 3.5, "num_reviews": 0, "website": "https://www.maintin.net/", "contact_phone": "+1 304-744-2900", "contact_email": "", "status": 1, "source_type": 1, "numberReviews": 40}, {"name": "Burger King", "type": "restaurant", "image": null, "address": "5705 Maccorkle Ave Se, Charleston, WV 25304-2803", "lat": 38.312885, "lng": -81.56763, "ref_id": 4966356, "rating": 4, "num_reviews": 0, "website": "https://burgerking.com/store-locator/store/restaurant_2,034", "contact_phone": "+1 304-926-8099", "contact_email": "bk3650@amplergroup.com", "status": 1, "source_type": 1, "numberReviews": 8}, {"name": "Husson's Pizza", "type": "restaurant", "image": "https://dynamic-media-cdn.tripadvisor.com/media/photo-s/02/c2/23/5b/pepperoni-and-general.jpg?w=1000&s=1", "address": "4010 Maccorkle Ave SW, Spring Hill, WV 25309-1510", "lat": 38.35956, "lng": -81.71791, "ref_id": 419935, "rating": 4, "num_reviews": 0, "website": "http://hussonspizza.com/", "contact_phone": "+1 304-768-4440", "contact_email": null, "status": 1, "source_type": 1, "numberReviews": 15}, {"name": "Club El Dorado Bar & Grill", "type": "restaurant", "image": null, "address": "2417 Grant Ave, Saint Albans, WV 25177-2059", "lat": 38.38222, "lng": -81.80406, "ref_id": 14100382, "rating": 5, "num_reviews": 0, "website": "https://www.facebook.com/club.eldorado.WV/", "contact_phone": "+1 304-727-9005", "contact_email": null, "status": 1, "source_type": 1, "numberReviews": 3}, {"name": "Crepizza", "type": "restaurant", "image": "https://dynamic-media-cdn.tripadvisor.com/media/photo-o/23/f8/4e/12/crepizza.jpg?w=1000&s=1", "address": "100 R H L Blvd, Charleston, WV 25309-8260", "lat": 38.329086, "lng": -81.7144, "ref_id": 23442603, "rating": 4, "num_reviews": 0, "website": "http://www.crepizza.com", "contact_phone": "+1 304-746-4040", "contact_email": "astavrulakis@yahoo.com", "status": 1, "source_type": 1, "numberReviews": 4}, {"name": "Qdoba Mexican Grill", "type": "restaurant", "image": "https://dynamic-media-cdn.tripadvisor.com/media/photo-o/0d/da/12/08/knockout-taco-s-were.jpg?w=1000&s=1", "address": "98 R H L Blvd, Charleston, WV 25309-8278", "lat": 38.32907, "lng": -81.71433, "ref_id": 4516849, "rating": 4, "num_reviews": 0, "website": "http://www.qdoba.com", "contact_phone": "+1 304-744-2700", "contact_email": null, "status": 1, "source_type": 1, "numberReviews": 9}, {"name": "Pita Pit", "type": "restaurant", "image": null, "address": "4222 McCorkle Ave SE, Charleston, WV 25304", "lat": 38.32487, "lng": -81.586815, "ref_id": 4629546, "rating": 4, "num_reviews": 0, "website": "https://locations.pitapitusa.com/pita-pit-614c5bfc5c79", "contact_phone": "+1 304-925-2848", "contact_email": null, "status": 1, "source_type": 1, "numberReviews": 10}, {"name": "China One WV", "type": "restaurant", "image": null, "address": "4218 Maccorkle Ave SE, Charleston, WV 25304-2502", "lat": 38.32515, "lng": -81.58786, "ref_id": 5420850, "rating": 4, "num_reviews": 0, "website": "http://www.chinaonecharlestonwv.weebly.com", "contact_phone": "+1 304-925-8839", "contact_email": null, "status": 1, "source_type": 1, "numberReviews": 5}, {"name": "Husson's Pizza", "type": "restaurant", "image": "https://dynamic-media-cdn.tripadvisor.com/media/photo-o/10/40/a4/ab/822-cross-lanes-dr-304.jpg?w=1000&s=1", "address": "822 Cross Lanes Dr, Cross Lanes, WV 25313-1338", "lat": 38.42091, "lng": -81.79689, "ref_id": 4686708, "rating": 4, "num_reviews": 0, "website": "http://www.hussonspizza.com", "contact_phone": "+1 304-776-4989", "contact_email": null, "status": 1, "source_type": 1, "numberReviews": 17}, {"name": "DT Prime", "type": "restaurant", "image": null, "address": "201 Capitol St, Charleston, WV 25301", "lat": 38.350212, "lng": -81.635254, "ref_id": 26326763, "rating": 4, "num_reviews": 0, "website": null, "contact_phone": "+1 304-357-5700", "contact_email": null, "status": 1, "source_type": 1, "numberReviews": 3}, {"name": "Rollin Smoke BBQ", "type": "restaurant", "image": "https://dynamic-media-cdn.tripadvisor.com/media/photo-o/0c/ca/0f/42/20160901-121341-largejpg.jpg?w=1000&s=1", "address": "1930 Pinewood Dr, Sissonville, WV 25320-9725", "lat": 38.484577, "lng": -81.66441, "ref_id": 10168827, "rating": 4, "num_reviews": 0, "website": "http://www.rollinsmokebbqribs.com", "contact_phone": "+1 304-984-2277", "contact_email": null, "status": 1, "source_type": 1, "numberReviews": 8}, {"name": "Penn Station East Coast Subs", "type": "restaurant", "image": "https://dynamic-media-cdn.tripadvisor.com/media/photo-o/05/dc/ab/71/penn-station-east-coast.jpg?w=1000&s=1", "address": "4002 Maccorkle Ave SE, Charleston, WV 25304-1635", "lat": 38.32678, "lng": -81.59068, "ref_id": 4796974, "rating": 4, "num_reviews": 0, "website": "http://www.penn-station.com", "contact_phone": "+1 304-720-7366", "contact_email": null, "status": 1, "source_type": 1, "numberReviews": 13}, {"name": "Miner's Alley", "type": "restaurant", "image": null, "address": "17203 Porter Rd SW, Frostburg, MD 21532-3401", "lat": 39.65189, "lng": -78.90161, "ref_id": 26982979, "rating": -1, "num_reviews": 0, "website": "https://www.facebook.com/102145902644897", "contact_phone": "+1 240-284-1175", "contact_email": null, "status": 1, "source_type": 1, "numberReviews": 0}, {"name": "Daddy Lou's Pub & Pantry", "type": "restaurant", "image": null, "address": "104 Knobley Road, Keyser, WV 26726", "lat": 39.54377, "lng": -78.81287, "ref_id": 25509819, "rating": -1, "num_reviews": 0, "website": "https://www.facebook.com/299109336827232", "contact_phone": "+1 304-790-8027", "contact_email": null, "status": 1, "source_type": 1, "numberReviews": 0}, {"name": "The Balcony", "type": "restaurant", "image": null, "address": "11810 Bedford Rd NE, Cumberland, MD 21502-6807", "lat": 39.685673, "lng": -78.731865, "ref_id": 26897416, "rating": -1, "num_reviews": 0, "website": "https://www.facebook.com/109910098282677", "contact_phone": "+12403627036", "contact_email": null, "status": 1, "source_type": 1, "numberReviews": 0}, {"name": "Pasta Americana", "type": "restaurant", "image": null, "address": "1238 National Highway, LaVale, MD 21502", "lat": 39.636364, "lng": -78.83725, "ref_id": 25494294, "rating": -1, "num_reviews": 0, "website": null, "contact_phone": null, "contact_email": null, "status": 1, "source_type": 1, "numberReviews": 0}, {"name": "Lashbaugh's West", "type": "restaurant", "image": null, "address": "210 W Main St, Frostburg, MD 21532-1504", "lat": 39.66497, "lng": -78.93553, "ref_id": 26886892, "rating": -1, "num_reviews": 0, "website": "https://www.facebook.com/104103725047373", "contact_phone": "+1 240-284-2351", "contact_email": null, "status": 1, "source_type": 1, "numberReviews": 0}, {"name": "Baker Babes", "type": "restaurant", "image": null, "address": "82 E Main St, Frostburg, MD 21532-1338", "lat": 39.656357, "lng": -78.926, "ref_id": 26969606, "rating": -1, "num_reviews": 0, "website": "https://www.facebook.com/110577641099825", "contact_phone": "+1 301-616-0292", "contact_email": null, "status": 1, "source_type": 1, "numberReviews": 0}, {"name": "Charis Winery & Distillery", "type": "restaurant", "image": null, "address": "16 Howard Street, Cumberland, MD 21502", "lat": 39.64852, "lng": -78.76184, "ref_id": 25505099, "rating": -1, "num_reviews": 0, "website": null, "contact_phone": null, "contact_email": null, "status": 1, "source_type": 1, "numberReviews": 0}, {"name": "DQ Grill & Chill - LaVale, MD", "type": "restaurant", "image": null, "address": "1205 National Hwy, Cumberland, MD 21502-7602", "lat": 39.63866, "lng": -78.83184, "ref_id": 26969607, "rating": -1, "num_reviews": 0, "website": "http://www.petersons1.com/contact-us/", "contact_phone": "+1 301-729-2280", "contact_email": null, "status": 1, "source_type": 1, "numberReviews": 0}, {"name": "McDonald's", "type": "restaurant", "image": null, "address": "15310 McMullen Highway SW, Cresaptown, MD 21502", "lat": 39.585964, "lng": -78.84096, "ref_id": 25351760, "rating": -1, "num_reviews": 0, "website": "https://www.mcdonalds.com/?cid=RF:YXT:RoN::Clicks", "contact_phone": "+1 301-729-0430", "contact_email": null, "status": 1, "source_type": 1, "numberReviews": 0}, {"name": "Scotty's Pizza", "type": "restaurant", "image": null, "address": "1310 W Industrial Blvd, Cumberland, MD 21502", "lat": 39.62974, "lng": -78.74445, "ref_id": 25441886, "rating": -1, "num_reviews": 0, "website": null, "contact_phone": "+1 240-362-7357", "contact_email": null, "status": 1, "source_type": 1, "numberReviews": 0}, {"name": "Bauer Premium Cuts and Deli", "type": "restaurant", "image": null, "address": "11506 Bedford Rd NE, Cumberland, MD 21502-6804", "lat": 39.68122, "lng": -78.73471, "ref_id": 26904703, "rating": -1, "num_reviews": 0, "website": "https://www.facebook.com/466266703574729", "contact_phone": "+13017243354", "contact_email": null, "status": 1, "source_type": 1, "numberReviews": 0}, {"name": "Burg Mountain Pub Co", "type": "restaurant", "image": null, "address": "46 E College Ave, Frostburg, MD 21532-1820", "lat": 39.65341, "lng": -78.9299, "ref_id": 23827984, "rating": -1, "num_reviews": 0, "website": "http://www.facebook.com/TheBurg/", "contact_phone": "+1 240-284-2907", "contact_email": null, "status": 1, "source_type": 1, "numberReviews": 0}, {"name": "Moe's Southwest Grill", "type": "restaurant", "image": null, "address": "101 Braddock Rd, Frostburg, MD 21532-2303", "lat": 39.649876, "lng": -78.93456, "ref_id": 23566343, "rating": -1, "num_reviews": 0, "website": "https://locations.moes.com/md/frostburg/101-braddock-road?utm_source=extnet&utm_medium=organic&utm_campaign=locations_partner", "contact_phone": "+1 301-687-7075", "contact_email": null, "status": 1, "source_type": 1, "numberReviews": 0}, {"name": "Steers & Stripes Saloon", "type": "restaurant", "image": null, "address": "1714 Patterson Creek Village Pike, Cumberland, MD 26753", "lat": 39.536995, "lng": -78.74835, "ref_id": 26359756, "rating": -1, "num_reviews": 0, "website": "https://www.facebook.com/profile.php?id=100088554997027", "contact_phone": "+1 304-298-4380", "contact_email": "steersandstripes@yahoo.com", "status": 1, "source_type": 1, "numberReviews": 0}, {"name": "Shogun", "type": "restaurant", "image": "https://dynamic-media-cdn.tripadvisor.com/media/photo-o/1f/ef/77/b7/shogun-frostburg-md.jpg?w=1000&s=1", "address": "104 E Main St, Frostburg, MD 21532-1304", "lat": 39.65624, "lng": -78.92562, "ref_id": 19291643, "rating": -1, "num_reviews": 0, "website": "http://www.shogunfrostburg.com", "contact_phone": "+1 240-284-2666", "contact_email": null, "status": 1, "source_type": 1, "numberReviews": 0}, {"name": "Ali Ghan Sultan Bar", "type": "restaurant", "image": null, "address": "13100 Ali Ghan Rd NE, Cumberland, MD 21502-6779", "lat": 39.671413, "lng": -78.721954, "ref_id": 26921818, "rating": -1, "num_reviews": 0, "website": "http://www.alighanshriners.com", "contact_phone": "+1 301-722-5970", "contact_email": null, "status": 1, "source_type": 1, "numberReviews": 0}, {"name": "Unbottled", "type": "restaurant", "image": null, "address": "620 Columbia Ave, Cumberland, MD 21502-1511", "lat": 39.66024, "lng": -78.77122, "ref_id": 26923302, "rating": -1, "num_reviews": 0, "website": "https://www.facebook.com/823404201111661", "contact_phone": "+1 240-362-7094", "contact_email": null, "status": 1, "source_type": 1, "numberReviews": 0}, {"name": "Dunkin'", "type": "restaurant", "image": null, "address": "10711 New Georges Creek Road Southwest, Frostburg, MD 21532", "lat": 39.64884, "lng": -78.910446, "ref_id": 27723337, "rating": -1, "num_reviews": 0, "website": null, "contact_phone": "+1 301-533-8122", "contact_email": null, "status": 1, "source_type": 1, "numberReviews": 0}, {"name": "Good Fellowship Club", "type": "restaurant", "image": null, "address": "225 Virginia Ave, Cumberland, MD 21502-3954", "lat": 39.63591, "lng": -78.76323, "ref_id": 26930470, "rating": -1, "num_reviews": 0, "website": null, "contact_phone": "+1 301-724-3066", "contact_email": null, "status": 1, "source_type": 1, "numberReviews": 0}, {"name": "Aldi Usa", "type": "restaurant", "image": null, "address": "12405 Winchester Rd Sw, Cumberland, MD 21502-6548", "lat": 39.62632, "lng": -78.83999, "ref_id": 26915876, "rating": -1, "num_reviews": 0, "website": "https://stores.aldi.us/md/lavale/12405-winchester-rd-sw?utm_source=fb&utm_medium=local&utm_campaign=brand&utm_content=storepage_webclick", "contact_phone": "+1 855-955-2534", "contact_email": null, "status": 1, "source_type": 1, "numberReviews": 0}, {"name": "Bacon & Bird", "type": "restaurant", "image": null, "address": "12503 McMullen Hwy SW, Cumberland, MD 21502-5149", "lat": 39.62454, "lng": -78.80598, "ref_id": 26965617, "rating": -1, "num_reviews": 0, "website": "https://www.facebook.com/104561769042132", "contact_phone": "+1 240-362-7670", "contact_email": null, "status": 1, "source_type": 1, "numberReviews": 0}, {"name": "Ellerslie Tavern", "type": "restaurant", "image": null, "address": "14400 Schellsburg Rd, Ellerslie, MD 21529-1190", "lat": 39.720512, "lng": -78.774086, "ref_id": 26899458, "rating": -1, "num_reviews": 0, "website": "https://www.facebook.com/282839085143013", "contact_phone": "+1 240-362-7375", "contact_email": null, "status": 1, "source_type": 1, "numberReviews": 0}, {"name": "Lobby Lounge & Cafe", "type": "restaurant", "image": null, "address": "16701 Lakeview Rd Ne, Flintstone, MD 21530-1059", "lat": 39.700233, "lng": -78.656494, "ref_id": 26882450, "rating": -1, "num_reviews": 0, "website": "https://www.facebook.com/104469921722323", "contact_phone": "+13017848400", "contact_email": null, "status": 1, "source_type": 1, "numberReviews": 0}, {"name": "Shaff's Tavern", "type": "restaurant", "image": null, "address": "15523 Mt Savage Rd NW, Mount Savage, MD 21545", "lat": 39.69607, "lng": -78.87627, "ref_id": 26955352, "rating": -1, "num_reviews": 0, "website": "https://www.facebook.com/121099034570220", "contact_phone": "+1 301-264-3100", "contact_email": null, "status": 1, "source_type": 1, "numberReviews": 0}, {"name": "Hurry Back Tavern", "type": "restaurant", "image": null, "address": "220 W Main St, Frostburg, MD 21532-1501", "lat": 39.665543, "lng": -78.936066, "ref_id": 26899456, "rating": -1, "num_reviews": 0, "website": "http://charliesmotelusa.com", "contact_phone": "+1 240-284-9540", "contact_email": null, "status": 1, "source_type": 1, "numberReviews": 0}, {"name": "Gino's Pizza & Spaghetti House", "type": "restaurant", "image": "https://dynamic-media-cdn.tripadvisor.com/media/photo-o/19/5e/2e/4b/gino-s-pizza-spaghetti.jpg?w=1000&s=1", "address": "2159 Main St, Clay, WV 25043-9719", "lat": 38.475853, "lng": -81.08087, "ref_id": 3891535, "rating": 4, "num_reviews": 0, "website": "http://www.ginospizza.com", "contact_phone": "+1 304-587-7321", "contact_email": "comments@ginospizza.com", "status": 1, "source_type": 1, "numberReviews": 3}, {"name": "Tudor's Biscuit World", "type": "restaurant", "image": "https://dynamic-media-cdn.tripadvisor.com/media/photo-o/09/b2/d0/5b/tudor-s-biscuit-world.jpg?w=1000&s=1", "address": "2159 Main St, Clay, WV 25043-9719", "lat": 38.475853, "lng": -81.08087, "ref_id": 3874491, "rating": 4, "num_reviews": 0, "website": "http://www.tudorsbiscuitworld.com", "contact_phone": "+1 304-587-4632", "contact_email": "contact@tudorsbiscuitworld.com", "status": 1, "source_type": 1, "numberReviews": 4}, {"name": "Subway", "type": "restaurant", "image": null, "address": "2158 Main St, Clay, WV 25043", "lat": 38.475597, "lng": -81.08094, "ref_id": 4518723, "rating": 3, "num_reviews": 0, "website": "https://restaurants.subway.com/united-states/wv/clay/2158-main-st?utm_source=yext-other&utm_medium=local&utm_term=acq&utm_content=24089&utm_campaign=evergreen-2020&y_source=1_MTQ5MDIyOTAtNzY5LWxvY2F0aW9uLndlYnNpdGU%3D", "contact_phone": "+1 304-587-2000", "contact_email": null, "status": 1, "source_type": 1, "numberReviews": 1}, {"name": "Legacy Foods", "type": "restaurant", "image": null, "address": "10840 Clay Hwy, Indore, WV 25111-8007", "lat": 38.3528, "lng": -81.1469, "ref_id": 26903722, "rating": -1, "num_reviews": 0, "website": "http://www.legacyfoodswv.com", "contact_phone": "+1 304-587-3041", "contact_email": null, "status": 1, "source_type": 1, "numberReviews": 0}, {"name": "Big Otter Diner", "type": "restaurant", "image": null, "address": "6032 Big Otter Hwy, Ivydale, WV 25113-8342", "lat": 38.591545, "lng": -81.04241, "ref_id": 25070103, "rating": -1, "num_reviews": 0, "website": "https://www.facebook.com/profile.php?id=100084825214816", "contact_phone": "+1 304-402-8264", "contact_email": null, "status": 1, "source_type": 1, "numberReviews": 0}, {"name": "Bickmore Custom Meats", "type": "restaurant", "image": null, "address": "28 Fola Rd, Bickmore, WV 25019", "lat": 38.381485, "lng": -81.11168, "ref_id": 26912189, "rating": -1, "num_reviews": 0, "website": "", "contact_phone": "+1 304-587-4115", "contact_email": null, "status": 1, "source_type": 1, "numberReviews": 0}, {"name": "Phat Daddy's bar, hotspot and restaurant", "type": "restaurant", "image": null, "address": "5806 Good Hope Pike, Clarksburg, WV 26301-6861", "lat": 39.208813, "lng": -80.41601, "ref_id": 26894540, "rating": -1, "num_reviews": 0, "website": "", "contact_phone": "+1 304-745-5615", "contact_email": null, "status": 1, "source_type": 1, "numberReviews": 0}, {"name": "Price Cutter", "type": "restaurant", "image": null, "address": "460 E Main St, Bridgeport, WV 26330-1847", "lat": 39.289192, "lng": -80.24272, "ref_id": 26882808, "rating": -1, "num_reviews": 0, "website": "http://shopmypricecutter.com/", "contact_phone": "+1 304-842-1007", "contact_email": null, "status": 1, "source_type": 1, "numberReviews": 0}, {"name": "Charleys Philly Steaks", "type": "restaurant", "image": null, "address": "2399 Meadowbrook Mall Spc F-8007, Bridgeport, WV 26330-9017", "lat": 39.31412, "lng": -80.27299, "ref_id": 20298718, "rating": -1, "num_reviews": 0, "website": "http://charleys.com", "contact_phone": "+1 304-842-6161", "contact_email": null, "status": 1, "source_type": 1, "numberReviews": 0}, {"name": "Stonewall Coffee - Bridgeport, WV", "type": "restaurant", "image": null, "address": "1219 Johnson Ave, Bridgeport, WV 26330-1353", "lat": 39.29888, "lng": -80.2765, "ref_id": 26972381, "rating": -1, "num_reviews": 0, "website": "http://www.stonewallcoffee.com", "contact_phone": "+1 304-841-6230", "contact_email": null, "status": 1, "source_type": 1, "numberReviews": 0}, {"name": "Little Caesars Pizza", "type": "restaurant", "image": null, "address": "90 Wilsonburg Road, Clarksburg, WV 26301", "lat": 39.286667, "lng": -80.385216, "ref_id": 25485891, "rating": -1, "num_reviews": 0, "website": null, "contact_phone": null, "contact_email": null, "status": 1, "source_type": 1, "numberReviews": 0}, {"name": "Foxfire Grille", "type": "restaurant", "image": "https://dynamic-media-cdn.tripadvisor.com/media/photo-o/05/ab/ec/c7/restaurant-interior.jpg?w=1000&s=1", "address": "10 Snowshoe Dr Rimfire Lodge, Snowshoe, WV 26209", "lat": 38.411407, "lng": -79.99625, "ref_id": 1570863, "rating": 4, "num_reviews": 0, "website": "http://www.foxfiregrille.com", "contact_phone": "+1 304-572-5555", "contact_email": "smedia@foxfiregrille.com", "status": 1, "source_type": 1, "numberReviews": 499}, {"name": "Old Spruce Cafe and Tavern", "type": "restaurant", "image": "https://dynamic-media-cdn.tripadvisor.com/media/photo-o/03/cf/6a/e6/getlstd-property-photo.jpg?w=1000&s=1", "address": "10 Snowshoe Drive, Snowshoe, WV 26209", "lat": 38.41202, "lng": -79.99659, "ref_id": 4128624, "rating": 4.5, "num_reviews": 0, "website": "http://www.oldsprucetavern.com", "contact_phone": "+1 304-572-1020", "contact_email": "oldsprucetavern@gmail.com", "status": 1, "source_type": 1, "numberReviews": 125}, {"name": "Cheat Mountain Pizza Company", "type": "restaurant", "image": "https://dynamic-media-cdn.tripadvisor.com/media/photo-o/16/80/4e/74/photo0jpg.jpg?w=1000&s=1", "address": "10 Snowshoe Dr, Snowshoe, WV 26291-1201", "lat": 38.410973, "lng": -79.9956, "ref_id": 523286, "rating": 3.5, "num_reviews": 0, "website": "http://www.snowshoemtn.com/things-to-do/dining/cheat-mountain-pizza", "contact_phone": "877-441-4FUN", "contact_email": "", "status": 1, "source_type": 1, "numberReviews": 315}, {"name": "Tuque's Bar & Grill", "type": "restaurant", "image": "https://dynamic-media-cdn.tripadvisor.com/media/photo-o/1a/dd/67/ea/tuque-s-bar-grill.jpg?w=1000&s=1", "address": "5811 Snowshoe Dr. At Corduroy Inn, across from Cupp Run, Snowshoe, WV 24934", "lat": 38.4161, "lng": -79.99722, "ref_id": 13234502, "rating": 4.5, "num_reviews": 0, "website": "http://www.tuquesbar.com", "contact_phone": "+1 304-572-2030", "contact_email": null, "status": 1, "source_type": 1, "numberReviews": 38}, {"name": "Appalachia Kitchen", "type": "restaurant", "image": "https://dynamic-media-cdn.tripadvisor.com/media/photo-o/12/56/b0/94/very-comfortable-restaurant.jpg?w=1000&s=1", "address": "5811 Snowshoe Drive, Snowshoe, WV 26209", "lat": 38.415764, "lng": -79.99663, "ref_id": 12978285, "rating": 4, "num_reviews": 0, "website": "http://www.appalachiakitchen.com/", "contact_phone": "+1 304-572-2030", "contact_email": "info@corduroyinn.com", "status": 1, "source_type": 1, "numberReviews": 57}, {"name": "The Last Run Restaurant", "type": "restaurant", "image": "https://dynamic-media-cdn.tripadvisor.com/media/photo-o/0f/ed/7c/36/dining-room.jpg?w=1000&s=1", "address": "State Rt. 28/92 North between Dunmore and Green Bank, Cass Scenic Railroad State Park, Cass, WV 24927", "lat": 38.397076, "lng": -79.91458, "ref_id": 1572184, "rating": 4, "num_reviews": 0, "website": "http://www.cassrailroad.com/new.html", "contact_phone": "+1 304-456-9952", "contact_email": "", "status": 1, "source_type": 1, "numberReviews": 120}, {"name": "Station 2 Restaurant & Motel", "type": "restaurant", "image": "https://dynamic-media-cdn.tripadvisor.com/media/photo-o/0d/0a/a1/8b/inside.jpg?w=1000&s=1", "address": "RT 250 Main St., Durbin, WV 26264", "lat": 38.5496, "lng": -79.83068, "ref_id": 1911661, "rating": 4, "num_reviews": 0, "website": "http://www.visitstation2.com", "contact_phone": "+1 304-456-4506", "contact_email": "varner@frontiernet.net", "status": 1, "source_type": 1, "numberReviews": 60}, {"name": "The Pizza Slice", "type": "restaurant", "image": "https://dynamic-media-cdn.tripadvisor.com/media/photo-o/1c/a3/17/18/craft-beer-available.jpg?w=1000&s=1", "address": "5811 Snowshoe Dr Corduroy Inn, Snowshoe, WV 26209", "lat": 38.415977, "lng": -79.997154, "ref_id": 23150595, "rating": 4.5, "num_reviews": 0, "website": "http://www.snowshoepizza.com/", "contact_phone": "+1 304-572-0120", "contact_email": "info@corduroyinn.com", "status": 1, "source_type": 1, "numberReviews": 16}, {"name": "Old Spruce Brewery", "type": "restaurant", "image": "https://dynamic-media-cdn.tripadvisor.com/media/photo-o/1a/dd/68/dd/old-spruce-brewery.jpg?w=1000&s=1", "address": "85 Rescue Rd, Snowshoe, WV 26209-1701", "lat": 38.43999, "lng": -79.97557, "ref_id": 19933208, "rating": 5, "num_reviews": 0, "website": "https://www.facebook.com/OldSpruceBrew/", "contact_phone": "+1 304-572-0391", "contact_email": "oldsprucebrew@gmail.com", "status": 1, "source_type": 1, "numberReviews": 6}, {"name": "Krissis Country Roadhouse", "type": "restaurant", "image": null, "address": "4771 Staunton Parkersburg Turnpike, Durbin, WV 26264-9078", "lat": 38.545536, "lng": -79.82361, "ref_id": 24858086, "rating": 5, "num_reviews": 0, "website": "http://krissiscountryroadhouse.com", "contact_phone": "+1 304-456-4699", "contact_email": "krissi@krissiscountryroadhouse.com", "status": 1, "source_type": 1, "numberReviews": 3}, {"name": "10 Prime Steakhouse and Bar", "type": "restaurant", "image": "https://dynamic-media-cdn.tripadvisor.com/media/photo-o/29/a4/4b/43/caption.jpg?w=1000&s=1", "address": "10 Snowshoe Dr, Snowshoe, WV 26209-1700", "lat": 38.42734, "lng": -79.99784, "ref_id": 23679460, "rating": 4, "num_reviews": 0, "website": "", "contact_phone": "+1 304-572-5821", "contact_email": null, "status": 1, "source_type": 1, "numberReviews": 5}, {"name": "Nick B's", "type": "restaurant", "image": "https://dynamic-media-cdn.tripadvisor.com/media/photo-o/0e/5d/4f/8e/the-miami.jpg?w=1000&s=1", "address": "10 Snowshoe Dr, Snowshoe, WV 26291-1201", "lat": 38.41202, "lng": -79.99659, "ref_id": 11967482, "rating": 4.5, "num_reviews": 0, "website": null, "contact_phone": "+1 304-572-5676", "contact_email": null, "status": 1, "source_type": 1, "numberReviews": 5}, {"name": "Bears Den", "type": "restaurant", "image": "https://dynamic-media-cdn.tripadvisor.com/media/photo-o/08/b8/c2/4b/modest-from-the-outside.jpg?w=1000&s=1", "address": "10811 Potomac Highlands Trl Arbovale, West Virginia, Green Bank, WV 24915-5471", "lat": 38.42249, "lng": -79.83021, "ref_id": 8448192, "rating": 4.5, "num_reviews": 0, "website": null, "contact_phone": null, "contact_email": null, "status": 1, "source_type": 1, "numberReviews": 4}, {"name": "Hoot's Bar & Grill", "type": "restaurant", "image": "https://dynamic-media-cdn.tripadvisor.com/media/photo-o/1c/be/da/99/chicken-tenders-not-tender.jpg?w=1000&s=1", "address": "10 Snowshoe Dr, Snowshoe, WV 26209-1700", "lat": 38.40186, "lng": -79.99349, "ref_id": 1570897, "rating": 2.5, "num_reviews": 0, "website": "https://www.facebook.com/hootswv/", "contact_phone": "+1 304-572-5456", "contact_email": "", "status": 1, "source_type": 1, "numberReviews": 41}, {"name": "Mountain State Cakes", "type": "restaurant", "image": null, "address": "17 Potomac Highlands Trl, Dunmore, WV 24934-9222", "lat": 38.359734, "lng": -79.881226, "ref_id": 26984444, "rating": -1, "num_reviews": 0, "website": "http://www.mountainstatecakes.com", "contact_phone": "+1 304-456-3176", "contact_email": null, "status": 1, "source_type": 1, "numberReviews": 0}, {"name": "Homegrown Harvest", "type": "restaurant", "image": null, "address": "4914 Potomac Highlands Trl, Green Bank, WV 24944-8507", "lat": 38.41651, "lng": -79.83968, "ref_id": 26959560, "rating": -1, "num_reviews": 0, "website": "", "contact_phone": "+1 681-620-8161", "contact_email": null, "status": 1, "source_type": 1, "numberReviews": 0}, {"name": "The Market on Courthouse Square", "type": "restaurant", "image": "https://dynamic-media-cdn.tripadvisor.com/media/photo-o/24/83/d2/02/seating-is-available.jpg?w=1000&s=1", "address": "200 Ballengee St corner of Second Avenue and Ballengee Street, Hinton, WV 25951-2319", "lat": 37.67282, "lng": -80.89059, "ref_id": 2216378, "rating": 4.5, "num_reviews": 0, "website": "http://www.TheMarketWV.com", "contact_phone": "+1 304-466-6626", "contact_email": "enjoy@themarketwv.com", "status": 1, "source_type": 1, "numberReviews": 159}, {"name": "Mountain Creek Restaurant at Pipestem", "type": "restaurant", "image": "https://dynamic-media-cdn.tripadvisor.com/media/photo-o/14/53/4e/42/img-20180825-164651463.jpg?w=1000&s=1", "address": "Pipestem State Park Resort, Pipestem, WV", "lat": 37.51184, "lng": -80.9677, "ref_id": 3528729, "rating": 4, "num_reviews": 0, "website": "http://www.pipestemresort.com/accommodations.html", "contact_phone": "+1 304-466-1800", "contact_email": "pipestemsp@wv.gov", "status": 1, "source_type": 1, "numberReviews": 68}, {"name": "The Oak", "type": "restaurant", "image": "https://dynamic-media-cdn.tripadvisor.com/media/photo-o/2a/6f/c3/f0/available-for-private.jpg?w=1000&s=1", "address": "4 Bailey Drive, Pipestem, WV 25979", "lat": 37.514614, "lng": -80.963715, "ref_id": 3321748, "rating": 4.5, "num_reviews": 0, "website": "http://www.diningattheoak.com", "contact_phone": "+1 304-466-4800", "contact_email": "diningattheoak.com@gmail.com", "status": 1, "source_type": 1, "numberReviews": 44}, {"name": "Moe's", "type": "restaurant", "image": null, "address": "5811 Athens Road, Athens, WV 24712", "lat": 37.4158, "lng": -81.01589, "ref_id": 8748431, "rating": 4.5, "num_reviews": 0, "website": "http://www.facebook.com/Moes-Restaurant-Caf%C3%A9-805721316221163", "contact_phone": "+1 304-384-8247", "contact_email": null, "status": 1, "source_type": 1, "numberReviews": 15}, {"name": "Farmers Kountry Kitchen", "type": "restaurant", "image": "https://dynamic-media-cdn.tripadvisor.com/media/photo-o/2c/63/8a/e5/caption.jpg?w=1000&s=1", "address": "3301 Flat Top Rd In with EXXON, Ghent, WV 25843", "lat": 37.617344, "lng": -81.1143, "ref_id": 17329096, "rating": 4.5, "num_reviews": 0, "website": "https://farmerskountrykitchen.com/", "contact_phone": "3042232502", "contact_email": null, "status": 1, "source_type": 1, "numberReviews": 17}, {"name": "Angelo's Pizzeria", "type": "restaurant", "image": "https://dynamic-media-cdn.tripadvisor.com/media/photo-o/1a/11/b1/b9/boneless-wings.jpg?w=1000&s=1", "address": "Pine Plaza Shopping Center 1211 Stafford Drive, Princeton, WV 24740", "lat": 37.4233, "lng": -81.02615, "ref_id": 3190766, "rating": 3.5, "num_reviews": 0, "website": "http://www.angelospizzaonline.com/", "contact_phone": "+1 304-487-8924", "contact_email": "angelospizza.2019@gmail.com", "status": 1, "source_type": 1, "numberReviews": 76}, {"name": "Pipestem Trading Post", "type": "restaurant", "image": "https://dynamic-media-cdn.tripadvisor.com/media/photo-o/22/ac/54/01/breakfast-menu.jpg?w=1000&s=1", "address": "4265 Hinton Rd. Athens, West Virginia, Pipestem, WV 24712-9659", "lat": 37.47342, "lng": -81.00841, "ref_id": 17431826, "rating": 4, "num_reviews": 0, "website": "http://www.facebook.com/pages/Pipestem-Trading-Post/111454562241634", "contact_phone": "+1 304-384-7242", "contact_email": null, "status": 1, "source_type": 1, "numberReviews": 7}, {"name": "Bluestone Dining Room at Pipestem State Park", "type": "restaurant", "image": "https://dynamic-media-cdn.tripadvisor.com/media/photo-o/0d/69/55/6e/20161017-130935-largejpg.jpg?w=1000&s=1", "address": "3405 Pipestem Drive Restaurant is located in the Pipestem Lodge and is the only place currently open to eat., Pipestem, WV", "lat": 37.541973, "lng": -80.98208, "ref_id": 10337511, "rating": 3.5, "num_reviews": 0, "website": "http://www.pipestemresort.com/Dinner%20Menu.pdf", "contact_phone": "+1 304-466-1800", "contact_email": null, "status": 1, "source_type": 1, "numberReviews": 72}, {"name": "Aziza", "type": "restaurant", "image": "https://dynamic-media-cdn.tripadvisor.com/media/photo-o/29/74/62/f3/caption.jpg?w=1000&s=1", "address": "846 Hinton Bypass, Hinton, WV 25951", "lat": 37.67484, "lng": -80.88826, "ref_id": 26219555, "rating": 4.5, "num_reviews": 0, "website": null, "contact_phone": null, "contact_email": null, "status": 1, "source_type": 1, "numberReviews": 2}, {"name": "Subway", "type": "restaurant", "image": null, "address": "125 Odd Rd Marathon Gas, Ghent, WV 25843", "lat": 37.615913, "lng": -81.11552, "ref_id": 5504158, "rating": 3.5, "num_reviews": 0, "website": "https://restaurants.subway.com/united-states/wv/ghent/125-odd-rd?utm_source=yext-other&utm_medium=local&utm_term=acq&utm_content=24686&utm_campaign=evergreen-2020&y_source=1_MTQ5MDE5NDMtNzY5LWxvY2F0aW9uLndlYnNpdGU%3D", "contact_phone": "+1 304-787-4800", "contact_email": null, "status": 1, "source_type": 1, "numberReviews": 11}, {"name": "Triangle One Stop", "type": "restaurant", "image": null, "address": "230 Pleasant St, Hinton, WV 25951-2537", "lat": 37.66097, "lng": -80.89261, "ref_id": 7154766, "rating": 4.5, "num_reviews": 0, "website": null, "contact_phone": "+1 304-466-0596", "contact_email": null, "status": 1, "source_type": 1, "numberReviews": 2}, {"name": "Gino's Pizza & Spaghetti House", "type": "restaurant", "image": null, "address": "100 Vermillion St, Athens, WV 24712-1130", "lat": 37.423157, "lng": -81.01594, "ref_id": 3891401, "rating": 3, "num_reviews": 0, "website": "www.ginospizza.com", "contact_phone": "+1 304-384-7970", "contact_email": "comments@ginospizza.com", "status": 1, "source_type": 1, "numberReviews": 6}, {"name": "Subway", "type": "restaurant", "image": null, "address": "11 Hc 76 Cantrell Canoeing, Hinton, WV 25951", "lat": 37.655838, "lng": -80.894005, "ref_id": 5572109, "rating": 3, "num_reviews": 0, "website": "https://restaurants.subway.com/united-states/wv/hinton/11-hc-76?utm_source=yext-other&utm_medium=local&utm_term=acq&utm_content=17217&utm_campaign=evergreen-2020&y_source=1_MTQ5MTI1NjctNzY5LWxvY2F0aW9uLndlYnNpdGU%3D", "contact_phone": "+1 304-466-6878", "contact_email": null, "status": 1, "source_type": 1, "numberReviews": 2}, {"name": "McDonald's", "type": "restaurant", "image": null, "address": "107 Main Street, Hinton, WV 25951", "lat": 37.65686, "lng": -80.88794, "ref_id": 5091522, "rating": 2.5, "num_reviews": 0, "website": "https://www.mcdonalds.com/us/en-us/location/wv/hinton/sr-107-main-st/12766.html?cid=RF:YXT:RoN::Clicks", "contact_phone": "+1 304-466-0084", "contact_email": null, "status": 1, "source_type": 1, "numberReviews": 5}, {"name": "Pizza Hut", "type": "restaurant", "image": "https://dynamic-media-cdn.tripadvisor.com/media/photo-o/15/ae/89/5c/photo0jpg.jpg?w=1000&s=1", "address": "107 State St, Hinton, WV 25951", "lat": 37.65462, "lng": -80.8848, "ref_id": 4628875, "rating": 2.5, "num_reviews": 0, "website": "https://locations.pizzahut.com/wv/hinton/state-rte-107?utm_medium=organic&utm_source=local&utm_campaign=yextpowerlistings&utm_content=website&utm_term=296157", "contact_phone": "+1 304-466-0245", "contact_email": "rs007488@pizzahut.com", "status": 1, "source_type": 1, "numberReviews": 11}, {"name": "Rivercity Grill & Pub", "type": "restaurant", "image": null, "address": "122 Hinton Bypass, Hinton, WV 25981", "lat": 37.65186, "lng": -80.889435, "ref_id": 26724598, "rating": 1, "num_reviews": 0, "website": null, "contact_phone": null, "contact_email": null, "status": 1, "source_type": 1, "numberReviews": 2}, {"name": "Aziza Pizza & Subs", "type": "restaurant", "image": null, "address": "846 Hinton Bypass, Hinton, WV 25951", "lat": 37.67484, "lng": -80.88826, "ref_id": 26218874, "rating": -1, "num_reviews": 0, "website": null, "contact_phone": "+1 304-466-1069", "contact_email": null, "status": 1, "source_type": 1, "numberReviews": 0}, {"name": "Godfather's Pizza", "type": "restaurant", "image": null, "address": "125 Odd Rd, Ghent, WV 25843-4000", "lat": 37.61654, "lng": -81.11531, "ref_id": 26970417, "rating": -1, "num_reviews": 0, "website": "https://www.godfathers.com/", "contact_phone": "+13047876209", "contact_email": null, "status": 1, "source_type": 1, "numberReviews": 0}, {"name": "Hunt Brothers Pizza", "type": "restaurant", "image": null, "address": "230 Pleasant Street Triangle One Stop, Hinton, WV 25951", "lat": 37.660988, "lng": -80.892624, "ref_id": 27763106, "rating": -1, "num_reviews": 0, "website": "https://www.huntbrotherspizza.com/location-details/55947/", "contact_phone": "+1 304-466-0596", "contact_email": null, "status": 1, "source_type": 1, "numberReviews": 0}, {"name": "The Oak", "type": "restaurant", "image": null, "address": "100 Pipestem Knob Rd, Pipestem, WV 25979-7975", "lat": 37.51469, "lng": -80.96352, "ref_id": 26925470, "rating": -1, "num_reviews": 0, "website": "https://www.facebook.com/148263628566267", "contact_phone": "+13044664800", "contact_email": null, "status": 1, "source_type": 1, "numberReviews": 0}, {"name": "M&M Pizza", "type": "restaurant", "image": null, "address": "216 Springfield Pike, Springfield, WV 26763", "lat": 39.44842, "lng": -78.69095, "ref_id": 26907970, "rating": -1, "num_reviews": 0, "website": "http://www.dominos.net", "contact_phone": "+13048223176", "contact_email": null, "status": 1, "source_type": 1, "numberReviews": 0}, {"name": "Undos West", "type": "restaurant", "image": "https://dynamic-media-cdn.tripadvisor.com/media/photo-o/19/26/18/90/20190906-174359-largejpg.jpg?w=1000&s=1", "address": "51130 National Rd, Saint Clairsville, OH 43950-9118", "lat": 40.07417, "lng": -80.86496, "ref_id": 511923, "rating": 4, "num_reviews": 0, "website": "http://www.undos.com/", "contact_phone": "+1 740-695-8888", "contact_email": "", "status": 1, "source_type": 1, "numberReviews": 116}, {"name": "El Paso Mexican Grill", "type": "restaurant", "image": "https://dynamic-media-cdn.tripadvisor.com/media/photo-o/18/bd/c4/60/photo0jpg.jpg?w=1000&s=1", "address": "410 Cabela Dr, Triadelphia, WV 26059-1156", "lat": 40.058067, "lng": -80.601494, "ref_id": 2338122, "rating": 4, "num_reviews": 0, "website": "https://elpasotriadelphia.com/", "contact_phone": "+1 304-547-0078", "contact_email": "", "status": 1, "source_type": 1, "numberReviews": 82}, {"name": "Primanti Bros. Restaurant and Bar", "type": "restaurant", "image": "https://dynamic-media-cdn.tripadvisor.com/media/photo-o/0e/bb/cf/bb/home-of-the-almost-famous.jpg?w=1000&s=1", "address": "255 Cabela Drive, Triadelphia, WV 26059", "lat": 40.05811, "lng": -80.600204, "ref_id": 7295321, "rating": 3.5, "num_reviews": 0, "website": "https://primantibros.com/", "contact_phone": "+1 304-909-0239", "contact_email": "https://locations.primantibros.com/wv/triadelphia/48002/", "status": 1, "source_type": 1, "numberReviews": 129}, {"name": "Bridge Tavern and Grill", "type": "restaurant", "image": "https://dynamic-media-cdn.tripadvisor.com/media/photo-o/1b/54/04/b9/grilled-chicken-salad.jpg?w=1000&s=1", "address": "950 Main St at the corner of 10th Street and Main Street, Wheeling, WV 26003-2708", "lat": 40.07183, "lng": -80.72425, "ref_id": 3512430, "rating": 4.5, "num_reviews": 0, "website": "http://www.bridgetavernandgrill.com/", "contact_phone": "+1 304-232-1900", "contact_email": "sumner@bridgetavernandgrill.com", "status": 1, "source_type": 1, "numberReviews": 28}, {"name": "Olive Garden Italian Restaurant", "type": "restaurant", "image": "https://dynamic-media-cdn.tripadvisor.com/media/photo-o/17/57/78/a3/photo0jpg.jpg?w=1000&s=1", "address": "510 Cabela Drive, Triadelphia, WV 26059", "lat": 40.05514, "lng": -80.60154, "ref_id": 4660839, "rating": 4, "num_reviews": 0, "website": "https://www.olivegarden.com/locations/wv/triadelphia/triadelphia/1755", "contact_phone": "+1 304-547-1394", "contact_email": null, "status": 1, "source_type": 1, "numberReviews": 54}, {"name": "Outback Steakhouse", "type": "restaurant", "image": "https://dynamic-media-cdn.tripadvisor.com/media/photo-o/0a/7b/ca/f2/photo0jpg.jpg?w=1000&s=1", "address": "50575 Valley Frontage Rd, Saint Clairsville, OH 43950-1721", "lat": 40.072926, "lng": -80.87599, "ref_id": 461200, "rating": 4, "num_reviews": 0, "website": "https://locations.outback.com/ohio/st.-clairsville/50575-valley-frontage-road?utm_source=gmb&utm_medium=local_search&utm_campaign=website_cta&y_source=1_mtu1mdi0ntctntu5lwxvy2f0aw9ulndlynnpdgu%3d", "contact_phone": "+1 740-699-0737", "contact_email": "", "status": 1, "source_type": 1, "numberReviews": 90}, {"name": "DeFelice Bros. Pizza", "type": "restaurant", "image": "https://dynamic-media-cdn.tripadvisor.com/media/photo-o/1c/d8/40/d0/pizza-shop.jpg?w=1000&s=1", "address": "1000 National Rd, Wheeling, WV 26003-5774", "lat": 40.07821, "lng": -80.68871, "ref_id": 2213984, "rating": 4.5, "num_reviews": 0, "website": "http://eatdefelice.com", "contact_phone": "+1 304-232-8999", "contact_email": null, "status": 1, "source_type": 1, "numberReviews": 48}, {"name": "Oglebay Garden Bistro", "type": "restaurant", "image": "https://dynamic-media-cdn.tripadvisor.com/media/photo-o/0c/b6/b1/a3/20160826-175153-picsay.jpg?w=1000&s=1", "address": "465 Lodge Drive Oglebay, Wheeling, WV 26003-1967", "lat": 40.1006, "lng": -80.66164, "ref_id": 10733454, "rating": 4, "num_reviews": 0, "website": "http://oglebay.com/garden-bistro", "contact_phone": "+1 304-243-4112", "contact_email": "reservations@oglebay-resort.com", "status": 1, "source_type": 1, "numberReviews": 38}, {"name": "Grandmas Jo Polkadot Cafe", "type": "restaurant", "image": "https://dynamic-media-cdn.tripadvisor.com/media/photo-o/10/33/d5/f1/photo2jpg.jpg?w=1000&s=1", "address": "712 3rd St, Moundsville, WV 26041-1602", "lat": 39.92224, "lng": -80.74403, "ref_id": 4629998, "rating": 4, "num_reviews": 0, "website": "https://www.facebook.com/pages/category/Cafe/Grandma-Jos-Polka-Dot-Cafe-443165679070490/", "contact_phone": "+1 304-843-1813", "contact_email": null, "status": 1, "source_type": 1, "numberReviews": 39}, {"name": "Bubba's Gourmet Burghers & Beer", "type": "restaurant", "image": "https://dynamic-media-cdn.tripadvisor.com/media/photo-o/1a/b6/26/57/20200126-102202-largejpg.jpg?w=1000&s=1", "address": "300 Wharton Cir, Triadelphia, WV 26059-1293", "lat": 40.052376, "lng": -80.60523, "ref_id": 12140357, "rating": 4, "num_reviews": 0, "website": "https://www.facebook.com/bubbasburghershighlands/", "contact_phone": "+1 304-909-0214", "contact_email": "tracy@eatatbubbas.com", "status": 1, "source_type": 1, "numberReviews": 49}, {"name": "Perkins Restaurant & Bakery", "type": "restaurant", "image": "https://dynamic-media-cdn.tripadvisor.com/media/photo-o/0a/16/5a/36/turkey-dinner.jpg?w=1000&s=1", "address": "680 National Rd, Wheeling, WV 26003-6543", "lat": 40.074505, "lng": -80.702126, "ref_id": 2571618, "rating": 4, "num_reviews": 0, "website": "https://perkinsrestaurants.com/locations/us/wv/wheeling/680-national-road", "contact_phone": "+1 304-232-5772", "contact_email": "", "status": 1, "source_type": 1, "numberReviews": 74}, {"name": "Quaker Steak & Lube", "type": "restaurant", "image": "https://dynamic-media-cdn.tripadvisor.com/media/photo-o/13/90/c0/59/photo0jpg.jpg?w=1000&s=1", "address": "45 Satterfield Dr, Triadelphia, WV 26059-1397", "lat": 40.059093, "lng": -80.60007, "ref_id": 3372214, "rating": 3.5, "num_reviews": 0, "website": "http://thelube.com/locations/west-virginia/wheeling/", "contact_phone": "+1 304-547-1100", "contact_email": null, "status": 1, "source_type": 1, "numberReviews": 122}, {"name": "Nana's Pizza & Pie, LLC", "type": "restaurant", "image": "https://dynamic-media-cdn.tripadvisor.com/media/photo-o/18/1a/37/6f/20190628-120923-largejpg.jpg?w=1000&s=1", "address": "242 Jefferson Ave, Moundsville, WV 26041-1438", "lat": 39.922894, "lng": -80.74268, "ref_id": 13296601, "rating": 4.5, "num_reviews": 0, "website": "https://www.facebook.com/226767567817282", "contact_phone": "+1 304-810-2415", "contact_email": "nanaspizzaandpie@gmail.com", "status": 1, "source_type": 1, "numberReviews": 19}, {"name": "Bob Evans", "type": "restaurant", "image": "https://dynamic-media-cdn.tripadvisor.com/media/photo-o/0e/e7/8c/63/bob-evans-st-clairsville.jpg?w=1000&s=1", "address": "67881 Mall Rd, Saint Clairsville, OH 43950-1707", "lat": 40.070885, "lng": -80.864395, "ref_id": 4631631, "rating": 4, "num_reviews": 0, "website": "https://www.bobevans.com/locations/st-clairsville?utm_source=facebook&utm_medium=local&utm_campaign=90-st-clairsville-oh", "contact_phone": "+1 740-695-3900", "contact_email": "Unit.0090@bobevans.com", "status": 1, "source_type": 1, "numberReviews": 31}, {"name": "Mason Dixon Barbecue Company", "type": "restaurant", "image": "https://dynamic-media-cdn.tripadvisor.com/media/photo-o/15/7b/86/68/pulled-pork-topped-cheese.jpg?w=1000&s=1", "address": "115 Lafayette Ave, Moundsville, WV 26041-1028", "lat": 39.92934, "lng": -80.75194, "ref_id": 13562363, "rating": 4, "num_reviews": 0, "website": "http://www.facebook.com/MasonDixonBBQCo/", "contact_phone": "+1 304-810-5943", "contact_email": null, "status": 1, "source_type": 1, "numberReviews": 18}, {"name": "Zontini's Pizza", "type": "restaurant", "image": "https://dynamic-media-cdn.tripadvisor.com/media/photo-o/12/29/cc/ef/20180217-143327-largejpg.jpg?w=1000&s=1", "address": "100 S 4th St, Martins Ferry, OH 43935-1406", "lat": 40.09507, "lng": -80.72467, "ref_id": 5032110, "rating": 4.5, "num_reviews": 0, "website": "http://www.zontinispizza.com", "contact_phone": "+1 740-633-3222", "contact_email": null, "status": 1, "source_type": 1, "numberReviews": 21}, {"name": "Denny's", "type": "restaurant", "image": "https://dynamic-media-cdn.tripadvisor.com/media/photo-o/17/cb/2e/9c/photo0jpg.jpg?w=1000&s=1", "address": "68296 Red Roof Ln, Saint Clairsville, OH 43950-1705", "lat": 40.075073, "lng": -80.86875, "ref_id": 4642637, "rating": 4, "num_reviews": 0, "website": "https://www.facebook.com/335259306544733", "contact_phone": "+1 740-695-2036", "contact_email": null, "status": 1, "source_type": 1, "numberReviews": 46}, {"name": "Sarah's on Main", "type": "restaurant", "image": "https://dynamic-media-cdn.tripadvisor.com/media/photo-o/19/4d/ed/6b/sarah-s-on-main.jpg?w=1000&s=1", "address": "2122 Main St, Wheeling, WV 26003-2810", "lat": 40.0613, "lng": -80.72419, "ref_id": 15355386, "rating": 5, "num_reviews": 0, "website": "https://www.sarahsonmain.com/", "contact_phone": "+1 304-905-6881", "contact_email": "sarahsonmainwv@gmail.com", "status": 1, "source_type": 1, "numberReviews": 8}, {"name": "Original PJ's Varsity Pizza", "type": "restaurant", "image": "https://dynamic-media-cdn.tripadvisor.com/media/photo-o/24/d7/2f/1f/pj-special-pizza.jpg?w=1000&s=1", "address": "2203 Ohio St, Moundsville, WV 26041-1705", "lat": 39.92128, "lng": -80.72795, "ref_id": 2410294, "rating": 4.5, "num_reviews": 0, "website": "https://www.facebook.com/PJsVarsityPizza/", "contact_phone": "+1 304-810-4050", "contact_email": "info@originalpjspizza.com", "status": 1, "source_type": 1, "numberReviews": 18}, {"name": "Lil' Gerardo's", "type": "restaurant", "image": "https://dynamic-media-cdn.tripadvisor.com/media/photo-o/0d/c3/c2/56/lil-gerardo-s.jpg?w=1000&s=1", "address": "3393 Belmont St, Bellaire, OH 43906-1522", "lat": 40.01605, "lng": -80.74257, "ref_id": 4823472, "rating": 5, "num_reviews": 0, "website": "http://www.lilgerardos.com/", "contact_phone": "+1 740-671-9550", "contact_email": "lil.gerardos@yahoo.com", "status": 1, "source_type": 1, "numberReviews": 17}, {"name": "Gulla's Lunch", "type": "restaurant", "image": "https://dynamic-media-cdn.tripadvisor.com/media/photo-o/10/98/29/93/photo0jpg.jpg?w=1000&s=1", "address": "3073 Belmont St, Bellaire, OH 43906-1516", "lat": 40.01287, "lng": -80.74416, "ref_id": 4597365, "rating": 4.5, "num_reviews": 0, "website": "https://www.facebook.com/gullaslunch/", "contact_phone": "+1 740-671-9666", "contact_email": null, "status": 1, "source_type": 1, "numberReviews": 20}, {"name": "River City Ale Works", "type": "restaurant", "image": "https://dynamic-media-cdn.tripadvisor.com/media/photo-o/08/46/59/aa/photo0jpg.jpg?w=1000&s=1", "address": "1400 Main St, Wheeling, WV 26003-2824", "lat": 40.06564, "lng": -80.72324, "ref_id": 462565, "rating": 3.5, "num_reviews": 0, "website": "http://www.rivercitybanquets.com/", "contact_phone": "+1 304-233-4555", "contact_email": "jmiller74@comcast.net", "status": 1, "source_type": 1, "numberReviews": 95}, {"name": "Undo's", "type": "restaurant", "image": "https://dynamic-media-cdn.tripadvisor.com/media/photo-o/19/00/10/e9/photo0jpg.jpg?w=1000&s=1", "address": "753 Main St, Benwood, WV 26031-1122", "lat": 40.01524, "lng": -80.735596, "ref_id": 4800146, "rating": 4, "num_reviews": 0, "website": "http://www.undos.com", "contact_phone": "+1 304-233-0560", "contact_email": null, "status": 1, "source_type": 1, "numberReviews": 28}, {"name": "Eat'n Park", "type": "restaurant", "image": "https://dynamic-media-cdn.tripadvisor.com/media/photo-o/12/b8/59/1d/photo0jpg.jpg?w=1000&s=1", "address": "50620 Valley Centre Blvd, Saint Clairsville, OH 43950-1740", "lat": 40.07385, "lng": -80.8752, "ref_id": 3723559, "rating": 4, "num_reviews": 0, "website": "https://locations.eatnpark.com/oh/stclairsvle/restaurants-68.html", "contact_phone": "+1 740-695-5507", "contact_email": "social@eatnpark.com", "status": 1, "source_type": 1, "numberReviews": 33}, {"name": "Tito's Sloppy Doggs", "type": "restaurant", "image": "https://dynamic-media-cdn.tripadvisor.com/media/photo-o/1c/d4/f4/2b/titos.jpg?w=1000&s=1", "address": "1068 Market St, Wheeling, WV 26003-2959", "lat": 40.06886, "lng": -80.72255, "ref_id": 9826751, "rating": 4.5, "num_reviews": 0, "website": "https://www.facebook.com/titossloppydoggs", "contact_phone": "+1 304-650-6252", "contact_email": null, "status": 1, "source_type": 1, "numberReviews": 15}, {"name": "Steak 'n Shake", "type": "restaurant", "image": "https://dynamic-media-cdn.tripadvisor.com/media/photo-o/15/df/9d/d8/photo4jpg.jpg?w=1000&s=1", "address": "50840 Valley Frontage Rd, Saint Clairsville, OH 43950-1743", "lat": 40.07458, "lng": -80.87019, "ref_id": 4655184, "rating": 3.5, "num_reviews": 0, "website": "http://www.steaknshake.com/locations/23913-steak-n-shake-valley-frontage-rd-st-clairsville", "contact_phone": "+1 740-699-2812", "contact_email": null, "status": 1, "source_type": 1, "numberReviews": 64}, {"name": "Perkins Restaurant & Bakery", "type": "restaurant", "image": "https://dynamic-media-cdn.tripadvisor.com/media/photo-o/10/7f/e4/9c/booths-and-tables-galore.jpg?w=1000&s=1", "address": "105 Lafayette Ave, Moundsville, WV 26041-1028", "lat": 39.93018, "lng": -80.75217, "ref_id": 5242686, "rating": 4, "num_reviews": 0, "website": "https://perkinsrestaurants.com/locations/us/wv/moundsville/105-n--lafayette-avenue", "contact_phone": "+1 304-845-2290", "contact_email": null, "status": 1, "source_type": 1, "numberReviews": 32}, {"name": "19th Hole", "type": "restaurant", "image": "https://dynamic-media-cdn.tripadvisor.com/media/photo-o/1b/75/04/cf/photo0jpg.jpg?w=1000&s=1", "address": "780 National Rd, Wheeling, WV 26003-6545", "lat": 40.07624, "lng": -80.69761, "ref_id": 5038394, "rating": 4, "num_reviews": 0, "website": "https://www.facebook.com/19th-Hole-151357481350/", "contact_phone": "+1 304-232-9464", "contact_email": null, "status": 1, "source_type": 1, "numberReviews": 20}, {"name": "Hangover Bbq", "type": "restaurant", "image": "https://dynamic-media-cdn.tripadvisor.com/media/photo-o/1d/1c/33/e0/her-you-can-find-the.jpg?w=1000&s=1", "address": "39 Gc&p Road, Wheeling, WV", "lat": 40.090603, "lng": -80.68865, "ref_id": 23443120, "rating": 5, "num_reviews": 0, "website": null, "contact_phone": "+1 304-233-8333", "contact_email": null, "status": 1, "source_type": 1, "numberReviews": 5}, {"name": "Carlinis Pizza Shop", "type": "restaurant", "image": "https://dynamic-media-cdn.tripadvisor.com/media/photo-o/22/37/48/80/pizza-in-shadyside-ohio.jpg?w=1000&s=1", "address": "4010 Central Ave, Shadyside, OH 43947-1209", "lat": 39.97069, "lng": -80.75004, "ref_id": 8488900, "rating": 5, "num_reviews": 0, "website": "https://www.facebook.com/pages/category/Pizza-Place/Carlinis-Pizza-Shop-116380965057158/", "contact_phone": "+1 740-671-2100", "contact_email": null, "status": 1, "source_type": 1, "numberReviews": 10}, {"name": "Moe's Southwest Grill", "type": "restaurant", "image": "https://dynamic-media-cdn.tripadvisor.com/media/photo-o/10/59/13/86/moe-s-southwest-grill.jpg?w=1000&s=1", "address": "115 6th St, Ashland, KY 41101-7385", "lat": 38.486115, "lng": -82.64974, "ref_id": 4539725, "rating": 3.5, "num_reviews": 0, "website": "https://locations.moes.com/ky/ashland/115-6th-st?utm_source=extnet&utm_medium=organic&utm_campaign=locations_partner", "contact_phone": "+1 606-329-0833", "contact_email": null, "status": 1, "source_type": 1, "numberReviews": 17}, {"name": "Nomada Bakery", "type": "restaurant", "image": "https://dynamic-media-cdn.tripadvisor.com/media/photo-o/1d/7f/f4/fc/soup.jpg?w=1000&s=1", "address": "210 11th St Heritage Station, Suite 15, Huntington, WV 25701-1501", "lat": 38.423523, "lng": -82.440735, "ref_id": 19510645, "rating": 4, "num_reviews": 0, "website": "http://www.nomadabakery.com", "contact_phone": "+1 681-204-5528", "contact_email": "baked@nomadabakery.com", "status": 1, "source_type": 1, "numberReviews": 5}, {"name": "Giovanni's Pizza", "type": "restaurant", "image": "https://dynamic-media-cdn.tripadvisor.com/media/photo-o/0f/41/4f/71/giovanni-s-pizza.jpg?w=1000&s=1", "address": "6926 US Route 60, Ashland, KY 41102-9519", "lat": 38.42921, "lng": -82.69576, "ref_id": 5482399, "rating": 4, "num_reviews": 0, "website": "http://www.giovannispizzapower.com", "contact_phone": "+1 606-928-9541", "contact_email": null, "status": 1, "source_type": 1, "numberReviews": 20}, {"name": "Creekside Golf Course Restaurant", "type": "restaurant", "image": "https://dynamic-media-cdn.tripadvisor.com/media/photo-o/29/89/fa/33/caption.jpg?w=1000&s=1", "address": "400 Royal Birkdale Dr Creekside Golf Course, Lavalette, WV 25535-9623", "lat": 38.33075, "lng": -82.45739, "ref_id": 19753050, "rating": 4.5, "num_reviews": 0, "website": "https://www.creeksidegolfcourselavalette.com/menu/", "contact_phone": "+1 304-522-1010", "contact_email": null, "status": 1, "source_type": 1, "numberReviews": 2}, {"name": "Tudor's Biscuit World", "type": "restaurant", "image": "https://dynamic-media-cdn.tripadvisor.com/media/photo-o/08/02/4a/8b/tudor-s-biscuit-world.jpg?w=1000&s=1", "address": "2778 Winchester Ave, Ashland, KY 41101-1929", "lat": 38.47087, "lng": -82.6252, "ref_id": 6864309, "rating": 4, "num_reviews": 0, "website": "http://www.tudorsbiscuitworld.com", "contact_phone": "+1 606-325-3697", "contact_email": "contact@tudorsbiscuitworld.com", "status": 1, "source_type": 1, "numberReviews": 15}, {"name": "Giovanni's Pizza", "type": "restaurant", "image": null, "address": "4624 Waverly Rd, Huntington, WV 25704-1039", "lat": 38.39828, "lng": -82.52316, "ref_id": 5240585, "rating": 5, "num_reviews": 0, "website": "http://giovannispizzapower.com", "contact_phone": "+1 304-429-7197", "contact_email": null, "status": 1, "source_type": 1, "numberReviews": 2}, {"name": "Rally's Hamburgers", "type": "restaurant", "image": null, "address": "610 5th Ave, Huntington, WV 25701-2009", "lat": 38.41906, "lng": -82.44813, "ref_id": 4631569, "rating": 4, "num_reviews": 0, "website": "http://www.checkers.com", "contact_phone": "+1 304-525-5889", "contact_email": null, "status": 1, "source_type": 1, "numberReviews": 5}, {"name": "Tudor's Biscuit World", "type": "restaurant", "image": "https://dynamic-media-cdn.tripadvisor.com/media/photo-o/0e/19/d6/68/duke.jpg?w=1000&s=1", "address": "C and Main Street, Ceredo, WV 25507", "lat": 38.39602, "lng": -82.55881, "ref_id": 3874948, "rating": 4, "num_reviews": 0, "website": "www.tudorsbiscuitworld.com", "contact_phone": "+1 304-453-2850", "contact_email": "contact@tudorsbiscuitworld.com", "status": 1, "source_type": 1, "numberReviews": 12}, {"name": "Bellacino's Pizza & Grinders", "type": "restaurant", "image": null, "address": "380 Diederich Blvd, Ashland, KY 41101-7008", "lat": 38.50266, "lng": -82.68081, "ref_id": 8749401, "rating": 4.5, "num_reviews": 0, "website": "https://bellacinosgrinders.com/", "contact_phone": "+1 606-326-0000", "contact_email": null, "status": 1, "source_type": 1, "numberReviews": 4}, {"name": "Pour House Coffee", "type": "restaurant", "image": "https://dynamic-media-cdn.tripadvisor.com/media/photo-o/1a/d5/ae/dc/photo1jpg.jpg?w=1000&s=1", "address": "280 Russell Road, Russell, KY 41169", "lat": 38.5004, "lng": -82.67686, "ref_id": 19465070, "rating": 5, "num_reviews": 0, "website": "https://www.facebook.com/Pour-House-Coffee-712735745455768/", "contact_phone": "+60 6-324 7777", "contact_email": null, "status": 1, "source_type": 1, "numberReviews": 2}, {"name": "Arby's", "type": "restaurant", "image": null, "address": "12532 Us Route 60, Ashland, KY 41102-9687", "lat": 38.388947, "lng": -82.71409, "ref_id": 10467610, "rating": 4, "num_reviews": 0, "website": "https://locations.arbys.com/ky/ashland/12532-us-route-60.html", "contact_phone": "+1 606-928-7435", "contact_email": null, "status": 1, "source_type": 1, "numberReviews": 5}, {"name": "Chick-fil-A", "type": "restaurant", "image": null, "address": "1 John Marshall Dr, Huntington, WV 25703", "lat": 38.422405, "lng": -82.42896, "ref_id": 4462094, "rating": 5, "num_reviews": 0, "website": "http://www.chick-fil-a.com/", "contact_phone": "+1 304-696-3329", "contact_email": null, "status": 1, "source_type": 1, "numberReviews": 4}, {"name": "Bob Evans", "type": "restaurant", "image": null, "address": "103 County Road 406, South Point, OH 45680-8988", "lat": 38.418232, "lng": -82.51007, "ref_id": 4631756, "rating": 3.5, "num_reviews": 0, "website": "https://www.bobevans.com/locations/south-point?utm_source=facebook&utm_medium=local&utm_campaign=2054-south-point-oh", "contact_phone": "+1 740-894-4412", "contact_email": "Unit.2054@bobevans.com", "status": 1, "source_type": 1, "numberReviews": 27}, {"name": "Firehouse Subs", "type": "restaurant", "image": null, "address": "1548 3rd Ave, Huntington, WV 25701-1623", "lat": 38.424313, "lng": -82.432465, "ref_id": 11916981, "rating": 4.5, "num_reviews": 0, "website": "http://www.firehousesubs.com/locations/wv/marshall-university", "contact_phone": "+1 304-528-9100", "contact_email": null, "status": 1, "source_type": 1, "numberReviews": 4}, {"name": "McDonald's", "type": "restaurant", "image": null, "address": "3618 Louisa Rd, Catlettsburg, KY 41129-1019", "lat": 38.40248, "lng": -82.601364, "ref_id": 4960631, "rating": 3.5, "num_reviews": 0, "website": "https://www.mcdonalds.com/us/en-us/location/ky/catlettsburg/us-route-23-louisa-road/12232.html?cid=rf%3ayxt%3aron%3a%3aclicks%3fcid%3drf%3ayxt%3afb%3a%3aclicks", "contact_phone": "+1 606-739-6388", "contact_email": null, "status": 1, "source_type": 1, "numberReviews": 7}, {"name": "East Flavor", "type": "restaurant", "image": null, "address": "322 10th St, Huntington, WV 25701-1514", "lat": 38.41983, "lng": -82.44537, "ref_id": 25125267, "rating": 4.5, "num_reviews": 0, "website": "https://www.facebook.com/115510940298205", "contact_phone": "+13045226688", "contact_email": "lineast322@hotmail.com", "status": 1, "source_type": 1, "numberReviews": 3}, {"name": "El Ranchito Bar And Grill", "type": "restaurant", "image": null, "address": "2010 3rd Ave, Huntington, WV 25701", "lat": 38.425957, "lng": -82.42289, "ref_id": 27456270, "rating": 5, "num_reviews": 0, "website": null, "contact_phone": "+1 304-525-3434", "contact_email": null, "status": 1, "source_type": 1, "numberReviews": 1}, {"name": "Golden Corral Buffet & Grill", "type": "restaurant", "image": null, "address": "21 Russell Plaza Dr, Ashland, KY 41101-7082", "lat": 38.498528, "lng": -82.676056, "ref_id": 26902555, "rating": 5, "num_reviews": 0, "website": "https://www.facebook.com/849941771788247", "contact_phone": "+16063882381", "contact_email": null, "status": 1, "source_type": 1, "numberReviews": 1}, {"name": "Calamity J Grill & Bar", "type": "restaurant", "image": "https://dynamic-media-cdn.tripadvisor.com/media/photo-o/1b/4e/72/34/photo0jpg.jpg?w=1000&s=1", "address": "1555 3rd Ave, Huntington, WV 25701-1622", "lat": 38.423748, "lng": -82.43232, "ref_id": 20403399, "rating": 3.5, "num_reviews": 0, "website": "http://calamitygrill.com/", "contact_phone": "+1 304-529-8100", "contact_email": "ben2844@yahoo.com", "status": 1, "source_type": 1, "numberReviews": 6}, {"name": "The Mill", "type": "restaurant", "image": "https://dynamic-media-cdn.tripadvisor.com/media/photo-o/2a/eb/23/92/caption.jpg?w=1000&s=1", "address": "1537 Winchester Ave, Ashland, KY 41101-7636", "lat": 38.48068, "lng": -82.64358, "ref_id": 26455599, "rating": 5, "num_reviews": 0, "website": "http://www.themillaky.com", "contact_phone": "+16065475385", "contact_email": "themillcafeandbakery@gmail.com", "status": 1, "source_type": 1, "numberReviews": 2}, {"name": "Holy Smoke BBQ", "type": "restaurant", "image": "https://dynamic-media-cdn.tripadvisor.com/media/photo-o/1d/21/04/da/kc-burnt-ends-with-smoked.jpg?w=1000&s=1", "address": "420 4th Street, Ceredo, WV", "lat": null, "lng": null, "ref_id": 19750317, "rating": 3.5, "num_reviews": 0, "website": null, "contact_phone": "+1 304-525-7500", "contact_email": null, "status": 1, "source_type": 1, "numberReviews": 7}, {"name": "Katimali's", "type": "restaurant", "image": null, "address": "97 State St, Proctorville, OH 45669-9102", "lat": 38.4386, "lng": -82.38572, "ref_id": 10592773, "rating": 3.5, "num_reviews": 0, "website": "https://www.facebook.com/Katimalis/info/?entry_point=page_nav_about_item&tab=page_info", "contact_phone": "+1 740-451-0886", "contact_email": null, "status": 1, "source_type": 1, "numberReviews": 6}, {"name": "Taco Bell", "type": "restaurant", "image": "https://dynamic-media-cdn.tripadvisor.com/media/photo-o/27/2d/33/90/i-just-visited-the-taco.jpg?w=1000&s=1", "address": "117 State Street, Proctorville, OH 45669", "lat": 38.438335, "lng": -82.384026, "ref_id": 19340723, "rating": 5, "num_reviews": 0, "website": "https://locations.tacobell.com/oh/proctorville/117-state-street.html?utm_source=yext&utm_campaign=yextpowerlistings&utm_medium=referral&utm_term=036025&utm_content=website&y_source=1_mtqzmty4mdutndgzlwxvy2f0aw9ulndlynnpdgu%3d", "contact_phone": "2202015150", "contact_email": null, "status": 1, "source_type": 1, "numberReviews": 1}, {"name": "Rio Grande", "type": "restaurant", "image": "https://dynamic-media-cdn.tripadvisor.com/media/photo-o/05/ee/c8/b5/wonderful.jpg?w=1000&s=1", "address": "2595 5th Ave, Huntington, WV 25703-1618", "lat": 38.42501, "lng": -82.40952, "ref_id": 4884676, "rating": 4, "num_reviews": 0, "website": "https://www.facebook.com/Rio5thAve/", "contact_phone": "+1 304-522-2300", "contact_email": null, "status": 1, "source_type": 1, "numberReviews": 8},