[{"data": {"accommodationType": [], "restaurantStyles": [{"tag": {"categoryId": 235, "tagId": 10608, "tagName": "Bar scene", "tagNameLocalized": "Quang ca\u0309nh qu\u00e2\u0300y bar", "translationKey": "tags_category_tag_bar_scene"}}], "restaurantTypes": [{"tag": {"categoryId": 230, "tagId": 10591, "tagName": "Restaurants", "tagNameLocalized": "Nha\u0300 ha\u0300ng", "translationKey": "tags_category_tag_restaurants"}}], "restaurantMealTypes": [{"tag": {"categoryId": 233, "tagId": 10598, "tagName": "Lunch", "tagNameLocalized": "B\u01b0\u0303a tr\u01b0a", "translationKey": "tags_category_tag_lunch"}}, {"tag": {"categoryId": 233, "tagId": 10597, "tagName": "Breakfast", "tagNameLocalized": "B\u1eefa s\u00e1ng", "translationKey": "tags_category_tag_breakfast"}}, {"tag": {"categoryId": 233, "tagId": 10599, "tagName": "Dinner", "tagNameLocalized": "B\u01b0\u0303a t\u00f4\u0301i", "translationKey": "tags_category_tag_dinner"}}], "restaurantDiningOptions": [{"tag": {"categoryId": 234, "tagId": 10601, "tagName": "Takeout", "tagNameLocalized": "C\u01b0\u0309a ha\u0300ng ba\u0301n th\u01b0\u0301c \u0103n mang v\u00ea\u0300", "translationKey": "tags_category_tag_takeout"}}, {"tag": {"categoryId": 234, "tagId": 10859, "tagName": "Television", "tagNameLocalized": "Tivi", "translationKey": "tags_category_tag_television"}}, {"tag": {"categoryId": 234, "tagId": 16547, "tagName": "Table Service", "tagNameLocalized": "D\u1ecbch v\u1ee5 b\u00e0n", "translationKey": "tags_category_tag_table_service"}}, {"tag": {"categoryId": 234, "tagId": 10862, "tagName": "Serves Alcohol", "tagNameLocalized": "Ph\u1ee5c v\u1ee5 \u0111\u1ed3 u\u1ed1ng c\u00f3 c\u1ed3n", "translationKey": "tags_category_tag_serves_alcohol"}}, {"tag": {"categoryId": 234, "tagId": 10861, "tagName": "Wheelchair Accessible", "tagNameLocalized": "L\u1ed1i v\u00e0o ra cho xe l\u0103n", "translationKey": "tags_category_tag_wheelchair_accessible"}}, {"tag": {"categoryId": 234, "tagId": 10852, "tagName": "Seating", "tagNameLocalized": "Ch\u1ed7 ng\u1ed3i", "translationKey": "tags_category_tag_seating"}}], "restaurantPrice": [{"tag": {"categoryId": 240, "tagId": 10955, "tagName": "Mid Range", "tagNameLocalized": "H\u1ea1ng trung", "translationKey": "tags_category_tag_mid_range"}}], "restaurantCuisines": [{"tag": {"categoryId": 231, "tagId": 9908, "tagName": "American", "tagNameLocalized": "Ki\u1ec3u My\u0303", "translationKey": "tags_category_tag_american"}}, {"tag": {"categoryId": 231, "tagId": 10670, "tagName": "Pub", "tagNameLocalized": "Qua\u0301n r\u01b0\u01a1\u0323u", "translationKey": "tags_category_tag_pub"}}, {"tag": {"categoryId": 231, "tagId": 10640, "tagName": "Bar", "tagNameLocalized": "Qu\u00e2\u0300y bar", "translationKey": "tags_category_tag_bar"}}, {"tag": {"categoryId": 231, "tagId": 10643, "tagName": "Seafood", "tagNameLocalized": "Ha\u0309i sa\u0309n", "translationKey": "tags_category_tag_seafood"}}], "locations": [{"accommodationType": "T_UNKNOWN", "countryId": 191, "hoursOfOperation": {"dailyTimeIntervals": [{"day": "MONDAY", "timeIntervals": [{"openingTime": {"hours": 4, "minutes": 0}, "closingTime": {"hours": 23, "minutes": 0}}]}, {"day": "TUESDAY", "timeIntervals": [{"openingTime": {"hours": 4, "minutes": 0}, "closingTime": {"hours": 23, "minutes": 0}}]}, {"day": "WEDNESDAY", "timeIntervals": [{"openingTime": {"hours": 4, "minutes": 0}, "closingTime": {"hours": 23, "minutes": 0}}]}, {"day": "THURSDAY", "timeIntervals": [{"openingTime": {"hours": 4, "minutes": 0}, "closingTime": {"hours": 23, "minutes": 0}}]}, {"day": "FRIDAY", "timeIntervals": [{"openingTime": {"hours": 16, "minutes": 0}, "closingTime": {"hours": 1, "minutes": 0}}]}, {"day": "SATURDAY", "timeIntervals": [{"openingTime": {"hours": 12, "minutes": 0}, "closingTime": {"hours": 1, "minutes": 0}}]}, {"day": "SUNDAY", "timeIntervals": [{"openingTime": {"hours": 12, "minutes": 0}, "closingTime": {"hours": 23, "minutes": 0}}]}]}, "isClosed": false, "isOwner": false, "latitude": 38.695484, "localizedDescriptions": [], "localizedNames": [], "locationId": 10241366, "locationV2": {"attractionTypes": []}, "longitude": -75.07518, "parentId": 34008, "placeType": "EATERY", "absoluteOwnerManagementUrl": "https://www.tripadvisor.com.vn/RSManagementCenter-d10241366-Starboard_Raw?cat=0&geo=34008", "email": "info@thestarboard.com", "geoName": "Dewey Beach", "isoCountryCode": "US", "localizedName": "Starboard Raw", "name": "Starboard Raw", "locationDescription": null, "officialUrl": "http://starboardraw.com", "postPhotosUrl": "/PostPhotos-d10241366", "telephone": "+1 302-227-9000", "url": "/Restaurant_Review-g34008-d10241366-Reviews-Starboard_Raw-Dewey_Beach_Delaware.html", "writeUserReviewUrl": "/UserReview-g34008-d10241366-Starboard_Raw-Dewey_Beach_Delaware.html", "localizedStreetAddress": {"city": "Dewey Beach", "country": "Hoa K\u1ef3", "fullAddress": "2000 Coastal Hwy Unit 102, Dewey Beach, DE 19971-2355", "postalCode": "19971-2355", "state": "Delaware", "street1": "2000 Coastal Hwy", "street2": "Unit 102"}, "streetAddress": {"street1": "2000 Coastal Hwy", "street2": "Unit 102", "state": "Delaware", "city": "Dewey Beach", "postalCode": "19971-2355", "fullAddress": "2000 Coastal Hwy Unit 102, Dewey Beach, DE 19971-2355"}, "localizedStreetAddresses": [{"street1": null, "street2": null, "fullAddress": "2000 Coastal Hwy Unit 102, Dewey Beach, DE 19971-2355", "locale": "fr_BE"}, {"street1": null, "street2": null, "fullAddress": "2000 Coastal Hwy Unit 102, Dewey Beach, DE 19971-2355", "locale": "es_MX"}, {"street1": null, "street2": null, "fullAddress": "2000 Coastal Hwy Unit 102, Dewey Beach, DE 19971-2355", "locale": "es_VE"}, {"street1": null, "street2": null, "fullAddress": "2000 Coastal Hwy Unit 102, Dewey Beach, DE", "locale": "zh_TW"}, {"street1": null, "street2": null, "fullAddress": "2000 Coastal Hwy Unit 102, Dewey Beach, DE", "locale": "zh_HK"}, {"street1": null, "street2": null, "fullAddress": "2000 Coastal Hwy Unit 102, Dewey Beach, DE 19971-2355", "locale": "it"}, {"street1": null, "street2": null, "fullAddress": "2000 Coastal Hwy Unit 102, \ub4c0\uc774 \ube44\uce58, DE", "locale": "ko"}, {"street1": null, "street2": null, "fullAddress": "2000 Coastal Hwy Unit 102, Dewey Beach, DE 19971-2355", "locale": "es_CL"}, {"street1": null, "street2": null, "fullAddress": "2000 Coastal Hwy Unit 102, Dewey Beach, DE 19971-2355", "locale": "fi"}, {"street1": null, "street2": null, "fullAddress": "2000 Coastal Hwy Unit 102, Dewey Beach, DE 19971-2355", "locale": "pt_PT"}, {"street1": null, "street2": null, "fullAddress": "2000 Coastal Hwy Unit 102, Dewey Beach, DE 19971-2355", "locale": "en_US"}, {"street1": null, "street2": null, "fullAddress": "2000 Coastal Hwy Unit 102, \u0e14\u0e34\u0e27\u0e2d\u0e35\u0e1a\u0e35\u0e0a, DE 19971-2355", "locale": "th"}, {"street1": null, "street2": null, "fullAddress": "2000 Coastal Hwy Unit 102, Dewey Beach, DE 19971-2355", "locale": "en_SG"}, {"street1": null, "street2": null, "fullAddress": "2000 Coastal Hwy Unit 102, Dewey Beach, DE 19971-2355", "locale": "pt"}, {"street1": null, "street2": null, "fullAddress": "2000 Coastal Hwy Unit 102, Dewey Beach, DE 19971-2355", "locale": "en_UK"}, {"street1": null, "street2": null, "fullAddress": "2000 Coastal Hwy Unit 102, \u202bDewey Beach\u202c, \u202bDelaware\u202c 19971-2355", "locale": "ar"}, {"street1": null, "street2": null, "fullAddress": "2000 Coastal Hwy Unit 102, Dewey Beach, DE 19971-2355", "locale": "ru"}, {"street1": null, "street2": null, "fullAddress": "2000 Coastal Hwy Unit 102, Dewey Beach, DE 19971-2355", "locale": "en_NZ"}, {"street1": null, "street2": null, "fullAddress": "2000 Coastal Hwy Unit 102, Dewey Beach, DE 19971-2355", "locale": "de_CH"}, {"street1": null, "street2": null, "fullAddress": "2000 Coastal Hwy Unit 102, Dewey Beach, DE 19971-2355", "locale": "sk"}, {"street1": null, "street2": null, "fullAddress": "2000 Coastal Hwy Unit 102, Dewey Beach, DE 19971-2355", "locale": "en_ZA"}, {"street1": null, "street2": null, "fullAddress": "2000 Coastal Hwy Unit 102, Dewey Beach, DE 19971-2355", "locale": "sv"}, {"street1": null, "street2": null, "fullAddress": "2000 Coastal Hwy Unit 102, Dewey Beach, DE 19971-2355", "locale": "cs"}, {"street1": null, "street2": null, "fullAddress": "2000 Coastal Hwy Unit 102, \u03a0\u03b1\u03c1\u03b1\u03bb\u03af\u03b1 Dewey, DE 19971-2355", "locale": "el"}, {"street1": null, "street2": null, "fullAddress": "2000 Coastal Hwy Unit 102, Dewey Beach, DE 19971-2355", "locale": "de_AT"}, {"street1": null, "street2": null, "fullAddress": "2000 Coastal Hwy Unit 102, Dewey Beach, DE 19971-2355", "locale": "hu"}, {"street1": null, "street2": null, "fullAddress": "2000 Coastal Hwy Unit 102, Dewey Beach, DE 19971-2355", "locale": "nl"}, {"street1": null, "street2": null, "fullAddress": "2000 Coastal Hwy Unit 102, Dewey Beach, DE 19971-2355", "locale": "fr_CH"}, {"street1": null, "street2": null, "fullAddress": "2000 Coastal Hwy Unit 102, Dewey Beach, DE 19971-2355", "locale": "en_AU"}, {"street1": null, "street2": null, "fullAddress": "2000 Coastal Hwy Unit 102, Dewey Beach, DE 19971-2355", "locale": "in"}, {"street1": null, "street2": null, "fullAddress": "2000 Coastal Hwy Unit 102, Dewey Beach, DE 19971-2355", "locale": "vi"}, {"street1": null, "street2": null, "fullAddress": "2000 Coastal Hwy Unit 102, Dewey Beach, DE 19971-2355", "locale": "fr_CA"}, {"street1": null, "street2": null, "fullAddress": "2000 Coastal Hwy Unit 102, Dewey Beach, DE 19971-2355", "locale": "es_AR"}, {"street1": null, "street2": null, "fullAddress": "2000 Coastal Hwy Unit 102, \u202bDewey Beach\u202c, \u202bDelaware\u202c 19971-2355", "locale": "ar_EG"}, {"street1": null, "street2": null, "fullAddress": "2000 Coastal Hwy Unit 102, Dewey Beach, DE 19971-2355", "locale": "en_MY"}, {"street1": null, "street2": null, "fullAddress": "2000 Coastal Hwy Unit 102, Dewey Beach, DE 19971-2355", "locale": "sr"}, {"street1": null, "street2": null, "fullAddress": "2000 Coastal Hwy Unit 102, Dewey Beach, DE 19971-2355", "locale": "it_CH"}, {"street1": null, "street2": null, "fullAddress": "2000 Coastal Hwy Unit 102, Dewey Beach, DE 19971-2355", "locale": "da"}, {"street1": null, "street2": null, "fullAddress": "2000 Coastal Hwy Unit 102, Dewey Beach, DE 19971-2355", "locale": "es"}, {"street1": null, "street2": null, "fullAddress": "2000 Coastal Hwy Unit 102, Dewey Beach, DE 19971-2355", "locale": "tr"}, {"street1": null, "street2": null, "fullAddress": "2000 Coastal Hwy Unit 102, Dewey Beach, DE 19971-2355", "locale": "en_HK"}, {"street1": null, "street2": null, "fullAddress": "2000 Coastal Hwy Unit 102, Dewey Beach, DE 19971-2355", "locale": "en_IE"}, {"street1": null, "street2": null, "fullAddress": "2000 Coastal Hwy Unit 102, Dewey Beach, DE 19971-2355", "locale": "en_CA"}, {"street1": null, "street2": null, "fullAddress": "2000 Coastal Hwy Unit 102, Dewey Beach, DE 19971-2355", "locale": "no"}, {"street1": null, "street2": null, "fullAddress": "2000 Coastal Hwy Unit 102, Dewey Beach, DE 19971-2355", "locale": "nl_BE"}, {"street1": null, "street2": null, "fullAddress": "2000 Coastal Hwy Unit 102, Dewey Beach, DE 19971-2355", "locale": "pl"}, {"street1": null, "street2": null, "fullAddress": "2000 Coastal Hwy Unit 102, Dewey Beach, DE", "locale": "zh_CN"}, {"street1": null, "street2": null, "fullAddress": "2000 Coastal Hwy Unit 102, Dewey Beach, DE 19971-2355", "locale": "es_CO"}, {"street1": null, "street2": null, "fullAddress": "2000 Coastal Hwy Unit 102, Dewey Beach, DE 19971-2355", "locale": "fr"}, {"street1": null, "street2": null, "fullAddress": "2000 Coastal Hwy Unit 102, \u30c7\u30e5\u30fc\u30a4 \u30d3\u30fc\u30c1, DE", "locale": "ja"}, {"street1": null, "street2": null, "fullAddress": "2000 Coastal Hwy Unit 102, \u202bDewey Beach\u202c, DE 19971-2355", "locale": "iw"}, {"street1": null, "street2": null, "fullAddress": "2000 Coastal Hwy Unit 102, Dewey Beach, DE 19971-2355", "locale": "de"}, {"street1": null, "street2": null, "fullAddress": "2000 Coastal Hwy Unit 102, Dewey Beach, DE 19971-2355", "locale": "en_IN"}, {"street1": null, "street2": null, "fullAddress": "2000 Coastal Hwy Unit 102, Dewey Beach, DE", "locale": "zh"}, {"street1": null, "street2": null, "fullAddress": "2000 Coastal Hwy Unit 102, Dewey Beach, DE 19971-2355", "locale": "es_PE"}, {"street1": null, "street2": null, "fullAddress": "2000 Coastal Hwy Unit 102, Dewey Beach, DE 19971-2355", "locale": "en_PH"}], "parents": [{"placeType": "CITY", "locationId": 34008, "name": "Dewey Beach"}, {"placeType": "STATE", "locationId": 28929, "name": "Delaware"}, {"placeType": "COUNTRY", "locationId": 191, "name": "Hoa K\u1ef3"}, {"placeType": "CONTINENT", "locationId": 19, "name": "B\u0103\u0301c My\u0303"}, {"placeType": null, "locationId": 1, "name": "Th\u00ea\u0301 gi\u01a1\u0301i"}], "thumbnail": {"title": "photo3.jpg", "photoSizes": [{"height": 0, "isHorizontal": false, "width": 0, "url": "https://dynamic-media-cdn.tripadvisor.com/media/photo-o/0b/f4/3e/e4/photo3jpg.jpg?w=100&h=100&s=1"}, {"height": 50, "isHorizontal": true, "width": 50, "url": "https://media-cdn.tripadvisor.com/media/photo-t/0b/f4/3e/e4/photo3jpg.jpg"}, {"height": 150, "isHorizontal": true, "width": 150, "url": "https://media-cdn.tripadvisor.com/media/photo-l/0b/f4/3e/e4/photo3jpg.jpg"}, {"height": 205, "isHorizontal": false, "width": 154, "url": "https://media-cdn.tripadvisor.com/media/photo-f/0b/f4/3e/e4/photo3jpg.jpg"}, {"height": 200, "isHorizontal": false, "width": 180, "url": "https://media-cdn.tripadvisor.com/media/photo-i/0b/f4/3e/e4/photo3jpg.jpg"}, {"height": 450, "isHorizontal": false, "width": 338, "url": "https://media-cdn.tripadvisor.com/media/photo-s/0b/f4/3e/e4/photo3jpg.jpg"}, {"height": 733, "isHorizontal": false, "width": 550, "url": "https://media-cdn.tripadvisor.com/media/photo-p/0b/f4/3e/e4/photo3jpg.jpg"}, {"height": 1365, "isHorizontal": false, "width": 1024, "url": "https://media-cdn.tripadvisor.com/media/photo-w/0b/f4/3e/e4/photo3jpg.jpg"}, {"height": 2048, "isHorizontal": false, "width": 1536, "url": "https://media-cdn.tripadvisor.com/media/photo-o/0b/f4/3e/e4/photo3jpg.jpg"}]}}]}}]