[{"data": {"restaurantStyles": [], "restaurantDiningOptions": [], "restaurantPrice": [], "accommodationType": [], "restaurantTypes": [{"tag": {"categoryId": 230, "tagId": 10591, "tagName": "Restaurants", "tagNameLocalized": "Nha\u0300 ha\u0300ng", "translationKey": "tags_category_tag_restaurants"}}], "restaurantMealTypes": [{"tag": {"categoryId": 233, "tagId": 10599, "tagName": "Dinner", "tagNameLocalized": "B\u01b0\u0303a t\u00f4\u0301i", "translationKey": "tags_category_tag_dinner"}}], "restaurantCuisines": [{"tag": {"categoryId": 231, "tagId": 10635, "tagName": "Cajun & Creole", "tagNameLocalized": "Cajun & Creole", "translationKey": "tags_category_tag_cajun_and_creole"}}], "locations": [{"accommodationType": "T_UNKNOWN", "countryId": 191, "hoursOfOperation": {"dailyTimeIntervals": [{"day": "MONDAY", "timeIntervals": []}, {"day": "TUESDAY", "timeIntervals": []}, {"day": "WEDNESDAY", "timeIntervals": []}, {"day": "THURSDAY", "timeIntervals": []}, {"day": "FRIDAY", "timeIntervals": [{"openingTime": {"hours": 16, "minutes": 0}, "closingTime": {"hours": 2, "minutes": 0}}]}, {"day": "SATURDAY", "timeIntervals": [{"openingTime": {"hours": 16, "minutes": 0}, "closingTime": {"hours": 2, "minutes": 0}}]}, {"day": "SUNDAY", "timeIntervals": [{"openingTime": {"hours": 10, "minutes": 0}, "closingTime": {"hours": 17, "minutes": 0}}]}]}, "isClosed": false, "isOwner": false, "latitude": 39.937214, "localizedDescriptions": [], "localizedNames": [], "locationId": 12949487, "locationV2": {"attractionTypes": []}, "longitude": -75.27227, "parentId": 52979, "placeType": "EATERY", "absoluteOwnerManagementUrl": "https://www.tripadvisor.com.vn/RSManagementCenter-d12949487-Jamey_s_House_of_Music?cat=0&geo=52979", "email": "jamey@jameyshouseofmusic.com", "geoName": "Lansdowne", "isoCountryCode": "US", "localizedName": "Jamey's House of Music", "name": "Jamey's House of Music", "locationDescription": null, "officialUrl": "http://Www.JameysHouseOfMusic.com", "postPhotosUrl": "/PostPhotos-d12949487", "telephone": "+1 215-477-9985", "url": "/Restaurant_Review-g52979-d12949487-Reviews-Jamey_s_House_of_Music-Lansdowne_Pennsylvania.html", "writeUserReviewUrl": "/UserReview-g52979-d12949487-Jamey_s_House_of_Music-Lansdowne_Pennsylvania.html", "localizedStreetAddress": {"city": "Lansdowne", "country": "Hoa K\u1ef3", "fullAddress": "32 S Lansdowne Ave, Lansdowne, PA 19050-2102", "postalCode": "19050-2102", "state": "Pennsylvania:", "street1": "32 S Lansdowne Ave", "street2": ""}, "streetAddress": {"street1": "32 S Lansdowne Ave", "street2": "", "state": "Pennsylvania:", "city": "Lansdowne", "postalCode": "19050-2102", "fullAddress": "32 S Lansdowne Ave, Lansdowne, PA 19050-2102"}, "localizedStreetAddresses": [{"street1": null, "street2": null, "fullAddress": "32 S Lansdowne Ave, Lansdowne, PA 19050-2102", "locale": "es_MX"}, {"street1": null, "street2": null, "fullAddress": "32 S Lansdowne Ave, Lansdowne, PA 19050-2102", "locale": "fr_BE"}, {"street1": null, "street2": null, "fullAddress": "32 S Lansdowne Ave, Lansdowne, PA 19050-2102", "locale": "es_VE"}, {"street1": null, "street2": null, "fullAddress": "32 S Lansdowne Ave, Lansdowne, PA", "locale": "zh_TW"}, {"street1": null, "street2": null, "fullAddress": "32 S Lansdowne Ave, Lansdowne, PA", "locale": "zh_HK"}, {"street1": null, "street2": null, "fullAddress": "32 S Lansdowne Ave, Lansdowne, PA 19050-2102", "locale": "it"}, {"street1": null, "street2": null, "fullAddress": "32 S Lansdowne Ave, \ub79c\uc2a4\ub2e4\uc6b4, PA", "locale": "ko"}, {"street1": null, "street2": null, "fullAddress": "32 S Lansdowne Ave, Lansdowne, PA 19050-2102", "locale": "es_CL"}, {"street1": null, "street2": null, "fullAddress": "32 S Lansdowne Ave, Lansdowne, PA 19050-2102", "locale": "fi"}, {"street1": null, "street2": null, "fullAddress": "32 S Lansdowne Ave, Lansdowne, PA 19050-2102", "locale": "pt_PT"}, {"street1": null, "street2": null, "fullAddress": "32 S Lansdowne Ave, Lansdowne, PA 19050-2102", "locale": "en_US"}, {"street1": null, "street2": null, "fullAddress": "32 S Lansdowne Ave, Lansdowne, PA 19050-2102", "locale": "th"}, {"street1": null, "street2": null, "fullAddress": "32 S Lansdowne Ave, Lansdowne, PA 19050-2102", "locale": "en_SG"}, {"street1": null, "street2": null, "fullAddress": "32 S Lansdowne Ave, Lansdowne, PA 19050-2102", "locale": "pt"}, {"street1": null, "street2": null, "fullAddress": "32 S Lansdowne Ave, Lansdowne, PA 19050-2102", "locale": "en_UK"}, {"street1": null, "street2": null, "fullAddress": "32 S Lansdowne Ave, \u202bLansdowne\u202c, \u0628\u0646\u0633\u064a\u0644\u0641\u0627\u0646\u064a\u0627 19050-2102", "locale": "ar"}, {"street1": null, "street2": null, "fullAddress": "32 S Lansdowne Ave, Lansdowne, PA 19050-2102", "locale": "ru"}, {"street1": null, "street2": null, "fullAddress": "32 S Lansdowne Ave, Lansdowne, PA 19050-2102", "locale": "en_NZ"}, {"street1": null, "street2": null, "fullAddress": "32 S Lansdowne Ave, Lansdowne, PA 19050-2102", "locale": "de_CH"}, {"street1": null, "street2": null, "fullAddress": "32 S Lansdowne Ave, Lansdowne, PA 19050-2102", "locale": "sk"}, {"street1": null, "street2": null, "fullAddress": "32 S Lansdowne Ave, Lansdowne, PA 19050-2102", "locale": "en_ZA"}, {"street1": null, "street2": null, "fullAddress": "32 S Lansdowne Ave, Lansdowne, PA 19050-2102", "locale": "sv"}, {"street1": null, "street2": null, "fullAddress": "32 S Lansdowne Ave, Lansdowne, PA 19050-2102", "locale": "cs"}, {"street1": null, "street2": null, "fullAddress": "32 S Lansdowne Ave, Lansdowne, PA 19050-2102", "locale": "el"}, {"street1": null, "street2": null, "fullAddress": "32 S Lansdowne Ave, Lansdowne, PA 19050-2102", "locale": "de_AT"}, {"street1": null, "street2": null, "fullAddress": "32 S Lansdowne Ave, Lansdowne, PA 19050-2102", "locale": "fr_CH"}, {"street1": null, "street2": null, "fullAddress": "32 S Lansdowne Ave, Lansdowne, PA 19050-2102", "locale": "nl"}, {"street1": null, "street2": null, "fullAddress": "32 S Lansdowne Ave, Lansdowne, PA 19050-2102", "locale": "hu"}, {"street1": null, "street2": null, "fullAddress": "32 S Lansdowne Ave, Lansdowne, PA 19050-2102", "locale": "en_AU"}, {"street1": null, "street2": null, "fullAddress": "32 S Lansdowne Ave, Lansdowne, PA 19050-2102", "locale": "in"}, {"street1": null, "street2": null, "fullAddress": "32 S Lansdowne Ave, Lansdowne, PA 19050-2102", "locale": "vi"}, {"street1": null, "street2": null, "fullAddress": "32 S Lansdowne Ave, Lansdowne, PA 19050-2102", "locale": "fr_CA"}, {"street1": null, "street2": null, "fullAddress": "32 S Lansdowne Ave, Lansdowne, PA 19050-2102", "locale": "es_AR"}, {"street1": null, "street2": null, "fullAddress": "32 S Lansdowne Ave, \u202bLansdowne\u202c, \u0628\u0646\u0633\u064a\u0644\u0641\u0627\u0646\u064a\u0627 19050-2102", "locale": "ar_EG"}, {"street1": null, "street2": null, "fullAddress": "32 S Lansdowne Ave, Lansdowne, PA 19050-2102", "locale": "en_MY"}, {"street1": null, "street2": null, "fullAddress": "32 S Lansdowne Ave, Lansdowne, PA 19050-2102", "locale": "sr"}, {"street1": null, "street2": null, "fullAddress": "32 S Lansdowne Ave, Lansdowne, PA 19050-2102", "locale": "it_CH"}, {"street1": null, "street2": null, "fullAddress": "32 S Lansdowne Ave, Lansdowne, PA 19050-2102", "locale": "da"}, {"street1": null, "street2": null, "fullAddress": "32 S Lansdowne Ave, Lansdowne, PA 19050-2102", "locale": "es"}, {"street1": null, "street2": null, "fullAddress": "32 S Lansdowne Ave, Lansdowne, PA 19050-2102", "locale": "tr"}, {"street1": null, "street2": null, "fullAddress": "32 S Lansdowne Ave, Lansdowne, PA 19050-2102", "locale": "en_HK"}, {"street1": null, "street2": null, "fullAddress": "32 S Lansdowne Ave, Lansdowne, PA 19050-2102", "locale": "en_IE"}, {"street1": null, "street2": null, "fullAddress": "32 S Lansdowne Ave, Lansdowne, PA 19050-2102", "locale": "en_CA"}, {"street1": null, "street2": null, "fullAddress": "32 S Lansdowne Ave, Lansdowne, PA 19050-2102", "locale": "nl_BE"}, {"street1": null, "street2": null, "fullAddress": "32 S Lansdowne Ave, Lansdowne, PA 19050-2102", "locale": "pl"}, {"street1": null, "street2": null, "fullAddress": "32 S Lansdowne Ave, Lansdowne, PA 19050-2102", "locale": "no"}, {"street1": null, "street2": null, "fullAddress": "32 S Lansdowne Ave, Lansdowne, PA", "locale": "zh_CN"}, {"street1": null, "street2": null, "fullAddress": "32 S Lansdowne Ave, Lansdowne, PA 19050-2102", "locale": "es_CO"}, {"street1": null, "street2": null, "fullAddress": "32 S Lansdowne Ave, Lansdowne, PA 19050-2102", "locale": "fr"}, {"street1": null, "street2": null, "fullAddress": "32 S Lansdowne Ave, \u30e9\u30f3\u30ba\u30c0\u30a6\u30f3, PA", "locale": "ja"}, {"street1": null, "street2": null, "fullAddress": "32 S Lansdowne Ave, \u202bLansdowne\u202c, PA 19050-2102", "locale": "iw"}, {"street1": null, "street2": null, "fullAddress": "32 S Lansdowne Ave, Lansdowne, PA 19050-2102", "locale": "de"}, {"street1": null, "street2": null, "fullAddress": "32 S Lansdowne Ave, Lansdowne, PA 19050-2102", "locale": "en_IN"}, {"street1": null, "street2": null, "fullAddress": "32 S Lansdowne Ave, Lansdowne, PA", "locale": "zh"}, {"street1": null, "street2": null, "fullAddress": "32 S Lansdowne Ave, Lansdowne, PA 19050-2102", "locale": "es_PE"}, {"street1": null, "street2": null, "fullAddress": "32 S Lansdowne Ave, Lansdowne, PA 19050-2102", "locale": "en_PH"}], "parents": [{"placeType": "CITY", "locationId": 52979, "name": "Lansdowne"}, {"placeType": "STATE", "locationId": 28959, "name": "Pennsylvania:"}, {"placeType": "COUNTRY", "locationId": 191, "name": "Hoa K\u1ef3"}, {"placeType": "CONTINENT", "locationId": 19, "name": "B\u0103\u0301c My\u0303"}, {"placeType": null, "locationId": 1, "name": "Th\u00ea\u0301 gi\u01a1\u0301i"}], "thumbnail": {"title": "Sunday Blues Bruch. Can't be beat. Shrimp and homemade grits were super tasty.", "photoSizes": [{"height": 0, "isHorizontal": true, "width": 0, "url": "https://dynamic-media-cdn.tripadvisor.com/media/photo-o/10/e1/46/af/sunday-blues-bruch-can.jpg?w=100&h=100&s=1"}, {"height": 50, "isHorizontal": true, "width": 50, "url": "https://media-cdn.tripadvisor.com/media/photo-t/10/e1/46/af/sunday-blues-bruch-can.jpg"}, {"height": 150, "isHorizontal": true, "width": 150, "url": "https://media-cdn.tripadvisor.com/media/photo-l/10/e1/46/af/sunday-blues-bruch-can.jpg"}, {"height": 200, "isHorizontal": false, "width": 180, "url": "https://media-cdn.tripadvisor.com/media/photo-i/10/e1/46/af/sunday-blues-bruch-can.jpg"}, {"height": 188, "isHorizontal": true, "width": 250, "url": "https://media-cdn.tripadvisor.com/media/photo-f/10/e1/46/af/sunday-blues-bruch-can.jpg"}, {"height": 413, "isHorizontal": true, "width": 550, "url": "https://media-cdn.tripadvisor.com/media/photo-s/10/e1/46/af/sunday-blues-bruch-can.jpg"}, {"height": 768, "isHorizontal": true, "width": 1024, "url": "https://media-cdn.tripadvisor.com/media/photo-w/10/e1/46/af/sunday-blues-bruch-can.jpg"}, {"height": 1536, "isHorizontal": true, "width": 2048, "url": "https://media-cdn.tripadvisor.com/media/photo-o/10/e1/46/af/sunday-blues-bruch-can.jpg"}]}}]}}]