[{"data": {"accommodationType": [], "restaurantStyles": [{"tag": {"categoryId": 235, "tagId": 10613, "tagName": "Local cuisine", "tagNameLocalized": "Mo\u0301n \u0103n \u0111i\u0323a ph\u01b0\u01a1ng", "translationKey": "tags_category_tag_local_cuisine"}}, {"tag": {"categoryId": 235, "tagId": 10604, "tagName": "Families with children", "tagNameLocalized": "Gia \u0111i\u0300nh co\u0301 tre\u0309 em", "translationKey": "tags_category_tag_families_with_children"}}, {"tag": {"categoryId": 235, "tagId": 10614, "tagName": "Romantic", "tagNameLocalized": "La\u0303ng ma\u0323n", "translationKey": "tags_category_tag_romantic_restaurant_styles"}}, {"tag": {"categoryId": 235, "tagId": 10607, "tagName": "Special occasions", "tagNameLocalized": "Ca\u0301c di\u0323p \u0111\u0103\u0323c bi\u00ea\u0323t", "translationKey": "tags_category_tag_special_occasions"}}], "restaurantTypes": [{"tag": {"categoryId": 230, "tagId": 10591, "tagName": "Restaurants", "tagNameLocalized": "Nha\u0300 ha\u0300ng", "translationKey": "tags_category_tag_restaurants"}}], "restaurantMealTypes": [{"tag": {"categoryId": 233, "tagId": 10949, "tagName": "Drinks", "tagNameLocalized": "\u0110\u1ed3 u\u1ed1ng", "translationKey": "tags_category_tag_drinks"}}, {"tag": {"categoryId": 233, "tagId": 10598, "tagName": "Lunch", "tagNameLocalized": "B\u01b0\u0303a tr\u01b0a", "translationKey": "tags_category_tag_lunch"}}, {"tag": {"categoryId": 233, "tagId": 10599, "tagName": "Dinner", "tagNameLocalized": "B\u01b0\u0303a t\u00f4\u0301i", "translationKey": "tags_category_tag_dinner"}}], "restaurantDiningOptions": [{"tag": {"categoryId": 234, "tagId": 10602, "tagName": "Reservations", "tagNameLocalized": "\u0110\u0103\u0323t ch\u00f4\u0303", "translationKey": "tags_category_tag_reservations"}}, {"tag": {"categoryId": 234, "tagId": 10855, "tagName": "Street Parking", "tagNameLocalized": "B\u00e3i \u0111\u1ed7 xe \u0111\u01b0\u1eddng ph\u1ed1", "translationKey": "tags_category_tag_street_parking"}}, {"tag": {"categoryId": 234, "tagId": 20994, "tagName": "BYOB", "tagNameLocalized": "\u0110\u1ed3 u\u1ed1ng t\u1ef1 mang", "translationKey": "tags_category_tag_byob"}}, {"tag": {"categoryId": 234, "tagId": 10603, "tagName": "Outdoor Seating", "tagNameLocalized": "Ng\u00f4\u0300i ngoa\u0300i tr\u01a1\u0300i", "translationKey": "tags_category_tag_outdoor_seating"}}, {"tag": {"categoryId": 234, "tagId": 11780, "tagName": "Accepts Credit Cards", "tagNameLocalized": "Ch\u1ea5p nh\u1eadn th\u1ebb t\u00edn d\u1ee5ng", "translationKey": "tags_category_tag_accepts_credit_cards"}}, {"tag": {"categoryId": 234, "tagId": 10860, "tagName": "Highchairs Available", "tagNameLocalized": "C\u00f3 gh\u1ebf \u0103n cho b\u00e9", "translationKey": "tags_category_tag_highchairs_available"}}, {"tag": {"categoryId": 234, "tagId": 10861, "tagName": "Wheelchair Accessible", "tagNameLocalized": "L\u1ed1i v\u00e0o ra cho xe l\u0103n", "translationKey": "tags_category_tag_wheelchair_accessible"}}, {"tag": {"categoryId": 234, "tagId": 10852, "tagName": "Seating", "tagNameLocalized": "Ch\u1ed7 ng\u1ed3i", "translationKey": "tags_category_tag_seating"}}, {"tag": {"categoryId": 234, "tagId": 10863, "tagName": "Full Bar", "tagNameLocalized": "Qu\u00e2\u0300y bar \u0111\u00e2\u0300y \u0111u\u0309", "translationKey": "tags_category_tag_full_bar"}}], "restaurantPrice": [{"tag": {"categoryId": 240, "tagId": 10955, "tagName": "Mid Range", "tagNameLocalized": "H\u1ea1ng trung", "translationKey": "tags_category_tag_mid_range"}}], "restaurantCuisines": [{"tag": {"categoryId": 231, "tagId": 10648, "tagName": "International", "tagNameLocalized": "Qu\u00f4\u0301c t\u00ea\u0301", "translationKey": "tags_category_tag_international"}}, {"tag": {"categoryId": 231, "tagId": 9908, "tagName": "American", "tagNameLocalized": "Ki\u1ec3u My\u0303", "translationKey": "tags_category_tag_american"}}], "locations": [{"accommodationType": "T_UNKNOWN", "countryId": 191, "hoursOfOperation": {"dailyTimeIntervals": [{"day": "MONDAY", "timeIntervals": []}, {"day": "TUESDAY", "timeIntervals": []}, {"day": "WEDNESDAY", "timeIntervals": [{"openingTime": {"hours": 16, "minutes": 0}, "closingTime": {"hours": 21, "minutes": 0}}]}, {"day": "THURSDAY", "timeIntervals": [{"openingTime": {"hours": 16, "minutes": 0}, "closingTime": {"hours": 21, "minutes": 0}}]}, {"day": "FRIDAY", "timeIntervals": [{"openingTime": {"hours": 16, "minutes": 0}, "closingTime": {"hours": 22, "minutes": 0}}]}, {"day": "SATURDAY", "timeIntervals": [{"openingTime": {"hours": 12, "minutes": 0}, "closingTime": {"hours": 22, "minutes": 0}}]}, {"day": "SUNDAY", "timeIntervals": [{"openingTime": {"hours": 12, "minutes": 0}, "closingTime": {"hours": 21, "minutes": 0}}]}]}, "isClosed": false, "isOwner": false, "latitude": 39.846767, "localizedDescriptions": [], "localizedNames": [], "locationId": 1494202, "locationV2": {"attractionTypes": []}, "longitude": -75.711494, "parentId": 52926, "placeType": "EATERY", "absoluteOwnerManagementUrl": "https://www.tripadvisor.com.vn/RSManagementCenter-d1494202-Portabello_s_of_Kennett_Square?cat=0&geo=52926", "email": "portabellosofkennettsquare@gmail.com", "geoName": "Kennett Square", "isoCountryCode": "US", "localizedName": "Portabello's of Kennett Square", "name": "Portabello's of Kennett Square", "locationDescription": null, "officialUrl": "http://www.portabellosofkennettsquare.com", "postPhotosUrl": "/PostPhotos-d1494202", "telephone": "+1 610-925-4984", "url": "/Restaurant_Review-g52926-d1494202-Reviews-Portabello_s_of_Kennett_Square-Kennett_Square_Pennsylvania.html", "writeUserReviewUrl": "/UserReview-g52926-d1494202-Portabello_s_of_Kennett_Square-Kennett_Square_Pennsylvania.html", "localizedStreetAddress": {"city": "Kennett Square", "country": "Hoa K\u1ef3", "fullAddress": "108 E State St, Kennett Square, PA 19348-3020", "postalCode": "19348-3020", "state": "Pennsylvania:", "street1": "108 E State St", "street2": ""}, "streetAddress": {"street1": "108 E State St", "street2": "", "state": "Pennsylvania:", "city": "Kennett Square", "postalCode": "19348-3020", "fullAddress": "108 E State St, Kennett Square, PA 19348-3020"}, "localizedStreetAddresses": [{"street1": null, "street2": null, "fullAddress": "108 E State St, Kennett Square, PA 19348-3020", "locale": "es_MX"}, {"street1": null, "street2": null, "fullAddress": "108 E State St, Kennett Square, PA 19348-3020", "locale": "fr_BE"}, {"street1": null, "street2": null, "fullAddress": "108 E State St, Kennett Square, PA 19348-3020", "locale": "es_VE"}, {"street1": null, "street2": null, "fullAddress": "108 E State St, \u80af\u5c3c\u7279\u65af\u594e\u723e, PA", "locale": "zh_TW"}, {"street1": null, "street2": null, "fullAddress": "108 E State St, \u80af\u5c3c\u7279\u65af\u594e\u723e, PA", "locale": "zh_HK"}, {"street1": null, "street2": null, "fullAddress": "108 E State St, Kennett Square, PA 19348-3020", "locale": "it"}, {"street1": null, "street2": null, "fullAddress": "108 E State St, \ucf00\ub137\ud2b8 \uc2a4\ud018\uc5b4, PA", "locale": "ko"}, {"street1": null, "street2": null, "fullAddress": "108 E State St, Kennett Square, PA 19348-3020", "locale": "es_CL"}, {"street1": null, "street2": null, "fullAddress": "108 E State St, Kennett Square, PA 19348-3020", "locale": "fi"}, {"street1": null, "street2": null, "fullAddress": "108 E State St, Kennett Square, PA 19348-3020", "locale": "pt_PT"}, {"street1": null, "street2": null, "fullAddress": "108 E State St, Kennett Square, PA 19348-3020", "locale": "en_US"}, {"street1": null, "street2": null, "fullAddress": "108 E State St, \u0e40\u0e04\u0e19\u0e40\u0e19\u0e15\u0e15\u0e4c\u0e2a\u0e41\u0e04\u0e27\u0e23\u0e4c, PA 19348-3020", "locale": "th"}, {"street1": null, "street2": null, "fullAddress": "108 E State St, Kennett Square, PA 19348-3020", "locale": "en_SG"}, {"street1": null, "street2": null, "fullAddress": "108 E State St, Kennett Square, PA 19348-3020", "locale": "en_UK"}, {"street1": null, "street2": null, "fullAddress": "108 E State St, Kennett Square, PA 19348-3020", "locale": "pt"}, {"street1": null, "street2": null, "fullAddress": "108 E State St, \u202bKennett Square\u202c, \u0628\u0646\u0633\u064a\u0644\u0641\u0627\u0646\u064a\u0627 19348-3020", "locale": "ar"}, {"street1": null, "street2": null, "fullAddress": "108 E State St, \u041a\u0435\u043d\u043d\u0435\u0442-\u0421\u043a\u0432\u0435\u0440, PA 19348-3020", "locale": "ru"}, {"street1": null, "street2": null, "fullAddress": "108 E State St, Kennett Square, PA 19348-3020", "locale": "en_NZ"}, {"street1": null, "street2": null, "fullAddress": "108 E State St, Kennett Square, PA 19348-3020", "locale": "de_CH"}, {"street1": null, "street2": null, "fullAddress": "108 E State St, Kennett Square, PA 19348-3020", "locale": "sk"}, {"street1": null, "street2": null, "fullAddress": "108 E State St, Kennett Square, PA 19348-3020", "locale": "en_ZA"}, {"street1": null, "street2": null, "fullAddress": "108 E State St, Kennett Square, PA 19348-3020", "locale": "sv"}, {"street1": null, "street2": null, "fullAddress": "108 E State St, Kennett Square, PA 19348-3020", "locale": "cs"}, {"street1": null, "street2": null, "fullAddress": "108 E State St, Kennett Square, PA 19348-3020", "locale": "el"}, {"street1": null, "street2": null, "fullAddress": "108 E State St, Kennett Square, PA 19348-3020", "locale": "de_AT"}, {"street1": null, "street2": null, "fullAddress": "108 E State St, Kennett Square, PA 19348-3020", "locale": "nl"}, {"street1": null, "street2": null, "fullAddress": "108 E State St, Kennett Square, PA 19348-3020", "locale": "fr_CH"}, {"street1": null, "street2": null, "fullAddress": "108 E State St, Kennett Square, PA 19348-3020", "locale": "hu"}, {"street1": null, "street2": null, "fullAddress": "108 E State St, Kennett Square, PA 19348-3020", "locale": "en_AU"}, {"street1": null, "street2": null, "fullAddress": "108 E State St, Kennett Square, PA 19348-3020", "locale": "in"}, {"street1": null, "street2": null, "fullAddress": "108 E State St, Kennett Square, PA 19348-3020", "locale": "vi"}, {"street1": null, "street2": null, "fullAddress": "108 E State St, Kennett Square, PA 19348-3020", "locale": "fr_CA"}, {"street1": null, "street2": null, "fullAddress": "108 E State St, Kennett Square, PA 19348-3020", "locale": "es_AR"}, {"street1": null, "street2": null, "fullAddress": "108 E State St, \u202bKennett Square\u202c, \u0628\u0646\u0633\u064a\u0644\u0641\u0627\u0646\u064a\u0627 19348-3020", "locale": "ar_EG"}, {"street1": null, "street2": null, "fullAddress": "108 E State St, Kennett Square, PA 19348-3020", "locale": "sr"}, {"street1": null, "street2": null, "fullAddress": "108 E State St, Kennett Square, PA 19348-3020", "locale": "en_MY"}, {"street1": null, "street2": null, "fullAddress": "108 E State St, Kennett Square, PA 19348-3020", "locale": "it_CH"}, {"street1": null, "street2": null, "fullAddress": "108 E State St, Kennett Square, PA 19348-3020", "locale": "da"}, {"street1": null, "street2": null, "fullAddress": "108 E State St, Kennett Square, PA 19348-3020", "locale": "es"}, {"street1": null, "street2": null, "fullAddress": "108 E State St, Kennett Square, PA 19348-3020", "locale": "tr"}, {"street1": null, "street2": null, "fullAddress": "108 E State St, Kennett Square, PA 19348-3020", "locale": "en_HK"}, {"street1": null, "street2": null, "fullAddress": "108 E State St, Kennett Square, PA 19348-3020", "locale": "en_IE"}, {"street1": null, "street2": null, "fullAddress": "108 E State St, Kennett Square, PA 19348-3020", "locale": "en_CA"}, {"street1": null, "street2": null, "fullAddress": "108 E State St, Kennett Square, PA 19348-3020", "locale": "pl"}, {"street1": null, "street2": null, "fullAddress": "108 E State St, Kennett Square, PA 19348-3020", "locale": "nl_BE"}, {"street1": null, "street2": null, "fullAddress": "108 E State St, Kennett Square, PA 19348-3020", "locale": "no"}, {"street1": null, "street2": null, "fullAddress": "108 E State St, \u80af\u5c3c\u7279\u65af\u594e\u5c14, PA", "locale": "zh_CN"}, {"street1": null, "street2": null, "fullAddress": "108 E State St, Kennett Square, PA 19348-3020", "locale": "es_CO"}, {"street1": null, "street2": null, "fullAddress": "108 E State St, Kennett Square, PA 19348-3020", "locale": "fr"}, {"street1": null, "street2": null, "fullAddress": "108 E State St, \u30b1\u30cd\u30c3\u30c8 \u30b9\u30af\u30a8\u30a2, PA", "locale": "ja"}, {"street1": null, "street2": null, "fullAddress": "108 E State St, \u05e7\u05e0\u05d8 \u05e1\u05e7\u05d5\u05d5\u05e8, PA 19348-3020", "locale": "iw"}, {"street1": null, "street2": null, "fullAddress": "108 E State St, Kennett Square, PA 19348-3020", "locale": "de"}, {"street1": null, "street2": null, "fullAddress": "108 E State St, Kennett Square, PA 19348-3020", "locale": "en_IN"}, {"street1": null, "street2": null, "fullAddress": "108 E State St, \u80af\u5c3c\u7279\u65af\u594e\u5c14, PA", "locale": "zh"}, {"street1": null, "street2": null, "fullAddress": "108 E State St, Kennett Square, PA 19348-3020", "locale": "es_PE"}, {"street1": null, "street2": null, "fullAddress": "108 E State St, Kennett Square, PA 19348-3020", "locale": "en_PH"}], "parents": [{"placeType": "CITY", "locationId": 52926, "name": "Kennett Square"}, {"placeType": "STATE", "locationId": 28959, "name": "Pennsylvania:"}, {"placeType": "COUNTRY", "locationId": 191, "name": "Hoa K\u1ef3"}, {"placeType": "CONTINENT", "locationId": 19, "name": "B\u0103\u0301c My\u0303"}, {"placeType": null, "locationId": 1, "name": "Th\u00ea\u0301 gi\u01a1\u0301i"}], "thumbnail": {"title": "photo4.jpg", "photoSizes": [{"height": 0, "isHorizontal": true, "width": 0, "url": "https://dynamic-media-cdn.tripadvisor.com/media/photo-o/08/db/3e/26/photo4jpg.jpg?w=100&h=100&s=1"}, {"height": 50, "isHorizontal": true, "width": 50, "url": "https://media-cdn.tripadvisor.com/media/photo-t/08/db/3e/26/photo4jpg.jpg"}, {"height": 150, "isHorizontal": true, "width": 150, "url": "https://media-cdn.tripadvisor.com/media/photo-l/08/db/3e/26/photo4jpg.jpg"}, {"height": 188, "isHorizontal": true, "width": 250, "url": "https://media-cdn.tripadvisor.com/media/photo-f/08/db/3e/26/photo4jpg.jpg"}, {"height": 413, "isHorizontal": true, "width": 550, "url": "https://media-cdn.tripadvisor.com/media/photo-s/08/db/3e/26/photo4jpg.jpg"}, {"height": 768, "isHorizontal": true, "width": 1024, "url": "https://media-cdn.tripadvisor.com/media/photo-w/08/db/3e/26/photo4jpg.jpg"}, {"height": 1536, "isHorizontal": true, "width": 2048, "url": "https://media-cdn.tripadvisor.com/media/photo-o/08/db/3e/26/photo4jpg.jpg"}]}}]}}]