[{"data": {"restaurantStyles": [], "restaurantTypes": [], "restaurantMealTypes": [], "restaurantDiningOptions": [], "restaurantPrice": [], "restaurantCuisines": [], "accommodationType": [], "locations": [{"accommodationType": "T_UNKNOWN", "countryId": 191, "hoursOfOperation": {"dailyTimeIntervals": [{"day": "MONDAY", "timeIntervals": [{"openingTime": {"hours": 12, "minutes": 0}, "closingTime": {"hours": 23, "minutes": 0}}]}, {"day": "TUESDAY", "timeIntervals": [{"openingTime": {"hours": 12, "minutes": 0}, "closingTime": {"hours": 23, "minutes": 0}}]}, {"day": "WEDNESDAY", "timeIntervals": [{"openingTime": {"hours": 12, "minutes": 0}, "closingTime": {"hours": 23, "minutes": 0}}]}, {"day": "THURSDAY", "timeIntervals": [{"openingTime": {"hours": 12, "minutes": 0}, "closingTime": {"hours": 23, "minutes": 0}}]}, {"day": "FRIDAY", "timeIntervals": [{"openingTime": {"hours": 12, "minutes": 0}, "closingTime": {"hours": 1, "minutes": 0}}]}, {"day": "SATURDAY", "timeIntervals": [{"openingTime": {"hours": 12, "minutes": 0}, "closingTime": {"hours": 1, "minutes": 0}}]}, {"day": "SUNDAY", "timeIntervals": [{"openingTime": {"hours": 12, "minutes": 0}, "closingTime": {"hours": 23, "minutes": 0}}]}]}, "isClosed": false, "isOwner": false, "latitude": 38.71527, "localizedDescriptions": [], "localizedNames": [], "locationId": 1640831, "locationV2": {"attractionTypes": [{"id": 201}]}, "longitude": -75.08707, "parentId": 34048, "placeType": "ATTRACTION", "absoluteOwnerManagementUrl": "https://www.tripadvisor.com.vn/ManagementCenter-g34048-d1640831-c0-Dogfish_Head_Brew_Pub_Tour-Rehoboth_Beach_Delaware", "email": "", "geoName": "Ba\u0303i bi\u00ea\u0309n Rehoboth", "isoCountryCode": "US", "localizedName": "Dogfish Head Brew Pub Tour", "name": "Dogfish Head Brew Pub Tour", "locationDescription": null, "officialUrl": "http://www.dogfish.com/community/events/tours/index.htm", "postPhotosUrl": "/PostPhotos-d1640831", "telephone": "+1 302-226-2739", "url": "/Attraction_Review-g34048-d1640831-Reviews-Dogfish_Head_Brew_Pub_Tour-Rehoboth_Beach_Delaware.html", "writeUserReviewUrl": "/UserReview-g34048-d1640831-Dogfish_Head_Brew_Pub_Tour-Rehoboth_Beach_Delaware.html", "localizedStreetAddress": {"city": "Ba\u0303i bi\u00ea\u0309n Rehoboth", "country": "Hoa K\u1ef3", "fullAddress": "320 Rehoboth Ave, Ba\u0303i bi\u00ea\u0309n Rehoboth, DE 19971-3108", "postalCode": "19971-3108", "state": "Delaware", "street1": "320 Rehoboth Ave", "street2": ""}, "streetAddress": {"street1": "320 Rehoboth Ave", "street2": "", "state": "Delaware", "city": "Ba\u0303i bi\u00ea\u0309n Rehoboth", "postalCode": "19971-3108", "fullAddress": "320 Rehoboth Ave, Ba\u0303i bi\u00ea\u0309n Rehoboth, DE 19971-3108"}, "localizedStreetAddresses": [{"street1": null, "street2": null, "fullAddress": "320 Rehoboth Ave, Rehoboth Beach, DE 19971-3108", "locale": "fr_BE"}, {"street1": null, "street2": null, "fullAddress": "320 Rehoboth Ave, Rehoboth Beach, DE 19971-3108", "locale": "es_MX"}, {"street1": null, "street2": null, "fullAddress": "320 Rehoboth Ave, Rehoboth Beach, DE 19971-3108", "locale": "es_VE"}, {"street1": null, "street2": null, "fullAddress": "320 Rehoboth Ave, \u745e\u548c\u67cf\u65af\u6d77\u7058, DE", "locale": "zh_TW"}, {"street1": null, "street2": null, "fullAddress": "320 Rehoboth Ave, \u745e\u548c\u67cf\u65af\u6d77\u7058, DE", "locale": "zh_HK"}, {"street1": null, "street2": null, "fullAddress": "320 Rehoboth Ave, Rehoboth Beach, DE 19971-3108", "locale": "it"}, {"street1": null, "street2": null, "fullAddress": "320 Rehoboth Ave, \ub974\ud638\ubcf4\uc2a4 \ube44\uce58, DE", "locale": "ko"}, {"street1": null, "street2": null, "fullAddress": "320 Rehoboth Ave, Rehoboth Beach, DE 19971-3108", "locale": "es_CL"}, {"street1": null, "street2": null, "fullAddress": "320 Rehoboth Ave, Rehoboth Beach, DE 19971-3108", "locale": "fi"}, {"street1": null, "street2": null, "fullAddress": "320 Rehoboth Ave, Rehoboth Beach, DE 19971-3108", "locale": "pt_PT"}, {"street1": null, "street2": null, "fullAddress": "320 Rehoboth Ave, Rehoboth Beach, DE 19971-3108", "locale": "en_US"}, {"street1": null, "street2": null, "fullAddress": "320 Rehoboth Ave, \u0e40\u0e23\u0e42\u0e2e\u0e42\u0e1a\u0e17\u0e1a\u0e35\u0e0a, DE 19971-3108", "locale": "th"}, {"street1": null, "street2": null, "fullAddress": "320 Rehoboth Ave, Rehoboth Beach, DE 19971-3108", "locale": "en_SG"}, {"street1": null, "street2": null, "fullAddress": "320 Rehoboth Ave, Rehoboth Beach, DE 19971-3108", "locale": "pt"}, {"street1": null, "street2": null, "fullAddress": "320 Rehoboth Ave, Rehoboth Beach, DE 19971-3108", "locale": "en_UK"}, {"street1": null, "street2": null, "fullAddress": "320 Rehoboth Ave, \u0634\u0627\u0637\u0626 \u0631\u064a\u0647\u0648\u0628\u0648\u062b, \u202bDelaware\u202c 19971-3108", "locale": "ar"}, {"street1": null, "street2": null, "fullAddress": "320 Rehoboth Ave, \u0420\u0435\u0445\u043e\u0431\u0443\u0442-\u0411\u0438\u0447, DE 19971-3108", "locale": "ru"}, {"street1": null, "street2": null, "fullAddress": "320 Rehoboth Ave, Rehoboth Beach, DE 19971-3108", "locale": "en_NZ"}, {"street1": null, "street2": null, "fullAddress": "320 Rehoboth Ave, Rehoboth Beach, DE 19971-3108", "locale": "de_CH"}, {"street1": null, "street2": null, "fullAddress": "320 Rehoboth Ave, Rehoboth Beach, DE 19971-3108", "locale": "sk"}, {"street1": null, "street2": null, "fullAddress": "320 Rehoboth Ave, Rehoboth Beach, DE 19971-3108", "locale": "en_ZA"}, {"street1": null, "street2": null, "fullAddress": "320 Rehoboth Ave, Rehoboth Beach, DE 19971-3108", "locale": "sv"}, {"street1": null, "street2": null, "fullAddress": "320 Rehoboth Ave, Rehoboth Beach, DE 19971-3108", "locale": "cs"}, {"street1": null, "street2": null, "fullAddress": "320 Rehoboth Ave, \u03a1\u03b5\u03c7\u03cc\u03bc\u03c0\u03bf\u03b8 \u039c\u03c0\u03b9\u03c4\u03c2, DE 19971-3108", "locale": "el"}, {"street1": null, "street2": null, "fullAddress": "320 Rehoboth Ave, Rehoboth Beach, DE 19971-3108", "locale": "de_AT"}, {"street1": null, "street2": null, "fullAddress": "320 Rehoboth Ave, Rehoboth Beach, DE 19971-3108", "locale": "hu"}, {"street1": null, "street2": null, "fullAddress": "320 Rehoboth Ave, Rehoboth Beach, DE 19971-3108", "locale": "fr_CH"}, {"street1": null, "street2": null, "fullAddress": "320 Rehoboth Ave, Rehoboth Beach, DE 19971-3108", "locale": "nl"}, {"street1": null, "street2": null, "fullAddress": "320 Rehoboth Ave, Rehoboth Beach, DE 19971-3108", "locale": "en_AU"}, {"street1": null, "street2": null, "fullAddress": "320 Rehoboth Ave, Pantai Rehoboth, DE 19971-3108", "locale": "in"}, {"street1": null, "street2": null, "fullAddress": "320 Rehoboth Ave, Ba\u0303i bi\u00ea\u0309n Rehoboth, DE 19971-3108", "locale": "vi"}, {"street1": null, "street2": null, "fullAddress": "320 Rehoboth Ave, Rehoboth Beach, DE 19971-3108", "locale": "fr_CA"}, {"street1": null, "street2": null, "fullAddress": "320 Rehoboth Ave, Rehoboth Beach, DE 19971-3108", "locale": "es_AR"}, {"street1": null, "street2": null, "fullAddress": "320 Rehoboth Ave, \u0634\u0627\u0637\u0626 \u0631\u064a\u0647\u0648\u0628\u0648\u062b, \u202bDelaware\u202c 19971-3108", "locale": "ar_EG"}, {"street1": null, "street2": null, "fullAddress": "320 Rehoboth Ave, Rehoboth Beach, DE 19971-3108", "locale": "sr"}, {"street1": null, "street2": null, "fullAddress": "320 Rehoboth Ave, Rehoboth Beach, DE 19971-3108", "locale": "en_MY"}, {"street1": null, "street2": null, "fullAddress": "320 Rehoboth Ave, Rehoboth Beach, DE 19971-3108", "locale": "it_CH"}, {"street1": null, "street2": null, "fullAddress": "320 Rehoboth Ave, Rehoboth Beach, DE 19971-3108", "locale": "da"}, {"street1": null, "street2": null, "fullAddress": "320 Rehoboth Ave, Rehoboth Beach, DE 19971-3108", "locale": "es"}, {"street1": null, "street2": null, "fullAddress": "320 Rehoboth Ave, Rehoboth Beach, DE 19971-3108", "locale": "tr"}, {"street1": null, "street2": null, "fullAddress": "320 Rehoboth Ave, Rehoboth Beach, DE 19971-3108", "locale": "en_HK"}, {"street1": null, "street2": null, "fullAddress": "320 Rehoboth Ave, Rehoboth Beach, DE 19971-3108", "locale": "en_IE"}, {"street1": null, "street2": null, "fullAddress": "320 Rehoboth Ave, Rehoboth Beach, DE 19971-3108", "locale": "en_CA"}, {"street1": null, "street2": null, "fullAddress": "320 Rehoboth Ave, Rehoboth Beach, DE 19971-3108", "locale": "nl_BE"}, {"street1": null, "street2": null, "fullAddress": "320 Rehoboth Ave, Rehoboth Beach, DE 19971-3108", "locale": "no"}, {"street1": null, "street2": null, "fullAddress": "320 Rehoboth Ave, Rehoboth Beach, DE 19971-3108", "locale": "pl"}, {"street1": null, "street2": null, "fullAddress": "320 Rehoboth Ave, \u91cc\u970d\u535a\u65af\u6bd4\u5947, DE", "locale": "zh_CN"}, {"street1": null, "street2": null, "fullAddress": "320 Rehoboth Ave, Rehoboth Beach, DE 19971-3108", "locale": "es_CO"}, {"street1": null, "street2": null, "fullAddress": "320 Rehoboth Ave, Rehoboth Beach, DE 19971-3108", "locale": "fr"}, {"street1": null, "street2": null, "fullAddress": "320 Rehoboth Ave, \u30ec\u30db\u30dc\u30c8 \u30d3\u30fc\u30c1, DE", "locale": "ja"}, {"street1": null, "street2": null, "fullAddress": "320 Rehoboth Ave, \u05e8\u05d0\u05d5\u05d1\u05d5\u05ea' \u05d1\u05d9\u05e5', DE 19971-3108", "locale": "iw"}, {"street1": null, "street2": null, "fullAddress": "320 Rehoboth Ave, Rehoboth Beach, DE 19971-3108", "locale": "en_IN"}, {"street1": null, "street2": null, "fullAddress": "320 Rehoboth Ave, Rehoboth Beach, DE 19971-3108", "locale": "de"}, {"street1": null, "street2": null, "fullAddress": "320 Rehoboth Ave, \u91cc\u970d\u535a\u65af\u6bd4\u5947, DE", "locale": "zh"}, {"street1": null, "street2": null, "fullAddress": "320 Rehoboth Ave, Rehoboth Beach, DE 19971-3108", "locale": "es_PE"}, {"street1": null, "street2": null, "fullAddress": "320 Rehoboth Ave, Rehoboth Beach, DE 19971-3108", "locale": "en_PH"}], "parents": [{"placeType": "CITY", "locationId": 34048, "name": "Ba\u0303i bi\u00ea\u0309n Rehoboth"}, {"placeType": "STATE", "locationId": 28929, "name": "Delaware"}, {"placeType": "COUNTRY", "locationId": 191, "name": "Hoa K\u1ef3"}, {"placeType": "CONTINENT", "locationId": 19, "name": "B\u0103\u0301c My\u0303"}, {"placeType": null, "locationId": 1, "name": "Th\u00ea\u0301 gi\u01a1\u0301i"}], "thumbnail": {"title": "Treehouse", "photoSizes": [{"height": 0, "isHorizontal": false, "width": 0, "url": "https://dynamic-media-cdn.tripadvisor.com/media/photo-o/03/b0/90/77/dogfish-head-brew-pub.jpg?w=100&h=100&s=1"}, {"height": 50, "isHorizontal": true, "width": 50, "url": "https://media-cdn.tripadvisor.com/media/photo-t/03/b0/90/77/dogfish-head-brew-pub.jpg"}, {"height": 150, "isHorizontal": true, "width": 150, "url": "https://media-cdn.tripadvisor.com/media/photo-l/03/b0/90/77/dogfish-head-brew-pub.jpg"}, {"height": 205, "isHorizontal": false, "width": 153, "url": "https://media-cdn.tripadvisor.com/media/photo-f/03/b0/90/77/dogfish-head-brew-pub.jpg"}, {"height": 450, "isHorizontal": false, "width": 336, "url": "https://media-cdn.tripadvisor.com/media/photo-s/03/b0/90/77/dogfish-head-brew-pub.jpg"}, {"height": 736, "isHorizontal": false, "width": 550, "url": "https://media-cdn.tripadvisor.com/media/photo-p/03/b0/90/77/dogfish-head-brew-pub.jpg"}, {"height": 1500, "isHorizontal": false, "width": 1120, "url": "https://media-cdn.tripadvisor.com/media/photo-o/03/b0/90/77/dogfish-head-brew-pub.jpg"}]}}]}}]