[{"data": {"accommodationType": [], "restaurantStyles": [{"tag": {"categoryId": 235, "tagId": 10613, "tagName": "Local cuisine", "tagNameLocalized": "Mo\u0301n \u0103n \u0111i\u0323a ph\u01b0\u01a1ng", "translationKey": "tags_category_tag_local_cuisine"}}, {"tag": {"categoryId": 235, "tagId": 10604, "tagName": "Families with children", "tagNameLocalized": "Gia \u0111i\u0300nh co\u0301 tre\u0309 em", "translationKey": "tags_category_tag_families_with_children"}}, {"tag": {"categoryId": 235, "tagId": 10614, "tagName": "Romantic", "tagNameLocalized": "La\u0303ng ma\u0323n", "translationKey": "tags_category_tag_romantic_restaurant_styles"}}, {"tag": {"categoryId": 235, "tagId": 10608, "tagName": "Bar scene", "tagNameLocalized": "Quang ca\u0309nh qu\u00e2\u0300y bar", "translationKey": "tags_category_tag_bar_scene"}}, {"tag": {"categoryId": 235, "tagId": 10607, "tagName": "Special occasions", "tagNameLocalized": "Ca\u0301c di\u0323p \u0111\u0103\u0323c bi\u00ea\u0323t", "translationKey": "tags_category_tag_special_occasions"}}, {"tag": {"categoryId": 235, "tagId": 10609, "tagName": "Large groups", "tagNameLocalized": "Nho\u0301m l\u01a1\u0301n", "translationKey": "tags_category_tag_large_groups"}}, {"tag": {"categoryId": 235, "tagId": 11777, "tagName": "Kids", "tagNameLocalized": "Tr\u1ebb em", "translationKey": "tags_category_tag_kids"}}, {"tag": {"categoryId": 235, "tagId": 10610, "tagName": "Scenic view", "tagNameLocalized": "Quang ca\u0309nh \u0111e\u0323p", "translationKey": "tags_category_tag_scenic_view"}}], "restaurantTypes": [{"tag": {"categoryId": 230, "tagId": 10591, "tagName": "Restaurants", "tagNameLocalized": "Nha\u0300 ha\u0300ng", "translationKey": "tags_category_tag_restaurants"}}], "restaurantMealTypes": [{"tag": {"categoryId": 233, "tagId": 10704, "tagName": "Late Night", "tagNameLocalized": "\u0110\u00eam mu\u00f4\u0323n", "translationKey": "tags_category_tag_late_night"}}, {"tag": {"categoryId": 233, "tagId": 10599, "tagName": "Dinner", "tagNameLocalized": "B\u01b0\u0303a t\u00f4\u0301i", "translationKey": "tags_category_tag_dinner"}}], "restaurantDiningOptions": [{"tag": {"categoryId": 234, "tagId": 10601, "tagName": "Takeout", "tagNameLocalized": "C\u01b0\u0309a ha\u0300ng ba\u0301n th\u01b0\u0301c \u0103n mang v\u00ea\u0300", "translationKey": "tags_category_tag_takeout"}}, {"tag": {"categoryId": 234, "tagId": 10854, "tagName": "Parking Available", "tagNameLocalized": "C\u00f3 b\u00e3i \u0111\u1ed7 xe", "translationKey": "tags_category_tag_parking_available"}}, {"tag": {"categoryId": 234, "tagId": 10603, "tagName": "Outdoor Seating", "tagNameLocalized": "Ng\u00f4\u0300i ngoa\u0300i tr\u01a1\u0300i", "translationKey": "tags_category_tag_outdoor_seating"}}, {"tag": {"categoryId": 234, "tagId": 11780, "tagName": "Accepts Credit Cards", "tagNameLocalized": "Ch\u1ea5p nh\u1eadn th\u1ebb t\u00edn d\u1ee5ng", "translationKey": "tags_category_tag_accepts_credit_cards"}}, {"tag": {"categoryId": 234, "tagId": 16547, "tagName": "Table Service", "tagNameLocalized": "D\u1ecbch v\u1ee5 b\u00e0n", "translationKey": "tags_category_tag_table_service"}}, {"tag": {"categoryId": 234, "tagId": 10860, "tagName": "Highchairs Available", "tagNameLocalized": "C\u00f3 gh\u1ebf \u0103n cho b\u00e9", "translationKey": "tags_category_tag_highchairs_available"}}, {"tag": {"categoryId": 234, "tagId": 10862, "tagName": "Serves Alcohol", "tagNameLocalized": "Ph\u1ee5c v\u1ee5 \u0111\u1ed3 u\u1ed1ng c\u00f3 c\u1ed3n", "translationKey": "tags_category_tag_serves_alcohol"}}, {"tag": {"categoryId": 234, "tagId": 10861, "tagName": "Wheelchair Accessible", "tagNameLocalized": "L\u1ed1i v\u00e0o ra cho xe l\u0103n", "translationKey": "tags_category_tag_wheelchair_accessible"}}, {"tag": {"categoryId": 234, "tagId": 10852, "tagName": "Seating", "tagNameLocalized": "Ch\u1ed7 ng\u1ed3i", "translationKey": "tags_category_tag_seating"}}, {"tag": {"categoryId": 234, "tagId": 10863, "tagName": "Full Bar", "tagNameLocalized": "Qu\u00e2\u0300y bar \u0111\u00e2\u0300y \u0111u\u0309", "translationKey": "tags_category_tag_full_bar"}}], "restaurantPrice": [{"tag": {"categoryId": 240, "tagId": 10954, "tagName": "Fine Dining", "tagNameLocalized": "\u0102n u\u00f4\u0301ng \u01a1\u0309 nha\u0300 ha\u0300ng sang tro\u0323ng", "translationKey": "tags_category_tag_fine_dining"}}], "restaurantCuisines": [{"tag": {"categoryId": 231, "tagId": 9908, "tagName": "American", "tagNameLocalized": "Ki\u1ec3u My\u0303", "translationKey": "tags_category_tag_american"}}, {"tag": {"categoryId": 231, "tagId": 10643, "tagName": "Seafood", "tagNameLocalized": "Ha\u0309i sa\u0309n", "translationKey": "tags_category_tag_seafood"}}], "locations": [{"accommodationType": "T_UNKNOWN", "countryId": 191, "hoursOfOperation": {"dailyTimeIntervals": [{"day": "MONDAY", "timeIntervals": [{"openingTime": {"hours": 16, "minutes": 0}, "closingTime": {"hours": 21, "minutes": 0}}]}, {"day": "TUESDAY", "timeIntervals": [{"openingTime": {"hours": 16, "minutes": 0}, "closingTime": {"hours": 21, "minutes": 0}}]}, {"day": "WEDNESDAY", "timeIntervals": [{"openingTime": {"hours": 16, "minutes": 0}, "closingTime": {"hours": 21, "minutes": 0}}]}, {"day": "THURSDAY", "timeIntervals": [{"openingTime": {"hours": 16, "minutes": 0}, "closingTime": {"hours": 21, "minutes": 0}}]}, {"day": "FRIDAY", "timeIntervals": [{"openingTime": {"hours": 16, "minutes": 0}, "closingTime": {"hours": 22, "minutes": 0}}]}, {"day": "SATURDAY", "timeIntervals": [{"openingTime": {"hours": 16, "minutes": 0}, "closingTime": {"hours": 22, "minutes": 0}}]}, {"day": "SUNDAY", "timeIntervals": [{"openingTime": {"hours": 16, "minutes": 0}, "closingTime": {"hours": 21, "minutes": 0}}]}]}, "isClosed": false, "isOwner": false, "latitude": 38.55253, "localizedDescriptions": [], "localizedNames": [], "locationId": 1770816, "locationV2": {"attractionTypes": []}, "longitude": -75.06034, "parentId": 33997, "placeType": "EATERY", "absoluteOwnerManagementUrl": "https://www.tripadvisor.com.vn/RSManagementCenter-d1770816-Bluecoast_Seafood_Grill?cat=0&geo=33997", "email": null, "geoName": "Bethany Beach", "isoCountryCode": "US", "localizedName": "Bluecoast Seafood Grill", "name": "Bluecoast Seafood Grill", "locationDescription": null, "officialUrl": "http://www.bluecoastseafoodgrill.com/", "postPhotosUrl": "/PostPhotos-d1770816", "telephone": "+1 302-539-7111", "url": "/Restaurant_Review-g33997-d1770816-Reviews-Bluecoast_Seafood_Grill-Bethany_Beach_Delaware.html", "writeUserReviewUrl": "/UserReview-g33997-d1770816-Bluecoast_Seafood_Grill-Bethany_Beach_Delaware.html", "localizedStreetAddress": {"city": "Bethany Beach", "country": "Hoa K\u1ef3", "fullAddress": "30904 Coastal Hwy, Bethany Beach, DE 19930", "postalCode": "19930", "state": "Delaware", "street1": "30904 Coastal Hwy", "street2": ""}, "streetAddress": {"street1": "30904 Coastal Hwy", "street2": "", "state": "Delaware", "city": "Bethany Beach", "postalCode": "19930", "fullAddress": "30904 Coastal Hwy, Bethany Beach, DE 19930"}, "localizedStreetAddresses": [{"street1": null, "street2": null, "fullAddress": "30904 Coastal Hwy, Bethany Beach, DE 19930", "locale": "es_MX"}, {"street1": null, "street2": null, "fullAddress": "30904 Coastal Hwy, Bethany Beach, DE 19930", "locale": "fr_BE"}, {"street1": null, "street2": null, "fullAddress": "30904 Coastal Hwy, Bethany Beach, DE 19930", "locale": "es_VE"}, {"street1": null, "street2": null, "fullAddress": "30904 Coastal Hwy, Bethany Beach, DE", "locale": "zh_HK"}, {"street1": null, "street2": null, "fullAddress": "30904 Coastal Hwy, Bethany Beach, DE", "locale": "zh_TW"}, {"street1": null, "street2": null, "fullAddress": "30904 Coastal Hwy, Bethany Beach, DE 19930", "locale": "it"}, {"street1": null, "street2": null, "fullAddress": "30904 Coastal Hwy, \ubca0\ub2e4\ub2c8 \ube44\uce58, DE", "locale": "ko"}, {"street1": null, "street2": null, "fullAddress": "30904 Coastal Hwy, Bethany Beach, DE 19930", "locale": "es_CL"}, {"street1": null, "street2": null, "fullAddress": "30904 Coastal Hwy, Bethany Beach, DE 19930", "locale": "fi"}, {"street1": null, "street2": null, "fullAddress": "30904 Coastal Hwy, Bethany Beach, DE 19930", "locale": "pt_PT"}, {"street1": null, "street2": null, "fullAddress": "30904 Coastal Hwy, Bethany Beach, DE 19930", "locale": "en_US"}, {"street1": null, "street2": null, "fullAddress": "30904 Coastal Hwy, \u0e40\u0e1a\u0e17\u0e32\u0e19\u0e35\u0e1a\u0e35\u0e0a, DE 19930", "locale": "th"}, {"street1": null, "street2": null, "fullAddress": "30904 Coastal Hwy, Bethany Beach, DE 19930", "locale": "en_SG"}, {"street1": null, "street2": null, "fullAddress": "30904 Coastal Hwy, Bethany Beach, DE 19930", "locale": "en_UK"}, {"street1": null, "street2": null, "fullAddress": "30904 Coastal Hwy, Bethany Beach, DE 19930", "locale": "pt"}, {"street1": null, "street2": null, "fullAddress": "30904 Coastal Hwy, \u202bBethany Beach\u202c, \u202bDelaware\u202c 19930", "locale": "ar"}, {"street1": null, "street2": null, "fullAddress": "30904 Coastal Hwy, Bethany Beach, DE 19930", "locale": "ru"}, {"street1": null, "street2": null, "fullAddress": "30904 Coastal Hwy, Bethany Beach, DE 19930", "locale": "en_NZ"}, {"street1": null, "street2": null, "fullAddress": "30904 Coastal Hwy, Bethany Beach, DE 19930", "locale": "de_CH"}, {"street1": null, "street2": null, "fullAddress": "30904 Coastal Hwy, Bethany Beach, DE 19930", "locale": "sk"}, {"street1": null, "street2": null, "fullAddress": "30904 Coastal Hwy, Bethany Beach, DE 19930", "locale": "en_ZA"}, {"street1": null, "street2": null, "fullAddress": "30904 Coastal Hwy, Bethany Beach, DE 19930", "locale": "sv"}, {"street1": null, "street2": null, "fullAddress": "30904 Coastal Hwy, Bethany Beach, DE 19930", "locale": "cs"}, {"street1": null, "street2": null, "fullAddress": "30904 Coastal Hwy, \u03a0\u03b1\u03c1\u03b1\u03bb\u03af\u03b1 Bethany, DE 19930", "locale": "el"}, {"street1": null, "street2": null, "fullAddress": "30904 Coastal Hwy, Bethany Beach, DE 19930", "locale": "de_AT"}, {"street1": null, "street2": null, "fullAddress": "30904 Coastal Hwy, Bethany Beach, DE 19930", "locale": "fr_CH"}, {"street1": null, "street2": null, "fullAddress": "30904 Coastal Hwy, Bethany Beach, DE 19930", "locale": "nl"}, {"street1": null, "street2": null, "fullAddress": "30904 Coastal Hwy, Bethany Beach, DE 19930", "locale": "hu"}, {"street1": null, "street2": null, "fullAddress": "30904 Coastal Hwy, Bethany Beach, DE 19930", "locale": "en_AU"}, {"street1": null, "street2": null, "fullAddress": "30904 Coastal Hwy, Bethany Beach, DE 19930", "locale": "in"}, {"street1": null, "street2": null, "fullAddress": "30904 Coastal Hwy, Bethany Beach, DE 19930", "locale": "vi"}, {"street1": null, "street2": null, "fullAddress": "30904 Coastal Hwy, Bethany Beach, DE 19930", "locale": "fr_CA"}, {"street1": null, "street2": null, "fullAddress": "30904 Coastal Hwy, Bethany Beach, DE 19930", "locale": "es_AR"}, {"street1": null, "street2": null, "fullAddress": "30904 Coastal Hwy, \u202bBethany Beach\u202c, \u202bDelaware\u202c 19930", "locale": "ar_EG"}, {"street1": null, "street2": null, "fullAddress": "30904 Coastal Hwy, Bethany Beach, DE 19930", "locale": "en_MY"}, {"street1": null, "street2": null, "fullAddress": "30904 Coastal Hwy, Bethany Beach, DE 19930", "locale": "sr"}, {"street1": null, "street2": null, "fullAddress": "30904 Coastal Hwy, Bethany Beach, DE 19930", "locale": "it_CH"}, {"street1": null, "street2": null, "fullAddress": "30904 Coastal Hwy, Bethany Beach, DE 19930", "locale": "da"}, {"street1": null, "street2": null, "fullAddress": "30904 Coastal Hwy, Bethany Beach, DE 19930", "locale": "es"}, {"street1": null, "street2": null, "fullAddress": "30904 Coastal Hwy, Bethany Beach, DE 19930", "locale": "tr"}, {"street1": null, "street2": null, "fullAddress": "30904 Coastal Hwy, Bethany Beach, DE 19930", "locale": "en_HK"}, {"street1": null, "street2": null, "fullAddress": "30904 Coastal Hwy, Bethany Beach, DE 19930", "locale": "en_IE"}, {"street1": null, "street2": null, "fullAddress": "30904 Coastal Hwy, Bethany Beach, DE 19930", "locale": "en_CA"}, {"street1": null, "street2": null, "fullAddress": "30904 Coastal Hwy, Bethany Beach, DE 19930", "locale": "nl_BE"}, {"street1": null, "street2": null, "fullAddress": "30904 Coastal Hwy, Bethany Beach, DE 19930", "locale": "no"}, {"street1": null, "street2": null, "fullAddress": "30904 Coastal Hwy, Bethany Beach, DE 19930", "locale": "pl"}, {"street1": null, "street2": null, "fullAddress": "30904 Coastal Hwy, Bethany Beach, DE", "locale": "zh_CN"}, {"street1": null, "street2": null, "fullAddress": "30904 Coastal Hwy, Bethany Beach, DE 19930", "locale": "es_CO"}, {"street1": null, "street2": null, "fullAddress": "30904 Coastal Hwy, Bethany Beach, DE 19930", "locale": "fr"}, {"street1": null, "street2": null, "fullAddress": "30904 Coastal Hwy, \u30d9\u30bf\u30cb\u30e4 \u30d3\u30fc\u30c1, DE", "locale": "ja"}, {"street1": null, "street2": null, "fullAddress": "30904 Coastal Hwy, \u05d1\u05ea'\u05e0\u05d9 \u05d1\u05d9\u05e5', DE 19930", "locale": "iw"}, {"street1": null, "street2": null, "fullAddress": "30904 Coastal Hwy, Bethany Beach, DE 19930", "locale": "en_IN"}, {"street1": null, "street2": null, "fullAddress": "30904 Coastal Hwy, Bethany Beach, DE 19930", "locale": "de"}, {"street1": null, "street2": null, "fullAddress": "30904 Coastal Hwy, Bethany Beach, DE", "locale": "zh"}, {"street1": null, "street2": null, "fullAddress": "30904 Coastal Hwy, Bethany Beach, DE 19930", "locale": "es_PE"}, {"street1": null, "street2": null, "fullAddress": "30904 Coastal Hwy, Bethany Beach, DE 19930", "locale": "en_PH"}], "parents": [{"placeType": "CITY", "locationId": 33997, "name": "Bethany Beach"}, {"placeType": "STATE", "locationId": 28929, "name": "Delaware"}, {"placeType": "COUNTRY", "locationId": 191, "name": "Hoa K\u1ef3"}, {"placeType": "CONTINENT", "locationId": 19, "name": "B\u0103\u0301c My\u0303"}, {"placeType": null, "locationId": 1, "name": "Th\u00ea\u0301 gi\u01a1\u0301i"}], "thumbnail": {"title": null, "photoSizes": [{"height": 0, "isHorizontal": false, "width": 0, "url": "https://dynamic-media-cdn.tripadvisor.com/media/photo-o/1a/37/a0/11/togarashi-seared-tuna.jpg?w=100&h=100&s=1"}, {"height": 50, "isHorizontal": true, "width": 50, "url": "https://media-cdn.tripadvisor.com/media/photo-t/1a/37/a0/11/togarashi-seared-tuna.jpg"}, {"height": 150, "isHorizontal": true, "width": 150, "url": "https://media-cdn.tripadvisor.com/media/photo-l/1a/37/a0/11/togarashi-seared-tuna.jpg"}, {"height": 200, "isHorizontal": false, "width": 180, "url": "https://media-cdn.tripadvisor.com/media/photo-i/1a/37/a0/11/togarashi-seared-tuna.jpg"}, {"height": 205, "isHorizontal": true, "width": 205, "url": "https://media-cdn.tripadvisor.com/media/photo-f/1a/37/a0/11/togarashi-seared-tuna.jpg"}, {"height": 450, "isHorizontal": true, "width": 450, "url": "https://media-cdn.tripadvisor.com/media/photo-s/1a/37/a0/11/togarashi-seared-tuna.jpg"}, {"height": 550, "isHorizontal": true, "width": 550, "url": "https://media-cdn.tripadvisor.com/media/photo-p/1a/37/a0/11/togarashi-seared-tuna.jpg"}, {"height": 1024, "isHorizontal": true, "width": 1024, "url": "https://media-cdn.tripadvisor.com/media/photo-w/1a/37/a0/11/togarashi-seared-tuna.jpg"}, {"height": 1280, "isHorizontal": true, "width": 1280, "url": "https://media-cdn.tripadvisor.com/media/photo-m/1280/1a/37/a0/11/togarashi-seared-tuna.jpg"}]}}]}}]