[{"data": {"restaurantStyles": [], "restaurantMealTypes": [], "restaurantDiningOptions": [], "restaurantCuisines": [], "accommodationType": [], "restaurantTypes": [{"tag": {"categoryId": 230, "tagId": 10591, "tagName": "Restaurants", "tagNameLocalized": "Nha\u0300 ha\u0300ng", "translationKey": "tags_category_tag_restaurants"}}], "restaurantPrice": [{"tag": {"categoryId": 240, "tagId": 10953, "tagName": "Cheap Eats", "tagNameLocalized": "\u0110\u00f4\u0300 \u0103n gia\u0301 re\u0309", "translationKey": "tags_category_tag_cheap_eats"}}], "locations": [{"accommodationType": "T_UNKNOWN", "countryId": 191, "hoursOfOperation": {"dailyTimeIntervals": [{"day": "MONDAY", "timeIntervals": []}, {"day": "TUESDAY", "timeIntervals": []}, {"day": "WEDNESDAY", "timeIntervals": []}, {"day": "THURSDAY", "timeIntervals": [{"openingTime": {"hours": 16, "minutes": 0}, "closingTime": {"hours": 20, "minutes": 0}}]}, {"day": "FRIDAY", "timeIntervals": [{"openingTime": {"hours": 16, "minutes": 0}, "closingTime": {"hours": 20, "minutes": 0}}]}, {"day": "SATURDAY", "timeIntervals": [{"openingTime": {"hours": 12, "minutes": 0}, "closingTime": {"hours": 21, "minutes": 0}}]}, {"day": "SUNDAY", "timeIntervals": [{"openingTime": {"hours": 4, "minutes": 0}, "closingTime": {"hours": 20, "minutes": 0}}]}]}, "isClosed": false, "isOwner": false, "latitude": 38.55146, "localizedDescriptions": [], "localizedNames": [], "locationId": 19340591, "locationV2": {"attractionTypes": []}, "longitude": -75.120605, "parentId": 1900178, "placeType": "EATERY", "absoluteOwnerManagementUrl": "https://www.tripadvisor.com.vn/RSManagementCenter-d19340591-Agape_Creamery_LLC?cat=0&geo=1900178", "email": null, "geoName": "Millville", "isoCountryCode": "US", "localizedName": "Agape Creamery LLC", "name": "Agape Creamery LLC", "locationDescription": null, "officialUrl": "http://www.MillvilleBoardwalk.com", "postPhotosUrl": "/PostPhotos-d19340591", "telephone": "+1 302-858-7478", "url": "/Restaurant_Review-g1900178-d19340591-Reviews-Agape_Creamery_LLC-Millville_Delaware.html", "writeUserReviewUrl": "/UserReview-g1900178-d19340591-Agape_Creamery_LLC-Millville_Delaware.html", "localizedStreetAddress": {"city": "Millville", "country": "Hoa K\u1ef3", "fullAddress": "35287 Atlantic Ave, Millville, DE 19967", "postalCode": "19967", "state": "Delaware", "street1": "35287 Atlantic Ave", "street2": ""}, "streetAddress": {"street1": "35287 Atlantic Ave", "street2": "", "state": "Delaware", "city": "Millville", "postalCode": "19967", "fullAddress": "35287 Atlantic Ave, Millville, DE 19967"}, "localizedStreetAddresses": [{"street1": null, "street2": null, "fullAddress": "35287 Atlantic Ave, Millville, DE 19967", "locale": "es_MX"}, {"street1": null, "street2": null, "fullAddress": "35287 Atlantic Ave, Millville, DE 19967", "locale": "fr_BE"}, {"street1": null, "street2": null, "fullAddress": "35287 Atlantic Ave, Millville, DE 19967", "locale": "es_VE"}, {"street1": null, "street2": null, "fullAddress": "35287 Atlantic Ave, Millville, DE", "locale": "zh_TW"}, {"street1": null, "street2": null, "fullAddress": "35287 Atlantic Ave, Millville, DE", "locale": "zh_HK"}, {"street1": null, "street2": null, "fullAddress": "35287 Atlantic Ave, Millville, DE 19967", "locale": "it"}, {"street1": null, "street2": null, "fullAddress": "35287 Atlantic Ave, Millville, DE", "locale": "ko"}, {"street1": null, "street2": null, "fullAddress": "35287 Atlantic Ave, Millville, DE 19967", "locale": "es_CL"}, {"street1": null, "street2": null, "fullAddress": "35287 Atlantic Ave, Millville, DE 19967", "locale": "fi"}, {"street1": null, "street2": null, "fullAddress": "35287 Atlantic Ave, Millville, DE 19967", "locale": "pt_PT"}, {"street1": null, "street2": null, "fullAddress": "35287 Atlantic Ave, Millville, DE 19967", "locale": "en_US"}, {"street1": null, "street2": null, "fullAddress": "35287 Atlantic Ave, Millville, DE 19967", "locale": "th"}, {"street1": null, "street2": null, "fullAddress": "35287 Atlantic Ave, Millville, DE 19967", "locale": "en_SG"}, {"street1": null, "street2": null, "fullAddress": "35287 Atlantic Ave, Millville, DE 19967", "locale": "pt"}, {"street1": null, "street2": null, "fullAddress": "35287 Atlantic Ave, Millville, DE 19967", "locale": "en_UK"}, {"street1": null, "street2": null, "fullAddress": "35287 Atlantic Ave, \u202bMillville\u202c, \u202bDelaware\u202c 19967", "locale": "ar"}, {"street1": null, "street2": null, "fullAddress": "35287 Atlantic Ave, Millville, DE 19967", "locale": "ru"}, {"street1": null, "street2": null, "fullAddress": "35287 Atlantic Ave, Millville, DE 19967", "locale": "en_NZ"}, {"street1": null, "street2": null, "fullAddress": "35287 Atlantic Ave, Millville, DE 19967", "locale": "de_CH"}, {"street1": null, "street2": null, "fullAddress": "35287 Atlantic Ave, Millville, DE 19967", "locale": "sk"}, {"street1": null, "street2": null, "fullAddress": "35287 Atlantic Ave, Millville, DE 19967", "locale": "en_ZA"}, {"street1": null, "street2": null, "fullAddress": "35287 Atlantic Ave, Millville, DE 19967", "locale": "cs"}, {"street1": null, "street2": null, "fullAddress": "35287 Atlantic Ave, Millville, DE 19967", "locale": "sv"}, {"street1": null, "street2": null, "fullAddress": "35287 Atlantic Ave, Millville, DE 19967", "locale": "el"}, {"street1": null, "street2": null, "fullAddress": "35287 Atlantic Ave, Millville, DE 19967", "locale": "de_AT"}, {"street1": null, "street2": null, "fullAddress": "35287 Atlantic Ave, Millville, DE 19967", "locale": "hu"}, {"street1": null, "street2": null, "fullAddress": "35287 Atlantic Ave, Millville, DE 19967", "locale": "nl"}, {"street1": null, "street2": null, "fullAddress": "35287 Atlantic Ave, Millville, DE 19967", "locale": "fr_CH"}, {"street1": null, "street2": null, "fullAddress": "35287 Atlantic Ave, Millville, DE 19967", "locale": "en_AU"}, {"street1": null, "street2": null, "fullAddress": "35287 Atlantic Ave, Millville, DE 19967", "locale": "in"}, {"street1": null, "street2": null, "fullAddress": "35287 Atlantic Ave, Millville, DE 19967", "locale": "vi"}, {"street1": null, "street2": null, "fullAddress": "35287 Atlantic Ave, Millville, DE 19967", "locale": "fr_CA"}, {"street1": null, "street2": null, "fullAddress": "35287 Atlantic Ave, Millville, DE 19967", "locale": "es_AR"}, {"street1": null, "street2": null, "fullAddress": "35287 Atlantic Ave, \u202bMillville\u202c, \u202bDelaware\u202c 19967", "locale": "ar_EG"}, {"street1": null, "street2": null, "fullAddress": "35287 Atlantic Ave, Millville, DE 19967", "locale": "sr"}, {"street1": null, "street2": null, "fullAddress": "35287 Atlantic Ave, Millville, DE 19967", "locale": "en_MY"}, {"street1": null, "street2": null, "fullAddress": "35287 Atlantic Ave, Millville, DE 19967", "locale": "it_CH"}, {"street1": null, "street2": null, "fullAddress": "35287 Atlantic Ave, Millville, DE 19967", "locale": "da"}, {"street1": null, "street2": null, "fullAddress": "35287 Atlantic Ave, Millville, DE 19967", "locale": "es"}, {"street1": null, "street2": null, "fullAddress": "35287 Atlantic Ave, Millville, DE 19967", "locale": "tr"}, {"street1": null, "street2": null, "fullAddress": "35287 Atlantic Ave, Millville, DE 19967", "locale": "en_HK"}, {"street1": null, "street2": null, "fullAddress": "35287 Atlantic Ave, Millville, DE 19967", "locale": "en_IE"}, {"street1": null, "street2": null, "fullAddress": "35287 Atlantic Ave, Millville, DE 19967", "locale": "en_CA"}, {"street1": null, "street2": null, "fullAddress": "35287 Atlantic Ave, Millville, DE 19967", "locale": "no"}, {"street1": null, "street2": null, "fullAddress": "35287 Atlantic Ave, Millville, DE 19967", "locale": "nl_BE"}, {"street1": null, "street2": null, "fullAddress": "35287 Atlantic Ave, Millville, DE 19967", "locale": "pl"}, {"street1": null, "street2": null, "fullAddress": "35287 Atlantic Ave, Millville, DE", "locale": "zh_CN"}, {"street1": null, "street2": null, "fullAddress": "35287 Atlantic Ave, Millville, DE 19967", "locale": "es_CO"}, {"street1": null, "street2": null, "fullAddress": "35287 Atlantic Ave, Millville, DE 19967", "locale": "fr"}, {"street1": null, "street2": null, "fullAddress": "35287 Atlantic Ave, \u30df\u30eb\u30d3\u30eb, DE", "locale": "ja"}, {"street1": null, "street2": null, "fullAddress": "35287 Atlantic Ave, \u202bMillville\u202c, DE 19967", "locale": "iw"}, {"street1": null, "street2": null, "fullAddress": "35287 Atlantic Ave, Millville, DE 19967", "locale": "de"}, {"street1": null, "street2": null, "fullAddress": "35287 Atlantic Ave, Millville, DE 19967", "locale": "en_IN"}, {"street1": null, "street2": null, "fullAddress": "35287 Atlantic Ave, Millville, DE", "locale": "zh"}, {"street1": null, "street2": null, "fullAddress": "35287 Atlantic Ave, Millville, DE 19967", "locale": "es_PE"}, {"street1": null, "street2": null, "fullAddress": "35287 Atlantic Ave, Millville, DE 19967", "locale": "en_PH"}], "parents": [{"placeType": "CITY", "locationId": 1900178, "name": "Millville"}, {"placeType": "STATE", "locationId": 28929, "name": "Delaware"}, {"placeType": "COUNTRY", "locationId": 191, "name": "Hoa K\u1ef3"}, {"placeType": "CONTINENT", "locationId": 19, "name": "B\u0103\u0301c My\u0303"}, {"placeType": null, "locationId": 1, "name": "Th\u00ea\u0301 gi\u01a1\u0301i"}], "thumbnail": {"title": null, "photoSizes": [{"height": 0, "isHorizontal": true, "width": 0, "url": "https://dynamic-media-cdn.tripadvisor.com/media/photo-o/2a/4f/51/6a/caption.jpg?w=100&h=100&s=1"}, {"height": 50, "isHorizontal": true, "width": 50, "url": "https://media-cdn.tripadvisor.com/media/photo-t/2a/4f/51/6a/caption.jpg"}, {"height": 150, "isHorizontal": true, "width": 150, "url": "https://media-cdn.tripadvisor.com/media/photo-l/2a/4f/51/6a/caption.jpg"}, {"height": 200, "isHorizontal": false, "width": 180, "url": "https://media-cdn.tripadvisor.com/media/photo-i/2a/4f/51/6a/caption.jpg"}, {"height": 188, "isHorizontal": true, "width": 250, "url": "https://media-cdn.tripadvisor.com/media/photo-f/2a/4f/51/6a/caption.jpg"}, {"height": 413, "isHorizontal": true, "width": 550, "url": "https://media-cdn.tripadvisor.com/media/photo-s/2a/4f/51/6a/caption.jpg"}, {"height": 768, "isHorizontal": true, "width": 1024, "url": "https://media-cdn.tripadvisor.com/media/photo-w/2a/4f/51/6a/caption.jpg"}, {"height": 960, "isHorizontal": true, "width": 1280, "url": "https://media-cdn.tripadvisor.com/media/photo-m/1280/2a/4f/51/6a/caption.jpg"}]}}]}}]