[{"data": {"accommodationType": [], "restaurantStyles": [{"tag": {"categoryId": 235, "tagId": 16550, "tagName": "Hidden Gems - Restaurant Styles", "tagNameLocalized": "Vi\u00ean ngo\u0323c \u00e2\u0309n", "translationKey": "tags_category_tag_hidden_gems_restaurant_styles"}}, {"tag": {"categoryId": 235, "tagId": 12504, "tagName": "Hot New Restaurants", "tagNameLocalized": "Nh\u00e0 h\u00e0ng m\u1edbi n\u1ed5i b\u1eadt", "translationKey": "tags_category_tag_hot_new_restaurants"}}, {"tag": {"categoryId": 235, "tagId": 10604, "tagName": "Families with children", "tagNameLocalized": "Gia \u0111i\u0300nh co\u0301 tre\u0309 em", "translationKey": "tags_category_tag_families_with_children"}}, {"tag": {"categoryId": 235, "tagId": 10614, "tagName": "Romantic", "tagNameLocalized": "La\u0303ng ma\u0323n", "translationKey": "tags_category_tag_romantic_restaurant_styles"}}, {"tag": {"categoryId": 235, "tagId": 10605, "tagName": "Doing business", "tagNameLocalized": "H\u1ecdp c\u00f4ng vi\u1ec7c", "translationKey": "business_meetings"}}, {"tag": {"categoryId": 235, "tagId": 10607, "tagName": "Special occasions", "tagNameLocalized": "Ca\u0301c di\u0323p \u0111\u0103\u0323c bi\u00ea\u0323t", "translationKey": "tags_category_tag_special_occasions"}}, {"tag": {"categoryId": 235, "tagId": 10609, "tagName": "Large groups", "tagNameLocalized": "Nho\u0301m l\u01a1\u0301n", "translationKey": "tags_category_tag_large_groups"}}], "restaurantTypes": [{"tag": {"categoryId": 230, "tagId": 10591, "tagName": "Restaurants", "tagNameLocalized": "Nha\u0300 ha\u0300ng", "translationKey": "tags_category_tag_restaurants"}}], "restaurantMealTypes": [{"tag": {"categoryId": 233, "tagId": 10599, "tagName": "Dinner", "tagNameLocalized": "B\u01b0\u0303a t\u00f4\u0301i", "translationKey": "tags_category_tag_dinner"}}], "restaurantDiningOptions": [{"tag": {"categoryId": 234, "tagId": 21379, "tagName": "Non-smoking restaurants", "tagNameLocalized": "Nh\u00e0 h\u00e0ng kh\u00f4ng h\u00fat thu\u1ed1c", "translationKey": "tags_category_tag_non_smoking_restaurants"}}, {"tag": {"categoryId": 234, "tagId": 11780, "tagName": "Accepts Credit Cards", "tagNameLocalized": "Ch\u1ea5p nh\u1eadn th\u1ebb t\u00edn d\u1ee5ng", "translationKey": "tags_category_tag_accepts_credit_cards"}}, {"tag": {"categoryId": 234, "tagId": 10602, "tagName": "Reservations", "tagNameLocalized": "\u0110\u0103\u0323t ch\u00f4\u0303", "translationKey": "tags_category_tag_reservations"}}, {"tag": {"categoryId": 234, "tagId": 10866, "tagName": "Accepts Mastercard", "tagNameLocalized": "Ch\u1ea5p nh\u1eadn th\u1ebb Mastercard", "translationKey": "tags_category_tag_accepts_mastercard"}}, {"tag": {"categoryId": 234, "tagId": 10601, "tagName": "Takeout", "tagNameLocalized": "C\u01b0\u0309a ha\u0300ng ba\u0301n th\u01b0\u0301c \u0103n mang v\u00ea\u0300", "translationKey": "tags_category_tag_takeout"}}, {"tag": {"categoryId": 234, "tagId": 10865, "tagName": "Accepts American Express", "tagNameLocalized": "Ch\u1ea5p nh\u1eadn th\u1ebb American Express", "translationKey": "tags_category_tag_accepts_american_express"}}, {"tag": {"categoryId": 234, "tagId": 10603, "tagName": "Outdoor Seating", "tagNameLocalized": "Ng\u00f4\u0300i ngoa\u0300i tr\u01a1\u0300i", "translationKey": "tags_category_tag_outdoor_seating"}}, {"tag": {"categoryId": 234, "tagId": 10867, "tagName": "Accepts Visa", "tagNameLocalized": "Ch\u1ea5p nh\u1eadn th\u1ebb Visa", "translationKey": "tags_category_tag_accepts_visa"}}, {"tag": {"categoryId": 234, "tagId": 10858, "tagName": "Free Off-Street Parking", "tagNameLocalized": "B\u00e3i \u0111\u1ed7 xe t\u1eadp trung mi\u1ec5n ph\u00ed", "translationKey": "tags_category_tag_free_off_street_parking"}}, {"tag": {"categoryId": 234, "tagId": 21907, "tagName": "Gift Cards Available", "tagNameLocalized": "C\u00f3 th\u1ebb qu\u00e0 t\u1eb7ng", "translationKey": "tags_category_tag_gift_cards_available"}}, {"tag": {"categoryId": 234, "tagId": 16547, "tagName": "Table Service", "tagNameLocalized": "D\u1ecbch v\u1ee5 b\u00e0n", "translationKey": "tags_category_tag_table_service"}}, {"tag": {"categoryId": 234, "tagId": 10871, "tagName": "Accepts Discover", "tagNameLocalized": "Ch\u1ea5p nh\u1eadn th\u1ebb Discover", "translationKey": "tags_category_tag_accepts_discover"}}, {"tag": {"categoryId": 234, "tagId": 10862, "tagName": "Serves Alcohol", "tagNameLocalized": "Ph\u1ee5c v\u1ee5 \u0111\u1ed3 u\u1ed1ng c\u00f3 c\u1ed3n", "translationKey": "tags_category_tag_serves_alcohol"}}, {"tag": {"categoryId": 234, "tagId": 10864, "tagName": "Wine and Beer", "tagNameLocalized": "R\u01b0\u1ee3u v\u00e0 bia", "translationKey": "tags_category_tag_wine_and_beer"}}, {"tag": {"categoryId": 234, "tagId": 10852, "tagName": "Seating", "tagNameLocalized": "Ch\u1ed7 ng\u1ed3i", "translationKey": "tags_category_tag_seating"}}], "restaurantPrice": [{"tag": {"categoryId": 240, "tagId": 10954, "tagName": "Fine Dining", "tagNameLocalized": "\u0102n u\u00f4\u0301ng \u01a1\u0309 nha\u0300 ha\u0300ng sang tro\u0323ng", "translationKey": "tags_category_tag_fine_dining"}}], "restaurantCuisines": [{"tag": {"categoryId": 231, "tagId": 4617, "tagName": "Italian", "tagNameLocalized": "Ki\u00ea\u0309u Y\u0301", "translationKey": "tags_category_tag_italian"}}, {"tag": {"categoryId": 231, "tagId": 20066, "tagName": "Tuscan", "tagNameLocalized": "Tuscany", "translationKey": "tags_category_tag_tuscan"}}, {"tag": {"categoryId": 231, "tagId": 20075, "tagName": "Central-Italian", "tagNameLocalized": "Mi\u1ec1n Trung n\u01b0\u1edbc \u00dd", "translationKey": "tags_category_tag_central_italian"}}], "locations": [{"accommodationType": "T_UNKNOWN", "countryId": 191, "hoursOfOperation": {"dailyTimeIntervals": [{"day": "MONDAY", "timeIntervals": []}, {"day": "TUESDAY", "timeIntervals": [{"openingTime": {"hours": 16, "minutes": 0}, "closingTime": {"hours": 21, "minutes": 0}}]}, {"day": "WEDNESDAY", "timeIntervals": [{"openingTime": {"hours": 16, "minutes": 0}, "closingTime": {"hours": 21, "minutes": 0}}]}, {"day": "THURSDAY", "timeIntervals": [{"openingTime": {"hours": 16, "minutes": 0}, "closingTime": {"hours": 21, "minutes": 0}}]}, {"day": "FRIDAY", "timeIntervals": [{"openingTime": {"hours": 16, "minutes": 0}, "closingTime": {"hours": 21, "minutes": 0}}]}, {"day": "SATURDAY", "timeIntervals": [{"openingTime": {"hours": 16, "minutes": 0}, "closingTime": {"hours": 21, "minutes": 0}}]}, {"day": "SUNDAY", "timeIntervals": []}]}, "isClosed": false, "isOwner": false, "latitude": 38.91583, "localizedDescriptions": [], "localizedNames": [], "locationId": 21056588, "locationV2": {"attractionTypes": []}, "longitude": -75.42494, "parentId": 34037, "placeType": "EATERY", "absoluteOwnerManagementUrl": "https://www.tripadvisor.com.vn/RSManagementCenter-d21056588-Benevenuto?cat=0&geo=34037", "email": "info@benvenuto-restaurant.com", "geoName": "Milford", "isoCountryCode": "US", "localizedName": "Benevenuto", "name": "Benevenuto", "locationDescription": null, "officialUrl": "https://benvenuto-restaurant.com/", "postPhotosUrl": "/PostPhotos-d21056588", "telephone": "+1 302-265-2652", "url": "/Restaurant_Review-g34037-d21056588-Reviews-Benevenuto-Milford_Delaware.html", "writeUserReviewUrl": "/UserReview-g34037-d21056588-Benevenuto-Milford_Delaware.html", "localizedStreetAddress": {"city": "Milford", "country": "Hoa K\u1ef3", "fullAddress": "249 NE Front St, Milford, DE 19963-1431", "postalCode": "19963-1431", "state": "Delaware", "street1": "249 NE Front St", "street2": ""}, "streetAddress": {"street1": "249 NE Front St", "street2": "", "state": "Delaware", "city": "Milford", "postalCode": "19963-1431", "fullAddress": "249 NE Front St, Milford, DE 19963-1431"}, "localizedStreetAddresses": [{"street1": null, "street2": null, "fullAddress": "249 NE Front St, Milford, DE 19963-1431", "locale": "es_MX"}, {"street1": null, "street2": null, "fullAddress": "249 NE Front St, Milford, DE 19963-1431", "locale": "fr_BE"}, {"street1": null, "street2": null, "fullAddress": "249 NE Front St, Milford, DE 19963-1431", "locale": "es_VE"}, {"street1": null, "street2": null, "fullAddress": "249 NE Front St, Milford, DE", "locale": "zh_TW"}, {"street1": null, "street2": null, "fullAddress": "249 NE Front St, Milford, DE", "locale": "zh_HK"}, {"street1": null, "street2": null, "fullAddress": "249 NE Front St, Milford, DE 19963-1431", "locale": "it"}, {"street1": null, "street2": null, "fullAddress": "249 NE Front St, \ubc00\ud37c\ub4dc, DE", "locale": "ko"}, {"street1": null, "street2": null, "fullAddress": "249 NE Front St, Milford, DE 19963-1431", "locale": "es_CL"}, {"street1": null, "street2": null, "fullAddress": "249 NE Front St, Milford, DE 19963-1431", "locale": "fi"}, {"street1": null, "street2": null, "fullAddress": "249 NE Front St, Milford, DE 19963-1431", "locale": "pt_PT"}, {"street1": null, "street2": null, "fullAddress": "249 NE Front St, Milford, DE 19963-1431", "locale": "en_US"}, {"street1": null, "street2": null, "fullAddress": "249 NE Front St, \u0e21\u0e34\u0e25\u0e1f\u0e2d\u0e23\u0e4c\u0e14, DE 19963-1431", "locale": "th"}, {"street1": null, "street2": null, "fullAddress": "249 NE Front St, Milford, DE 19963-1431", "locale": "en_SG"}, {"street1": null, "street2": null, "fullAddress": "249 NE Front St, Milford, DE 19963-1431", "locale": "pt"}, {"street1": null, "street2": null, "fullAddress": "249 NE Front St, Milford, DE 19963-1431", "locale": "en_UK"}, {"street1": null, "street2": null, "fullAddress": "249 NE Front St, \u202bMilford\u202c, \u202bDelaware\u202c 19963-1431", "locale": "ar"}, {"street1": null, "street2": null, "fullAddress": "249 NE Front St, Milford, DE 19963-1431", "locale": "ru"}, {"street1": null, "street2": null, "fullAddress": "249 NE Front St, Milford, DE 19963-1431", "locale": "en_NZ"}, {"street1": null, "street2": null, "fullAddress": "249 NE Front St, Milford, DE 19963-1431", "locale": "de_CH"}, {"street1": null, "street2": null, "fullAddress": "249 NE Front St, Milford, DE 19963-1431", "locale": "sk"}, {"street1": null, "street2": null, "fullAddress": "249 NE Front St, Milford, DE 19963-1431", "locale": "en_ZA"}, {"street1": null, "street2": null, "fullAddress": "249 NE Front St, Milford, DE 19963-1431", "locale": "sv"}, {"street1": null, "street2": null, "fullAddress": "249 NE Front St, Milford, DE 19963-1431", "locale": "cs"}, {"street1": null, "street2": null, "fullAddress": "249 NE Front St, \u039c\u03af\u03bb\u03c6\u03bf\u03c1\u03bd\u03c4, DE 19963-1431", "locale": "el"}, {"street1": null, "street2": null, "fullAddress": "249 NE Front St, Milford, DE 19963-1431", "locale": "de_AT"}, {"street1": null, "street2": null, "fullAddress": "249 NE Front St, Milford, DE 19963-1431", "locale": "fr_CH"}, {"street1": null, "street2": null, "fullAddress": "249 NE Front St, Milford, DE 19963-1431", "locale": "nl"}, {"street1": null, "street2": null, "fullAddress": "249 NE Front St, Milford, DE 19963-1431", "locale": "hu"}, {"street1": null, "street2": null, "fullAddress": "249 NE Front St, Milford, DE 19963-1431", "locale": "en_AU"}, {"street1": null, "street2": null, "fullAddress": "249 NE Front St, Milford, DE 19963-1431", "locale": "in"}, {"street1": null, "street2": null, "fullAddress": "249 NE Front St, Milford, DE 19963-1431", "locale": "vi"}, {"street1": null, "street2": null, "fullAddress": "249 NE Front St, Milford, DE 19963-1431", "locale": "fr_CA"}, {"street1": null, "street2": null, "fullAddress": "249 NE Front St, Milford, DE 19963-1431", "locale": "es_AR"}, {"street1": null, "street2": null, "fullAddress": "249 NE Front St, \u202bMilford\u202c, \u202bDelaware\u202c 19963-1431", "locale": "ar_EG"}, {"street1": null, "street2": null, "fullAddress": "249 NE Front St, Milford, DE 19963-1431", "locale": "en_MY"}, {"street1": null, "street2": null, "fullAddress": "249 NE Front St, Milford, DE 19963-1431", "locale": "sr"}, {"street1": null, "street2": null, "fullAddress": "249 NE Front St, Milford, DE 19963-1431", "locale": "it_CH"}, {"street1": null, "street2": null, "fullAddress": "249 NE Front St, Milford, DE 19963-1431", "locale": "da"}, {"street1": null, "street2": null, "fullAddress": "249 NE Front St, Milford, DE 19963-1431", "locale": "es"}, {"street1": null, "street2": null, "fullAddress": "249 NE Front St, Milford, DE 19963-1431", "locale": "tr"}, {"street1": null, "street2": null, "fullAddress": "249 NE Front St, Milford, DE 19963-1431", "locale": "en_HK"}, {"street1": null, "street2": null, "fullAddress": "249 NE Front St, Milford, DE 19963-1431", "locale": "en_IE"}, {"street1": null, "street2": null, "fullAddress": "249 NE Front St, Milford, DE 19963-1431", "locale": "en_CA"}, {"street1": null, "street2": null, "fullAddress": "249 NE Front St, Milford, DE 19963-1431", "locale": "nl_BE"}, {"street1": null, "street2": null, "fullAddress": "249 NE Front St, Milford, DE 19963-1431", "locale": "pl"}, {"street1": null, "street2": null, "fullAddress": "249 NE Front St, Milford, DE 19963-1431", "locale": "no"}, {"street1": null, "street2": null, "fullAddress": "249 NE Front St, Milford, DE", "locale": "zh_CN"}, {"street1": null, "street2": null, "fullAddress": "249 NE Front St, Milford, DE 19963-1431", "locale": "es_CO"}, {"street1": null, "street2": null, "fullAddress": "249 NE Front St, Milford, DE 19963-1431", "locale": "fr"}, {"street1": null, "street2": null, "fullAddress": "249 NE Front St, \u30df\u30eb\u30d5\u30a9\u30fc\u30c9, DE", "locale": "ja"}, {"street1": null, "street2": null, "fullAddress": "249 NE Front St, \u202bMilford\u202c, DE 19963-1431", "locale": "iw"}, {"street1": null, "street2": null, "fullAddress": "249 NE Front St, Milford, DE 19963-1431", "locale": "de"}, {"street1": null, "street2": null, "fullAddress": "249 NE Front St, Milford, DE 19963-1431", "locale": "en_IN"}, {"street1": null, "street2": null, "fullAddress": "249 NE Front St, Milford, DE", "locale": "zh"}, {"street1": null, "street2": null, "fullAddress": "249 NE Front St, Milford, DE 19963-1431", "locale": "es_PE"}, {"street1": null, "street2": null, "fullAddress": "249 NE Front St, Milford, DE 19963-1431", "locale": "en_PH"}], "parents": [{"placeType": "CITY", "locationId": 34037, "name": "Milford"}, {"placeType": "STATE", "locationId": 28929, "name": "Delaware"}, {"placeType": "COUNTRY", "locationId": 191, "name": "Hoa K\u1ef3"}, {"placeType": "CONTINENT", "locationId": 19, "name": "B\u0103\u0301c My\u0303"}, {"placeType": null, "locationId": 1, "name": "Th\u00ea\u0301 gi\u01a1\u0301i"}], "thumbnail": {"title": null, "photoSizes": [{"height": 0, "isHorizontal": false, "width": 0, "url": "https://dynamic-media-cdn.tripadvisor.com/media/photo-o/1c/d0/d7/38/photo5jpg.jpg?w=100&h=100&s=1"}, {"height": 50, "isHorizontal": true, "width": 50, "url": "https://media-cdn.tripadvisor.com/media/photo-t/1c/d0/d7/38/photo5jpg.jpg"}, {"height": 150, "isHorizontal": true, "width": 150, "url": "https://media-cdn.tripadvisor.com/media/photo-l/1c/d0/d7/38/photo5jpg.jpg"}, {"height": 200, "isHorizontal": false, "width": 180, "url": "https://media-cdn.tripadvisor.com/media/photo-i/1c/d0/d7/38/photo5jpg.jpg"}, {"height": 205, "isHorizontal": true, "width": 205, "url": "https://media-cdn.tripadvisor.com/media/photo-f/1c/d0/d7/38/photo5jpg.jpg"}, {"height": 450, "isHorizontal": true, "width": 450, "url": "https://media-cdn.tripadvisor.com/media/photo-s/1c/d0/d7/38/photo5jpg.jpg"}, {"height": 550, "isHorizontal": true, "width": 550, "url": "https://media-cdn.tripadvisor.com/media/photo-p/1c/d0/d7/38/photo5jpg.jpg"}, {"height": 1024, "isHorizontal": true, "width": 1024, "url": "https://media-cdn.tripadvisor.com/media/photo-w/1c/d0/d7/38/photo5jpg.jpg"}, {"height": 1280, "isHorizontal": true, "width": 1280, "url": "https://media-cdn.tripadvisor.com/media/photo-m/1280/1c/d0/d7/38/photo5jpg.jpg"}]}}]}}]