[{"data": {"accommodationType": [], "restaurantStyles": [{"tag": {"categoryId": 235, "tagId": 10604, "tagName": "Families with children", "tagNameLocalized": "Gia \u0111i\u0300nh co\u0301 tre\u0309 em", "translationKey": "tags_category_tag_families_with_children"}}, {"tag": {"categoryId": 235, "tagId": 10607, "tagName": "Special occasions", "tagNameLocalized": "Ca\u0301c di\u0323p \u0111\u0103\u0323c bi\u00ea\u0323t", "translationKey": "tags_category_tag_special_occasions"}}, {"tag": {"categoryId": 235, "tagId": 11777, "tagName": "Kids", "tagNameLocalized": "Tr\u1ebb em", "translationKey": "tags_category_tag_kids"}}], "restaurantTypes": [{"tag": {"categoryId": 230, "tagId": 10591, "tagName": "Restaurants", "tagNameLocalized": "Nha\u0300 ha\u0300ng", "translationKey": "tags_category_tag_restaurants"}}], "restaurantMealTypes": [{"tag": {"categoryId": 233, "tagId": 10704, "tagName": "Late Night", "tagNameLocalized": "\u0110\u00eam mu\u00f4\u0323n", "translationKey": "tags_category_tag_late_night"}}, {"tag": {"categoryId": 233, "tagId": 10949, "tagName": "Drinks", "tagNameLocalized": "\u0110\u1ed3 u\u1ed1ng", "translationKey": "tags_category_tag_drinks"}}, {"tag": {"categoryId": 233, "tagId": 10598, "tagName": "Lunch", "tagNameLocalized": "B\u01b0\u0303a tr\u01b0a", "translationKey": "tags_category_tag_lunch"}}, {"tag": {"categoryId": 233, "tagId": 10599, "tagName": "Dinner", "tagNameLocalized": "B\u01b0\u0303a t\u00f4\u0301i", "translationKey": "tags_category_tag_dinner"}}], "restaurantDiningOptions": [{"tag": {"categoryId": 234, "tagId": 20994, "tagName": "BYOB", "tagNameLocalized": "\u0110\u1ed3 u\u1ed1ng t\u1ef1 mang", "translationKey": "tags_category_tag_byob"}}, {"tag": {"categoryId": 234, "tagId": 11780, "tagName": "Accepts Credit Cards", "tagNameLocalized": "Ch\u1ea5p nh\u1eadn th\u1ebb t\u00edn d\u1ee5ng", "translationKey": "tags_category_tag_accepts_credit_cards"}}, {"tag": {"categoryId": 234, "tagId": 20989, "tagName": "Live Music - Restaurant Dining Options", "tagNameLocalized": "Nha\u0323c s\u00f4\u0301ng", "translationKey": "tags_category_tag_live_music_restaurant_dining_options"}}, {"tag": {"categoryId": 234, "tagId": 10855, "tagName": "Street Parking", "tagNameLocalized": "B\u00e3i \u0111\u1ed7 xe \u0111\u01b0\u1eddng ph\u1ed1", "translationKey": "tags_category_tag_street_parking"}}, {"tag": {"categoryId": 234, "tagId": 10602, "tagName": "Reservations", "tagNameLocalized": "\u0110\u0103\u0323t ch\u00f4\u0303", "translationKey": "tags_category_tag_reservations"}}, {"tag": {"categoryId": 234, "tagId": 10866, "tagName": "Accepts Mastercard", "tagNameLocalized": "Ch\u1ea5p nh\u1eadn th\u1ebb Mastercard", "translationKey": "tags_category_tag_accepts_mastercard"}}, {"tag": {"categoryId": 234, "tagId": 10601, "tagName": "Takeout", "tagNameLocalized": "C\u01b0\u0309a ha\u0300ng ba\u0301n th\u01b0\u0301c \u0103n mang v\u00ea\u0300", "translationKey": "tags_category_tag_takeout"}}, {"tag": {"categoryId": 234, "tagId": 10865, "tagName": "Accepts American Express", "tagNameLocalized": "Ch\u1ea5p nh\u1eadn th\u1ebb American Express", "translationKey": "tags_category_tag_accepts_american_express"}}, {"tag": {"categoryId": 234, "tagId": 10603, "tagName": "Outdoor Seating", "tagNameLocalized": "Ng\u00f4\u0300i ngoa\u0300i tr\u01a1\u0300i", "translationKey": "tags_category_tag_outdoor_seating"}}, {"tag": {"categoryId": 234, "tagId": 10867, "tagName": "Accepts Visa", "tagNameLocalized": "Ch\u1ea5p nh\u1eadn th\u1ebb Visa", "translationKey": "tags_category_tag_accepts_visa"}}, {"tag": {"categoryId": 234, "tagId": 10859, "tagName": "Television", "tagNameLocalized": "Tivi", "translationKey": "tags_category_tag_television"}}, {"tag": {"categoryId": 234, "tagId": 10858, "tagName": "Free Off-Street Parking", "tagNameLocalized": "B\u00e3i \u0111\u1ed7 xe t\u1eadp trung mi\u1ec5n ph\u00ed", "translationKey": "tags_category_tag_free_off_street_parking"}}, {"tag": {"categoryId": 234, "tagId": 16547, "tagName": "Table Service", "tagNameLocalized": "D\u1ecbch v\u1ee5 b\u00e0n", "translationKey": "tags_category_tag_table_service"}}, {"tag": {"categoryId": 234, "tagId": 10871, "tagName": "Accepts Discover", "tagNameLocalized": "Ch\u1ea5p nh\u1eadn th\u1ebb Discover", "translationKey": "tags_category_tag_accepts_discover"}}, {"tag": {"categoryId": 234, "tagId": 10860, "tagName": "Highchairs Available", "tagNameLocalized": "C\u00f3 gh\u1ebf \u0103n cho b\u00e9", "translationKey": "tags_category_tag_highchairs_available"}}, {"tag": {"categoryId": 234, "tagId": 10862, "tagName": "Serves Alcohol", "tagNameLocalized": "Ph\u1ee5c v\u1ee5 \u0111\u1ed3 u\u1ed1ng c\u00f3 c\u1ed3n", "translationKey": "tags_category_tag_serves_alcohol"}}, {"tag": {"categoryId": 234, "tagId": 10861, "tagName": "Wheelchair Accessible", "tagNameLocalized": "L\u1ed1i v\u00e0o ra cho xe l\u0103n", "translationKey": "tags_category_tag_wheelchair_accessible"}}, {"tag": {"categoryId": 234, "tagId": 10852, "tagName": "Seating", "tagNameLocalized": "Ch\u1ed7 ng\u1ed3i", "translationKey": "tags_category_tag_seating"}}, {"tag": {"categoryId": 234, "tagId": 10863, "tagName": "Full Bar", "tagNameLocalized": "Qu\u00e2\u0300y bar \u0111\u00e2\u0300y \u0111u\u0309", "translationKey": "tags_category_tag_full_bar"}}], "restaurantPrice": [{"tag": {"categoryId": 240, "tagId": 10955, "tagName": "Mid Range", "tagNameLocalized": "H\u1ea1ng trung", "translationKey": "tags_category_tag_mid_range"}}], "restaurantCuisines": [{"tag": {"categoryId": 231, "tagId": 4617, "tagName": "Italian", "tagNameLocalized": "Ki\u00ea\u0309u Y\u0301", "translationKey": "tags_category_tag_italian"}}, {"tag": {"categoryId": 231, "tagId": 10641, "tagName": "Pizza", "tagNameLocalized": "Pizza", "translationKey": "tags_category_tag_pizza"}}], "locations": [{"accommodationType": "T_UNKNOWN", "countryId": 191, "hoursOfOperation": {"dailyTimeIntervals": [{"day": "MONDAY", "timeIntervals": [{"openingTime": {"hours": 11, "minutes": 30}, "closingTime": {"hours": 21, "minutes": 0}}]}, {"day": "TUESDAY", "timeIntervals": [{"openingTime": {"hours": 11, "minutes": 30}, "closingTime": {"hours": 21, "minutes": 0}}]}, {"day": "WEDNESDAY", "timeIntervals": [{"openingTime": {"hours": 11, "minutes": 30}, "closingTime": {"hours": 22, "minutes": 0}}]}, {"day": "THURSDAY", "timeIntervals": [{"openingTime": {"hours": 11, "minutes": 30}, "closingTime": {"hours": 22, "minutes": 0}}]}, {"day": "FRIDAY", "timeIntervals": [{"openingTime": {"hours": 11, "minutes": 30}, "closingTime": {"hours": 23, "minutes": 30}}]}, {"day": "SATURDAY", "timeIntervals": [{"openingTime": {"hours": 11, "minutes": 30}, "closingTime": {"hours": 23, "minutes": 30}}]}, {"day": "SUNDAY", "timeIntervals": [{"openingTime": {"hours": 12, "minutes": 0}, "closingTime": {"hours": 21, "minutes": 0}}]}]}, "isClosed": false, "isOwner": false, "latitude": 39.917854, "localizedDescriptions": [], "localizedNames": [], "locationId": 2228157, "locationV2": {"attractionTypes": []}, "longitude": -75.39124, "parentId": 53158, "placeType": "EATERY", "absoluteOwnerManagementUrl": "https://www.tripadvisor.com.vn/RSManagementCenter-d2228157-Ariano?cat=0&geo=53158", "email": "", "geoName": "Media", "isoCountryCode": "US", "localizedName": "Ariano", "name": "Ariano", "locationDescription": null, "officialUrl": "http://www.ariano.net", "postPhotosUrl": "/PostPhotos-d2228157", "telephone": "+1 610-892-6944", "url": "/Restaurant_Review-g53158-d2228157-Reviews-Ariano-Media_Pennsylvania.html", "writeUserReviewUrl": "/UserReview-g53158-d2228157-Ariano-Media_Pennsylvania.html", "localizedStreetAddress": {"city": "Media", "country": "Hoa K\u1ef3", "fullAddress": "114 S Olive St, Media, PA 19063-3202", "postalCode": "19063-3202", "state": "Pennsylvania:", "street1": "114 S Olive St", "street2": ""}, "streetAddress": {"street1": "114 S Olive St", "street2": "", "state": "Pennsylvania:", "city": "Media", "postalCode": "19063-3202", "fullAddress": "114 S Olive St, Media, PA 19063-3202"}, "localizedStreetAddresses": [{"street1": null, "street2": null, "fullAddress": "114 S Olive St, Media, PA 19063-3202", "locale": "es_MX"}, {"street1": null, "street2": null, "fullAddress": "114 S Olive St, Media, PA 19063-3202", "locale": "fr_BE"}, {"street1": null, "street2": null, "fullAddress": "114 S Olive St, Media, PA 19063-3202", "locale": "es_VE"}, {"street1": null, "street2": null, "fullAddress": "114 S Olive St, \u6885\u8fea\u4e9e, PA", "locale": "zh_HK"}, {"street1": null, "street2": null, "fullAddress": "114 S Olive St, \u6885\u8fea\u4e9e, PA", "locale": "zh_TW"}, {"street1": null, "street2": null, "fullAddress": "114 S Olive St, Media, PA 19063-3202", "locale": "it"}, {"street1": null, "street2": null, "fullAddress": "114 S Olive St, \uba54\ub514\uc544, PA", "locale": "ko"}, {"street1": null, "street2": null, "fullAddress": "114 S Olive St, Media, PA 19063-3202", "locale": "es_CL"}, {"street1": null, "street2": null, "fullAddress": "114 S Olive St, Media, PA 19063-3202", "locale": "fi"}, {"street1": null, "street2": null, "fullAddress": "114 S Olive St, Media, PA 19063-3202", "locale": "pt_PT"}, {"street1": null, "street2": null, "fullAddress": "114 S Olive St, Media, PA 19063-3202", "locale": "en_US"}, {"street1": null, "street2": null, "fullAddress": "114 S Olive St, Media, PA 19063-3202", "locale": "th"}, {"street1": null, "street2": null, "fullAddress": "114 S Olive St, Media, PA 19063-3202", "locale": "en_SG"}, {"street1": null, "street2": null, "fullAddress": "114 S Olive St, Media, PA 19063-3202", "locale": "en_UK"}, {"street1": null, "street2": null, "fullAddress": "114 S Olive St, Media, PA 19063-3202", "locale": "pt"}, {"street1": null, "street2": null, "fullAddress": "114 S Olive St, \u202bMedia\u202c, \u0628\u0646\u0633\u064a\u0644\u0641\u0627\u0646\u064a\u0627 19063-3202", "locale": "ar"}, {"street1": null, "street2": null, "fullAddress": "114 S Olive St, Media, PA 19063-3202", "locale": "ru"}, {"street1": null, "street2": null, "fullAddress": "114 S Olive St, Media, PA 19063-3202", "locale": "en_NZ"}, {"street1": null, "street2": null, "fullAddress": "114 S Olive St, Media, PA 19063-3202", "locale": "de_CH"}, {"street1": null, "street2": null, "fullAddress": "114 S Olive St, Media, PA 19063-3202", "locale": "sk"}, {"street1": null, "street2": null, "fullAddress": "114 S Olive St, Media, PA 19063-3202", "locale": "en_ZA"}, {"street1": null, "street2": null, "fullAddress": "114 S Olive St, Media, PA 19063-3202", "locale": "sv"}, {"street1": null, "street2": null, "fullAddress": "114 S Olive St, Media, PA 19063-3202", "locale": "cs"}, {"street1": null, "street2": null, "fullAddress": "114 S Olive St, Media, PA 19063-3202", "locale": "el"}, {"street1": null, "street2": null, "fullAddress": "114 S Olive St, Media, PA 19063-3202", "locale": "de_AT"}, {"street1": null, "street2": null, "fullAddress": "114 S Olive St, Media, PA 19063-3202", "locale": "fr_CH"}, {"street1": null, "street2": null, "fullAddress": "114 S Olive St, Media, PA 19063-3202", "locale": "nl"}, {"street1": null, "street2": null, "fullAddress": "114 S Olive St, Media, PA 19063-3202", "locale": "hu"}, {"street1": null, "street2": null, "fullAddress": "114 S Olive St, Media, PA 19063-3202", "locale": "en_AU"}, {"street1": null, "street2": null, "fullAddress": "114 S Olive St, Media, PA 19063-3202", "locale": "in"}, {"street1": null, "street2": null, "fullAddress": "114 S Olive St, Media, PA 19063-3202", "locale": "vi"}, {"street1": null, "street2": null, "fullAddress": "114 S Olive St, Media, PA 19063-3202", "locale": "fr_CA"}, {"street1": null, "street2": null, "fullAddress": "114 S Olive St, Media, PA 19063-3202", "locale": "es_AR"}, {"street1": null, "street2": null, "fullAddress": "114 S Olive St, \u202bMedia\u202c, \u0628\u0646\u0633\u064a\u0644\u0641\u0627\u0646\u064a\u0627 19063-3202", "locale": "ar_EG"}, {"street1": null, "street2": null, "fullAddress": "114 S Olive St, Media, PA 19063-3202", "locale": "en_MY"}, {"street1": null, "street2": null, "fullAddress": "114 S Olive St, Media, PA 19063-3202", "locale": "sr"}, {"street1": null, "street2": null, "fullAddress": "114 S Olive St, Media, PA 19063-3202", "locale": "it_CH"}, {"street1": null, "street2": null, "fullAddress": "114 S Olive St, Media, PA 19063-3202", "locale": "da"}, {"street1": null, "street2": null, "fullAddress": "114 S Olive St, Media, PA 19063-3202", "locale": "es"}, {"street1": null, "street2": null, "fullAddress": "114 S Olive St, Media, PA 19063-3202", "locale": "tr"}, {"street1": null, "street2": null, "fullAddress": "114 S Olive St, Media, PA 19063-3202", "locale": "en_HK"}, {"street1": null, "street2": null, "fullAddress": "114 S Olive St, Media, PA 19063-3202", "locale": "en_IE"}, {"street1": null, "street2": null, "fullAddress": "114 S Olive St, Media, PA 19063-3202", "locale": "en_CA"}, {"street1": null, "street2": null, "fullAddress": "114 S Olive St, Media, PA 19063-3202", "locale": "nl_BE"}, {"street1": null, "street2": null, "fullAddress": "114 S Olive St, Media, PA 19063-3202", "locale": "no"}, {"street1": null, "street2": null, "fullAddress": "114 S Olive St, Media, PA 19063-3202", "locale": "pl"}, {"street1": null, "street2": null, "fullAddress": "114 S Olive St, \u6885\u8fea\u4e9a, PA", "locale": "zh_CN"}, {"street1": null, "street2": null, "fullAddress": "114 S Olive St, Media, PA 19063-3202", "locale": "es_CO"}, {"street1": null, "street2": null, "fullAddress": "114 S Olive St, Media, PA 19063-3202", "locale": "fr"}, {"street1": null, "street2": null, "fullAddress": "114 S Olive St, \u30e1\u30c7\u30a3\u30a2, PA", "locale": "ja"}, {"street1": null, "street2": null, "fullAddress": "114 S Olive St, \u202bMedia\u202c, PA 19063-3202", "locale": "iw"}, {"street1": null, "street2": null, "fullAddress": "114 S Olive St, Media, PA 19063-3202", "locale": "en_IN"}, {"street1": null, "street2": null, "fullAddress": "114 S Olive St, Media, PA 19063-3202", "locale": "de"}, {"street1": null, "street2": null, "fullAddress": "114 S Olive St, \u6885\u8fea\u4e9a, PA", "locale": "zh"}, {"street1": null, "street2": null, "fullAddress": "114 S Olive St, Media, PA 19063-3202", "locale": "es_PE"}, {"street1": null, "street2": null, "fullAddress": "114 S Olive St, Media, PA 19063-3202", "locale": "en_PH"}], "parents": [{"placeType": "CITY", "locationId": 53158, "name": "Media"}, {"placeType": "STATE", "locationId": 28959, "name": "Pennsylvania:"}, {"placeType": "COUNTRY", "locationId": 191, "name": "Hoa K\u1ef3"}, {"placeType": "CONTINENT", "locationId": 19, "name": "B\u0103\u0301c My\u0303"}, {"placeType": null, "locationId": 1, "name": "Th\u00ea\u0301 gi\u01a1\u0301i"}], "thumbnail": {"title": "cannoli with gelato filling", "photoSizes": [{"height": 0, "isHorizontal": true, "width": 0, "url": "https://dynamic-media-cdn.tripadvisor.com/media/photo-o/02/22/a5/3f/cannoli-with-gelato-filling.jpg?w=100&h=100&s=1"}, {"height": 50, "isHorizontal": true, "width": 50, "url": "https://media-cdn.tripadvisor.com/media/photo-t/02/22/a5/3f/cannoli-with-gelato-filling.jpg"}, {"height": 150, "isHorizontal": true, "width": 150, "url": "https://media-cdn.tripadvisor.com/media/photo-l/02/22/a5/3f/cannoli-with-gelato-filling.jpg"}, {"height": 140, "isHorizontal": true, "width": 250, "url": "https://media-cdn.tripadvisor.com/media/photo-f/02/22/a5/3f/cannoli-with-gelato-filling.jpg"}, {"height": 308, "isHorizontal": true, "width": 550, "url": "https://media-cdn.tripadvisor.com/media/photo-s/02/22/a5/3f/cannoli-with-gelato-filling.jpg"}, {"height": 574, "isHorizontal": true, "width": 1024, "url": "https://media-cdn.tripadvisor.com/media/photo-w/02/22/a5/3f/cannoli-with-gelato-filling.jpg"}, {"height": 2048, "isHorizontal": true, "width": 3648, "url": "https://media-cdn.tripadvisor.com/media/photo-o/02/22/a5/3f/cannoli-with-gelato-filling.jpg"}]}}]}}]