[{"data": {"restaurantStyles": [], "restaurantTypes": [], "restaurantMealTypes": [], "restaurantDiningOptions": [], "restaurantPrice": [], "restaurantCuisines": [], "accommodationType": [], "locations": [{"accommodationType": "T_HOTEL", "countryId": 191, "hoursOfOperation": {"dailyTimeIntervals": [{"day": "MONDAY", "timeIntervals": [{"openingTime": {"hours": 0, "minutes": 0}, "closingTime": {"hours": 0, "minutes": 0}}]}, {"day": "TUESDAY", "timeIntervals": [{"openingTime": {"hours": 0, "minutes": 0}, "closingTime": {"hours": 0, "minutes": 0}}]}, {"day": "WEDNESDAY", "timeIntervals": [{"openingTime": {"hours": 0, "minutes": 0}, "closingTime": {"hours": 0, "minutes": 0}}]}, {"day": "THURSDAY", "timeIntervals": [{"openingTime": {"hours": 0, "minutes": 0}, "closingTime": {"hours": 0, "minutes": 0}}]}, {"day": "FRIDAY", "timeIntervals": [{"openingTime": {"hours": 0, "minutes": 0}, "closingTime": {"hours": 0, "minutes": 0}}]}, {"day": "SATURDAY", "timeIntervals": [{"openingTime": {"hours": 0, "minutes": 0}, "closingTime": {"hours": 0, "minutes": 0}}]}, {"day": "SUNDAY", "timeIntervals": [{"openingTime": {"hours": 0, "minutes": 0}, "closingTime": {"hours": 0, "minutes": 0}}]}]}, "isClosed": false, "isOwner": false, "latitude": 39.65921, "localizedDescriptions": [], "locationId": 224360, "locationV2": {"attractionTypes": []}, "longitude": -75.753426, "parentId": 34043, "placeType": "ACCOMMODATION", "absoluteOwnerManagementUrl": "https://www.tripadvisor.com.vn/HotelsManagementCenter-d224360-Embassy_Suites_by_Hilton_Newark_Wilmington_South?cat=0&geo=34043", "email": "", "geoName": "Newark", "isoCountryCode": "US", "localizedName": "Embassy Suites by Hilton Newark Wilmington South", "name": "Embassy Suites by Hilton Newark Wilmington South", "locationDescription": "T\u00ecm ki\u1ebfm kh\u00e1ch s\u1ea1n \u1edf Newark? H\u00e3y xem Embassy Suites Newark - Wilmington/South, kha\u0301ch sa\u0323n d\u00e0nh cho gia \u0111\u00ecnh, l\u01b0u tr\u00fa t\u1ea1i \u0111\u00e2y s\u1ebd gi\u00fap b\u1ea1n kh\u00e1m ph\u00e1 Newark m\u1ed9t c\u00e1ch d\u1ec5 d\u00e0ng.\nL\u00e0 \u201cng\u00f4i nh\u00e0 xa x\u1ee9,\u201d c\u00e1c ph\u00f2ng kha\u0301ch sa\u0323n cung c\u1ea5p tv m\u00e0n h\u00ecnh ph\u1eb3ng, \u0111i\u1ec1u h\u00f2a nhi\u1ec7t \u0111\u1ed9 v\u00e0 b\u1ebfp nh\u1ecf, v\u00e0 k\u1ebft n\u1ed1i m\u1ea1ng th\u1eadt d\u1ec5 d\u00e0ng, v\u1edbi internet tr\u1ea3 ph\u00ed s\u1eb5n c\u00f3.\nKh\u00e1ch c\u00f3 th\u1ec3 d\u00f9ng b\u00e0n l\u1ec5 t\u00e2n 24 gi\u1edd, d\u1ecbch v\u1ee5 ph\u00f2ng v\u00e0 c\u1eeda h\u00e0ng khi ngh\u1ec9 t\u1ea1i Newark Embassy Suites. Ngo\u00e0i ra, Newark Embassy Suites c\u00f2n c\u00f3 b\u1ec3 b\u01a1i v\u00e0 b\u1eefa s\u00e1ng, s\u1ebd l\u00e0m cho k\u00ec ngh\u1ec9 c\u1ee7a b\u1ea1n \u1edf Newark tr\u1edf n\u00ean tuy\u1ec7t v\u1eddi h\u01a1n n\u1eefa. Thu\u1eadn ti\u1ec7n h\u01a1n n\u1eefa, c\u00f2n c\u00f3 \u0111\u1ed7 xe mi\u1ec5n ph\u00ed c\u00f3 s\u1eb5n cho kh\u00e1ch.\nN\u1ebfu b\u1ea1n th\u00edch qua\u0301n r\u01b0\u01a1\u0323u, Embassy Suites Newark - Wilmington/south Hotel n\u1eb1m g\u1ea7n Grain Craft Bar + Kitchen, Two Stones Pub v\u00e0 Mad Macs.\nN\u1ebfu b\u1ea1n th\u00edch kh\u00e1m ph\u00e1 Newark, kh\u00e1m ph\u00e1 m\u1ed9t trong nh\u1eefng \u0111i\u0323a \u0111i\u00ea\u0309m li\u0323ch s\u01b0\u0309, nh\u01b0 Cooch's Bridge v\u00e0 Hale-Byrnes House.\nCh\u00fang t\u00f4i tin r\u1eb1ng b\u1ea1n s\u1ebd t\u1eadn h\u01b0\u1edfng th\u1eddi gian l\u01b0u tr\u00fa t\u1ea1i Embassy Suites Newark - Wilmington/South b\u1edfi b\u1ea1n s\u1ebd \u0111\u01b0\u1ee3c kh\u00e1m ph\u00e1 m\u1ecdi th\u1ee9 m\u00e0 Newark c\u00f3 th\u1ec3 mang l\u1ea1i.\n", "officialUrl": "https://www.hilton.com/en/hotels/newdees-embassy-suites-newark-wilmington-south/?SEO_id=YEXTN-AMER-ES-NEWDEES&y_source=1_MTExMDAxOC03NjktbG9jYXRpb24ud2Vic2l0ZQ%3D%3D", "postPhotosUrl": "/PostPhotos-d224360", "telephone": "+1 302-368-8000", "url": "/Hotel_Review-g34043-d224360-Reviews-Embassy_Suites_by_Hilton_Newark_Wilmington_South-Newark_Delaware.html", "writeUserReviewUrl": "/UserReview-g34043-d224360-Embassy_Suites_by_Hilton_Newark_Wilmington_South-Newark_Delaware.html", "localizedStreetAddress": {"city": "Newark", "country": "Hoa K\u1ef3", "fullAddress": "654 South College Avenue, Newark, DE 19713", "postalCode": "19713", "state": "Delaware", "street1": "654 South College Avenue", "street2": ""}, "streetAddress": {"street1": "654 South College Avenue", "street2": "", "state": "Delaware", "city": "Newark", "postalCode": "19713", "fullAddress": "654 South College Avenue, Newark, DE 19713"}, "localizedNames": [{"locale": "zh_TW", "value": "\u7d10\u83ef\u514b\u5a01\u660e\u9813\u5357\u5927\u4f7f\u5957\u623f\u98ef\u5e97"}, {"locale": "ko", "value": "\uc5e0\ubc84\uc2dc \uc2a4\uc704\ud2b8 \ub274\uc5b4\ud06c - \uc70c\ubc0d\ud134/\uc0ac\uc6b0\uc2a4"}, {"locale": "ar", "value": "\u0627\u0645\u0628\u0627\u0633\u064a \u0633\u0648\u064a\u062a\u0633 \u0646\u064a\u0648\u0627\u0631\u0643 - \u0648\u064a\u0644\u0645\u0646\u062c\u062a\u0648\u0646/\u0633\u0627\u0648\u062b"}, {"locale": "ru", "value": "\u042d\u043c\u0431\u0430\u0441\u0441\u0438 \u0421\u044c\u044e\u0442\u0441 \u041d\u044c\u044e\u0430\u0440\u043a - \u0423\u0438\u043b\u043c\u0438\u043d\u0433\u0442\u043e\u043d /\u0421\u0430\u0443\u0441"}, {"locale": "zh_CN", "value": "\u7ebd\u74e6\u514b\u5a01\u660e\u987f\u5357\u5927\u4f7f\u5957\u623f\u9152\u5e97"}, {"locale": "ja", "value": "\u30a8\u30f3\u30d0\u30b7\u30fc \u30b9\u30a4\u30fc\u30c4 \u30cb\u30e5\u30fc\u30a2\u30fc\u30af - \u30a6\u30a3\u30eb\u30df\u30f3\u30c8\u30f3 / \u30b5\u30a6\u30b9"}, {"locale": "zh", "value": "\u7ebd\u74e6\u514b\u5a01\u660e\u987f\u5357\u5927\u4f7f\u5957\u623f\u9152\u5e97"}], "localizedStreetAddresses": [{"street1": null, "street2": null, "fullAddress": "654 South College Avenue, Newark, DE 19713", "locale": "fr_BE"}, {"street1": null, "street2": null, "fullAddress": "654 South College Avenue, Newark, DE 19713", "locale": "es_MX"}, {"street1": null, "street2": null, "fullAddress": "654 South College Avenue, Newark, DE 19713", "locale": "es_VE"}, {"street1": null, "street2": null, "fullAddress": "654 South College Avenue, \u7d10\u74e6\u514b, DE", "locale": "zh_TW"}, {"street1": null, "street2": null, "fullAddress": "654 South College Avenue, \u7d10\u74e6\u514b, DE", "locale": "zh_HK"}, {"street1": null, "street2": null, "fullAddress": "654 South College Avenue, Newark, DE 19713", "locale": "it"}, {"street1": null, "street2": null, "fullAddress": "654 South College Avenue, \ub274\uc5b4\ud06c, DE", "locale": "ko"}, {"street1": null, "street2": null, "fullAddress": "654 South College Avenue, Newark, DE 19713", "locale": "es_CL"}, {"street1": null, "street2": null, "fullAddress": "654 South College Avenue, Newark, DE 19713", "locale": "fi"}, {"street1": null, "street2": null, "fullAddress": "654 South College Avenue, Newark, DE 19713", "locale": "pt_PT"}, {"street1": null, "street2": null, "fullAddress": "654 South College Avenue, Newark, DE 19713", "locale": "en_US"}, {"street1": null, "street2": null, "fullAddress": "654 South College Avenue, \u0e19\u0e27\u0e23\u0e4c\u0e01, DE 19713", "locale": "th"}, {"street1": null, "street2": null, "fullAddress": "654 South College Avenue, Newark, DE 19713", "locale": "en_SG"}, {"street1": null, "street2": null, "fullAddress": "654 South College Avenue, Newark, DE 19713", "locale": "pt"}, {"street1": null, "street2": null, "fullAddress": "654 South College Avenue, Newark, DE 19713", "locale": "en_UK"}, {"street1": null, "street2": null, "fullAddress": "654 South College Avenue, \u202bNewark\u202c, \u202bDelaware\u202c 19713", "locale": "ar"}, {"street1": null, "street2": null, "fullAddress": "654 South College Avenue, \u041d\u044c\u044e\u0430\u0440\u043a, DE 19713", "locale": "ru"}, {"street1": null, "street2": null, "fullAddress": "654 South College Avenue, Newark, DE 19713", "locale": "en_NZ"}, {"street1": null, "street2": null, "fullAddress": "654 South College Avenue, Newark, DE 19713", "locale": "de_CH"}, {"street1": null, "street2": null, "fullAddress": "654 South College Avenue, Newark, DE 19713", "locale": "sk"}, {"street1": null, "street2": null, "fullAddress": "654 South College Avenue, Newark, DE 19713", "locale": "en_ZA"}, {"street1": null, "street2": null, "fullAddress": "654 South College Avenue, Newark, DE 19713", "locale": "sv"}, {"street1": null, "street2": null, "fullAddress": "654 South College Avenue, Newark, DE 19713", "locale": "cs"}, {"street1": null, "street2": null, "fullAddress": "654 South College Avenue, \u039d\u03b9\u03bf\u03cd\u03b1\u03c1\u03ba, DE 19713", "locale": "el"}, {"street1": null, "street2": null, "fullAddress": "654 South College Avenue, Newark, DE 19713", "locale": "de_AT"}, {"street1": null, "street2": null, "fullAddress": "654 South College Avenue, Newark, DE 19713", "locale": "nl"}, {"street1": null, "street2": null, "fullAddress": "654 South College Avenue, Newark, DE 19713", "locale": "fr_CH"}, {"street1": null, "street2": null, "fullAddress": "654 South College Avenue, Newark, DE 19713", "locale": "hu"}, {"street1": null, "street2": null, "fullAddress": "654 South College Avenue, Newark, DE 19713", "locale": "en_AU"}, {"street1": null, "street2": null, "fullAddress": "654 South College Avenue, Newark, DE 19713", "locale": "in"}, {"street1": null, "street2": null, "fullAddress": "654 South College Avenue, Newark, DE 19713", "locale": "vi"}, {"street1": null, "street2": null, "fullAddress": "654 South College Avenue, Newark, DE 19713", "locale": "fr_CA"}, {"street1": null, "street2": null, "fullAddress": "654 South College Avenue, Newark, DE 19713", "locale": "es_AR"}, {"street1": null, "street2": null, "fullAddress": "654 South College Avenue, \u202bNewark\u202c, \u202bDelaware\u202c 19713", "locale": "ar_EG"}, {"street1": null, "street2": null, "fullAddress": "654 South College Avenue, Newark, DE 19713", "locale": "sr"}, {"street1": null, "street2": null, "fullAddress": "654 South College Avenue, Newark, DE 19713", "locale": "en_MY"}, {"street1": null, "street2": null, "fullAddress": "654 South College Avenue, Newark, DE 19713", "locale": "it_CH"}, {"street1": null, "street2": null, "fullAddress": "654 South College Avenue, Newark, DE 19713", "locale": "da"}, {"street1": null, "street2": null, "fullAddress": "654 South College Avenue, Newark, DE 19713", "locale": "es"}, {"street1": null, "street2": null, "fullAddress": "654 South College Avenue, Newark, DE 19713", "locale": "tr"}, {"street1": null, "street2": null, "fullAddress": "654 South College Avenue, Newark, DE 19713", "locale": "en_HK"}, {"street1": null, "street2": null, "fullAddress": "654 South College Avenue, Newark, DE 19713", "locale": "en_IE"}, {"street1": null, "street2": null, "fullAddress": "654 South College Avenue, Newark, DE 19713", "locale": "en_CA"}, {"street1": null, "street2": null, "fullAddress": "654 South College Avenue, Newark, DE 19713", "locale": "nl_BE"}, {"street1": null, "street2": null, "fullAddress": "654 South College Avenue, Newark, DE 19713", "locale": "pl"}, {"street1": null, "street2": null, "fullAddress": "654 South College Avenue, Newark, DE 19713", "locale": "no"}, {"street1": null, "street2": null, "fullAddress": "654 South College Avenue, \u7ebd\u74e6\u514b, DE", "locale": "zh_CN"}, {"street1": null, "street2": null, "fullAddress": "654 South College Avenue, Newark, DE 19713", "locale": "es_CO"}, {"street1": null, "street2": null, "fullAddress": "654 South College Avenue, Newark, DE 19713", "locale": "fr"}, {"street1": null, "street2": null, "fullAddress": "654 South College Avenue, \u30cb\u30e5\u30fc\u30a2\u30fc\u30af, DE", "locale": "ja"}, {"street1": null, "street2": null, "fullAddress": "654 South College Avenue, \u05e0\u05d9\u05d5\u05d0\u05e8\u05e7, DE 19713", "locale": "iw"}, {"street1": null, "street2": null, "fullAddress": "654 South College Avenue, Newark, DE 19713", "locale": "en_IN"}, {"street1": null, "street2": null, "fullAddress": "654 South College Avenue, Newark, DE 19713", "locale": "de"}, {"street1": null, "street2": null, "fullAddress": "654 South College Avenue, \u7ebd\u74e6\u514b, DE", "locale": "zh"}, {"street1": null, "street2": null, "fullAddress": "654 South College Avenue, Newark, DE 19713", "locale": "es_PE"}, {"street1": null, "street2": null, "fullAddress": "654 South College Avenue, Newark, DE 19713", "locale": "en_PH"}], "parents": [{"placeType": "CITY", "locationId": 34043, "name": "Newark"}, {"placeType": "STATE", "locationId": 28929, "name": "Delaware"}, {"placeType": "COUNTRY", "locationId": 191, "name": "Hoa K\u1ef3"}, {"placeType": "CONTINENT", "locationId": 19, "name": "B\u0103\u0301c My\u0303"}, {"placeType": null, "locationId": 1, "name": "Th\u00ea\u0301 gi\u01a1\u0301i"}], "thumbnail": {"title": null, "photoSizes": [{"height": 0, "isHorizontal": true, "width": 0, "url": "https://dynamic-media-cdn.tripadvisor.com/media/photo-o/2a/ef/93/8b/exterior.jpg?w=100&h=100&s=1"}, {"height": 50, "isHorizontal": true, "width": 50, "url": "https://media-cdn.tripadvisor.com/media/photo-t/2a/ef/93/8b/exterior.jpg"}, {"height": 150, "isHorizontal": true, "width": 150, "url": "https://media-cdn.tripadvisor.com/media/photo-l/2a/ef/93/8b/exterior.jpg"}, {"height": 200, "isHorizontal": false, "width": 180, "url": "https://media-cdn.tripadvisor.com/media/photo-i/2a/ef/93/8b/exterior.jpg"}, {"height": 167, "isHorizontal": true, "width": 250, "url": "https://media-cdn.tripadvisor.com/media/photo-f/2a/ef/93/8b/exterior.jpg"}, {"height": 367, "isHorizontal": true, "width": 550, "url": "https://media-cdn.tripadvisor.com/media/photo-s/2a/ef/93/8b/exterior.jpg"}, {"height": 682, "isHorizontal": true, "width": 1023, "url": "https://media-cdn.tripadvisor.com/media/photo-o/2a/ef/93/8b/exterior.jpg"}]}}]}}]