[{"data": {"restaurantStyles": [], "restaurantTypes": [], "restaurantMealTypes": [], "restaurantDiningOptions": [], "restaurantPrice": [], "restaurantCuisines": [], "accommodationType": [], "locations": [{"accommodationType": "T_HOTEL", "countryId": 191, "hoursOfOperation": {"dailyTimeIntervals": [{"day": "MONDAY", "timeIntervals": [{"openingTime": {"hours": 0, "minutes": 0}, "closingTime": {"hours": 0, "minutes": 0}}]}, {"day": "TUESDAY", "timeIntervals": [{"openingTime": {"hours": 0, "minutes": 0}, "closingTime": {"hours": 0, "minutes": 0}}]}, {"day": "WEDNESDAY", "timeIntervals": [{"openingTime": {"hours": 0, "minutes": 0}, "closingTime": {"hours": 0, "minutes": 0}}]}, {"day": "THURSDAY", "timeIntervals": [{"openingTime": {"hours": 0, "minutes": 0}, "closingTime": {"hours": 0, "minutes": 0}}]}, {"day": "FRIDAY", "timeIntervals": [{"openingTime": {"hours": 0, "minutes": 0}, "closingTime": {"hours": 0, "minutes": 0}}]}, {"day": "SATURDAY", "timeIntervals": [{"openingTime": {"hours": 0, "minutes": 0}, "closingTime": {"hours": 0, "minutes": 0}}]}, {"day": "SUNDAY", "timeIntervals": [{"openingTime": {"hours": 0, "minutes": 0}, "closingTime": {"hours": 0, "minutes": 0}}]}]}, "isClosed": false, "isOwner": false, "latitude": 39.742542, "localizedDescriptions": [], "locationId": 225918, "locationV2": {"attractionTypes": []}, "longitude": -75.5484, "parentId": 34059, "placeType": "ACCOMMODATION", "absoluteOwnerManagementUrl": "https://www.tripadvisor.com.vn/HotelsManagementCenter-d225918-DoubleTree_by_Hilton_Downtown_Wilmington_Legal_District?cat=0&geo=34059", "email": "", "geoName": "Wilmington", "isoCountryCode": "US", "localizedName": "DoubleTree by Hilton Downtown Wilmington - Legal District", "name": "DoubleTree by Hilton Downtown Wilmington - Legal District", "locationDescription": "N\u1ebfu b\u1ea1n \u0111ang t\u00ecm ki\u1ebfm kha\u0301ch sa\u0323n d\u00e0nh cho gia \u0111\u00ecnh \u1edf Wilmington, h\u00e3y th\u1eed nghi\u1ec7m DoubleTree by Hilton Hotel Downtown Wilmington - Legal District.\nN\u1eb1m g\u1ea7n nh\u1eefng \u0111\u1ecba danh y\u00eau th\u00edch nh\u01b0 Rodney Square (0,4 km) v\u00e0 Wilmington Train Station (0,7 km), du kh\u00e1ch t\u1ea1i DoubleTree by Hilton Hotel Downtown Wilmington - Legal District c\u00f3 th\u1ec3 d\u1ec5 d\u00e0ng \u0111\u1ebfn th\u0103m nh\u1eefng \u0111i\u1ec3m \u0111\u1ebfn n\u1ed5i ti\u1ebfng n\u00e0y \u1edf Wilmington.\nDoubleTree by Hilton Hotel Downtown Wilmington - Legal District cung c\u1ea5p cho kh\u00e1ch nhi\u1ec1u ti\u1ec7n nghi bao g\u1ed3m tv m\u00e0n h\u00ecnh ph\u1eb3ng, t\u1ee7 l\u1ea1nh v\u00e0 \u0111i\u1ec1u h\u00f2a nhi\u1ec7t \u0111\u1ed9, v\u00e0 k\u1ebft n\u1ed1i m\u1ea1ng l\u00e0 c\u00f3 th\u1ec3 v\u00ec wifi mi\u1ec5n ph\u00ed c\u00f3 s\u1eb5n.\nKha\u0301ch sa\u0323n cung c\u1ea5p b\u00e0n l\u1ec5 t\u00e2n 24 gi\u1edd, d\u1ecbch v\u1ee5 ph\u00f2ng v\u00e0 nh\u00e2n vi\u00ean h\u1ed7 tr\u1ee3 kh\u00e1ch, l\u00e0m cho k\u1ef3 ngh\u1ec9 c\u1ee7a b\u1ea1n d\u1ec5 ch\u1ecbu h\u01a1n n\u1eefa. Kh\u00e1ch s\u1ea1n c\u00f2n cung c\u1ea5p b\u1ec3 b\u01a1i v\u00e0 ph\u00f2ng kh\u00e1ch. Kh\u00e1ch \u0111i \u0111\u1ebfn kh\u00e1ch s\u1ea1n b\u1eb1ng ph\u01b0\u01a1ng ti\u1ec7n c\u1ee7a m\u00ecnh c\u00f3 th\u1ec3 d\u00f9ng b\u00e3i \u0111\u1ed7 xe.\nKhi b\u1ea1n \u0111\u00f3i, h\u00e3y nh\u1edb th\u1eed Mikimotos Japanese Restaurant, Rasa Sayang v\u00e0 Ubon Thai Cuisine, l\u00e0 nh\u00e0 h\u00e0ng ki\u1ec3u \u00e1, \u0111\u01b0\u1ee3c \u01b0a chu\u1ed9ng b\u1edfi ng\u01b0\u1eddi d\u00e2n \u0111\u1ecba ph\u01b0\u01a1ng c\u0169ng nh\u01b0 du kh\u00e1ch.\nN\u1ebfu b\u1ea1n th\u00edch kh\u00e1m ph\u00e1 Wilmington, kh\u00e1m ph\u00e1 m\u1ed9t trong nh\u1eefng c\u00f4ng vi\u00ean, nh\u01b0 Brandywine Park, Bellevue State Park v\u00e0 Tubman-Garrett Riverfront Park.\nC\u00e1c nh\u00e2n vi\u00ean c\u1ee7a DoubleTree by Hilton Hotel Downtown Wilmington - Legal District mong mu\u1ed1n \u0111\u01b0\u1ee3c ph\u1ee5c v\u1ee5 b\u1ea1n trong k\u00ec ngh\u1ec9 s\u1eafp t\u1edbi.\n", "officialUrl": "https://www.hilton.com/en/hotels/ilgdtdt-doubletree-downtown-wilmington-legal-district/?SEO_id=YEXTN-AMER-DT-ILGDTDT&y_source=1_MTM3MjczOC03NjktbG9jYXRpb24ud2Vic2l0ZQ%3D%3D", "postPhotosUrl": "/PostPhotos-d225918", "telephone": "+1 302-655-0400", "url": "/Hotel_Review-g34059-d225918-Reviews-DoubleTree_by_Hilton_Downtown_Wilmington_Legal_District-Wilmington_Delaware.html", "writeUserReviewUrl": "/UserReview-g34059-d225918-DoubleTree_by_Hilton_Downtown_Wilmington_Legal_District-Wilmington_Delaware.html", "localizedStreetAddress": {"city": "Wilmington", "country": "Hoa K\u1ef3", "fullAddress": "700 N. King Street, Wilmington, DE 19801-3504", "postalCode": "19801-3504", "state": "Delaware", "street1": "700 N. King Street", "street2": ""}, "streetAddress": {"street1": "700 N. King Street", "street2": "", "state": "Delaware", "city": "Wilmington", "postalCode": "19801-3504", "fullAddress": "700 N. King Street, Wilmington, DE 19801-3504"}, "localizedNames": [{"locale": "ko", "value": "\ub354\ube14\ud2b8\ub9ac \ud638\ud154 \uc70c\ubc0d\ud134 \ub2e4\uc6b4\ud0c0\uc6b4"}, {"locale": "ar", "value": "\u062f\u0628\u0644 \u062a\u0631\u064a \u0628\u0627\u064a \u0647\u064a\u0644\u062a\u0648\u0646 \u062f\u0627\u0648\u0646\u062a\u0627\u0648\u0646 \u0648\u064a\u0644\u0645\u0646\u062c\u062a\u0648\u0646"}, {"locale": "ru", "value": "\u0414\u0430\u0431\u043b\u0442\u0440\u0438 \u0423\u0438\u043b\u043c\u0438\u043d\u0433\u0442\u043e\u043d \u0414\u0430\u0443\u043d\u0442\u0430\u0443\u043d"}, {"locale": "ja", "value": "\u30c0\u30d6\u30eb\u30c4\u30ea\u30fc \u30db\u30c6\u30eb \u30a6\u30a3\u30eb\u30df\u30f3\u30c8\u30f3 \u30c0\u30a6\u30f3\u30bf\u30a6\u30f3"}], "localizedStreetAddresses": [{"street1": null, "street2": null, "fullAddress": "700 N. King Street, Wilmington, DE 19801-3504", "locale": "fr_BE"}, {"street1": null, "street2": null, "fullAddress": "700 N. King Street, Wilmington, DE 19801-3504", "locale": "es_MX"}, {"street1": null, "street2": null, "fullAddress": "700 N. King Street, Wilmington, DE 19801-3504", "locale": "es_VE"}, {"street1": null, "street2": null, "fullAddress": "700 N. King Street, \u5a01\u723e\u660e\u9813, DE", "locale": "zh_TW"}, {"street1": null, "street2": null, "fullAddress": "700 N. King Street, \u5a01\u723e\u660e\u9813, DE", "locale": "zh_HK"}, {"street1": null, "street2": null, "fullAddress": "700 N. King Street, Wilmington, DE 19801-3504", "locale": "it"}, {"street1": null, "street2": null, "fullAddress": "700 N. King Street, \uc70c\ubc0d\ud134, DE", "locale": "ko"}, {"street1": null, "street2": null, "fullAddress": "700 N. King Street, Wilmington, DE 19801-3504", "locale": "es_CL"}, {"street1": null, "street2": null, "fullAddress": "700 N. King Street, Wilmington, DE 19801-3504", "locale": "fi"}, {"street1": null, "street2": null, "fullAddress": "700 N. King Street, Wilmington, DE 19801-3504", "locale": "pt_PT"}, {"street1": null, "street2": null, "fullAddress": "700 N. King Street, Wilmington, DE 19801-3504", "locale": "en_US"}, {"street1": null, "street2": null, "fullAddress": "700 N. King Street, \u0e27\u0e34\u0e25\u0e21\u0e34\u0e07\u0e15\u0e31\u0e19, DE 19801-3504", "locale": "th"}, {"street1": null, "street2": null, "fullAddress": "700 N. King Street, Wilmington, DE 19801-3504", "locale": "en_SG"}, {"street1": null, "street2": null, "fullAddress": "700 N. King Street, Wilmington, DE 19801-3504", "locale": "pt"}, {"street1": null, "street2": null, "fullAddress": "700 N. King Street, Wilmington, DE 19801-3504", "locale": "en_UK"}, {"street1": null, "street2": null, "fullAddress": "700 N. King Street, \u202bWilmington\u202c, \u202bDelaware\u202c 19801-3504", "locale": "ar"}, {"street1": null, "street2": null, "fullAddress": "700 N. King Street, \u0423\u0438\u043b\u043c\u0438\u043d\u0433\u0442\u043e\u043d, DE 19801-3504", "locale": "ru"}, {"street1": null, "street2": null, "fullAddress": "700 N. King Street, Wilmington, DE 19801-3504", "locale": "en_NZ"}, {"street1": null, "street2": null, "fullAddress": "700 N. King Street, Wilmington, DE 19801-3504", "locale": "de_CH"}, {"street1": null, "street2": null, "fullAddress": "700 N. King Street, Wilmington, DE 19801-3504", "locale": "sk"}, {"street1": null, "street2": null, "fullAddress": "700 N. King Street, Wilmington, DE 19801-3504", "locale": "en_ZA"}, {"street1": null, "street2": null, "fullAddress": "700 N. King Street, Wilmington, DE 19801-3504", "locale": "sv"}, {"street1": null, "street2": null, "fullAddress": "700 N. King Street, Wilmington, DE 19801-3504", "locale": "cs"}, {"street1": null, "street2": null, "fullAddress": "700 N. King Street, \u0393\u03bf\u03c5\u03af\u03bb\u03bc\u03b9\u03bd\u03b3\u03ba\u03c4\u03bf\u03bd, DE 19801-3504", "locale": "el"}, {"street1": null, "street2": null, "fullAddress": "700 N. King Street, Wilmington, DE 19801-3504", "locale": "de_AT"}, {"street1": null, "street2": null, "fullAddress": "700 N. King Street, Wilmington, DE 19801-3504", "locale": "nl"}, {"street1": null, "street2": null, "fullAddress": "700 N. King Street, Wilmington, DE 19801-3504", "locale": "fr_CH"}, {"street1": null, "street2": null, "fullAddress": "700 N. King Street, Wilmington, DE 19801-3504", "locale": "hu"}, {"street1": null, "street2": null, "fullAddress": "700 N. King Street, Wilmington, DE 19801-3504", "locale": "en_AU"}, {"street1": null, "street2": null, "fullAddress": "700 N. King Street, Wilmington, DE 19801-3504", "locale": "in"}, {"street1": null, "street2": null, "fullAddress": "700 N. King Street, Wilmington, DE 19801-3504", "locale": "vi"}, {"street1": null, "street2": null, "fullAddress": "700 N. King Street, Wilmington, DE 19801-3504", "locale": "fr_CA"}, {"street1": null, "street2": null, "fullAddress": "700 N. King Street, Wilmington, DE 19801-3504", "locale": "es_AR"}, {"street1": null, "street2": null, "fullAddress": "700 N. King Street, \u202bWilmington\u202c, \u202bDelaware\u202c 19801-3504", "locale": "ar_EG"}, {"street1": null, "street2": null, "fullAddress": "700 N. King Street, Wilmington, DE 19801-3504", "locale": "sr"}, {"street1": null, "street2": null, "fullAddress": "700 N. King Street, Wilmington, DE 19801-3504", "locale": "en_MY"}, {"street1": null, "street2": null, "fullAddress": "700 N. King Street, Wilmington, DE 19801-3504", "locale": "it_CH"}, {"street1": null, "street2": null, "fullAddress": "700 N. King Street, Wilmington, DE 19801-3504", "locale": "da"}, {"street1": null, "street2": null, "fullAddress": "700 N. King Street, Wilmington, DE 19801-3504", "locale": "es"}, {"street1": null, "street2": null, "fullAddress": "700 N. King Street, Wilmington, DE 19801-3504", "locale": "tr"}, {"street1": null, "street2": null, "fullAddress": "700 N. King Street, Wilmington, DE 19801-3504", "locale": "en_HK"}, {"street1": null, "street2": null, "fullAddress": "700 N. King Street, Wilmington, DE 19801-3504", "locale": "en_IE"}, {"street1": null, "street2": null, "fullAddress": "700 N. King Street, Wilmington, DE 19801-3504", "locale": "en_CA"}, {"street1": null, "street2": null, "fullAddress": "700 N. King Street, Wilmington, DE 19801-3504", "locale": "nl_BE"}, {"street1": null, "street2": null, "fullAddress": "700 N. King Street, Wilmington, DE 19801-3504", "locale": "pl"}, {"street1": null, "street2": null, "fullAddress": "700 N. King Street, Wilmington, DE 19801-3504", "locale": "no"}, {"street1": null, "street2": null, "fullAddress": "700 N. King Street, \u5a01\u5c14\u660e\u987f, DE", "locale": "zh_CN"}, {"street1": null, "street2": null, "fullAddress": "700 N. King Street, Wilmington, DE 19801-3504", "locale": "es_CO"}, {"street1": null, "street2": null, "fullAddress": "700 N. King Street, Wilmington, DE 19801-3504", "locale": "fr"}, {"street1": null, "street2": null, "fullAddress": "700 N. King Street, \u30a6\u30a3\u30eb\u30df\u30f3\u30c8\u30f3, DE", "locale": "ja"}, {"street1": null, "street2": null, "fullAddress": "700 N. King Street, \u05d5\u05d5\u05d9\u05dc\u05de\u05d9\u05e0\u05d2\u05d8\u05d5\u05df, DE 19801-3504", "locale": "iw"}, {"street1": null, "street2": null, "fullAddress": "700 N. King Street, Wilmington, DE 19801-3504", "locale": "en_IN"}, {"street1": null, "street2": null, "fullAddress": "700 N. King Street, Wilmington, DE 19801-3504", "locale": "de"}, {"street1": null, "street2": null, "fullAddress": "700 N. King Street, \u5a01\u5c14\u660e\u987f, DE", "locale": "zh"}, {"street1": null, "street2": null, "fullAddress": "700 N. King Street, Wilmington, DE 19801-3504", "locale": "es_PE"}, {"street1": null, "street2": null, "fullAddress": "700 N. King Street, Wilmington, DE 19801-3504", "locale": "en_PH"}], "parents": [{"placeType": "CITY", "locationId": 34059, "name": "Wilmington"}, {"placeType": "STATE", "locationId": 28929, "name": "Delaware"}, {"placeType": "COUNTRY", "locationId": 191, "name": "Hoa K\u1ef3"}, {"placeType": "CONTINENT", "locationId": 19, "name": "B\u0103\u0301c My\u0303"}, {"placeType": null, "locationId": 1, "name": "Th\u00ea\u0301 gi\u01a1\u0301i"}], "thumbnail": {"title": null, "photoSizes": [{"height": 0, "isHorizontal": true, "width": 0, "url": "https://dynamic-media-cdn.tripadvisor.com/media/photo-o/25/d3/2c/7c/guest-room.jpg?w=100&h=100&s=1"}, {"height": 50, "isHorizontal": true, "width": 50, "url": "https://media-cdn.tripadvisor.com/media/photo-t/25/d3/2c/7c/guest-room.jpg"}, {"height": 150, "isHorizontal": true, "width": 150, "url": "https://media-cdn.tripadvisor.com/media/photo-l/25/d3/2c/7c/guest-room.jpg"}, {"height": 200, "isHorizontal": false, "width": 180, "url": "https://media-cdn.tripadvisor.com/media/photo-i/25/d3/2c/7c/guest-room.jpg"}, {"height": 167, "isHorizontal": true, "width": 250, "url": "https://media-cdn.tripadvisor.com/media/photo-f/25/d3/2c/7c/guest-room.jpg"}, {"height": 367, "isHorizontal": true, "width": 550, "url": "https://media-cdn.tripadvisor.com/media/photo-s/25/d3/2c/7c/guest-room.jpg"}, {"height": 682, "isHorizontal": true, "width": 1023, "url": "https://media-cdn.tripadvisor.com/media/photo-o/25/d3/2c/7c/guest-room.jpg"}]}}]}}]