[{"data": {"restaurantStyles": [], "restaurantTypes": [], "restaurantMealTypes": [], "restaurantDiningOptions": [], "restaurantPrice": [], "restaurantCuisines": [], "accommodationType": [], "locations": [{"accommodationType": "T_HOTEL", "countryId": 191, "hoursOfOperation": {"dailyTimeIntervals": [{"day": "MONDAY", "timeIntervals": [{"openingTime": {"hours": 0, "minutes": 0}, "closingTime": {"hours": 0, "minutes": 0}}]}, {"day": "TUESDAY", "timeIntervals": [{"openingTime": {"hours": 0, "minutes": 0}, "closingTime": {"hours": 0, "minutes": 0}}]}, {"day": "WEDNESDAY", "timeIntervals": [{"openingTime": {"hours": 0, "minutes": 0}, "closingTime": {"hours": 0, "minutes": 0}}]}, {"day": "THURSDAY", "timeIntervals": [{"openingTime": {"hours": 0, "minutes": 0}, "closingTime": {"hours": 0, "minutes": 0}}]}, {"day": "FRIDAY", "timeIntervals": [{"openingTime": {"hours": 0, "minutes": 0}, "closingTime": {"hours": 0, "minutes": 0}}]}, {"day": "SATURDAY", "timeIntervals": [{"openingTime": {"hours": 0, "minutes": 0}, "closingTime": {"hours": 0, "minutes": 0}}]}, {"day": "SUNDAY", "timeIntervals": [{"openingTime": {"hours": 0, "minutes": 0}, "closingTime": {"hours": 0, "minutes": 0}}]}]}, "isClosed": false, "isOwner": false, "latitude": 39.669613, "localizedDescriptions": [], "locationId": 227098, "locationV2": {"attractionTypes": []}, "longitude": -75.67099, "parentId": 34043, "placeType": "ACCOMMODATION", "absoluteOwnerManagementUrl": "https://www.tripadvisor.com.vn/HotelsManagementCenter-d227098-TownePlace_Suites_Wilmington_Newark_Christiana?cat=0&geo=34043", "email": "", "geoName": "Newark", "isoCountryCode": "US", "localizedName": "TownePlace Suites Wilmington Newark/Christiana", "name": "TownePlace Suites Wilmington Newark/Christiana", "locationDescription": "N\u1ebfu b\u1ea1n \u0111ang t\u00ecm ki\u1ebfm kha\u0301ch sa\u0323n d\u00e0nh cho gia \u0111\u00ecnh \u1edf Newark, h\u00e3y th\u1eed nghi\u1ec7m TownePlace Suites Wilmington Newark/Christiana.\nN\u1ebfu b\u1ea1n mu\u1ed1n kh\u00e1m ph\u00e1 nh\u1eefng \u0111\u1ecba danh y\u00eau th\u00edch khi \u0111\u1ebfn Newark, Towneplace Suites Wilmington Newark Hotel n\u1eb1m kh\u00f4ng xa Huge Doctor's Bag With Stethescope (3,6 km) v\u00e0 Hale-Byrnes House (3,9 km).\nB\u1ea1n s\u1ebd th\u00edch th\u00fa t\u1eadn h\u01b0\u1edfng ph\u00f2ng \u0111\u01b0\u1ee3c trang b\u1ecb tv m\u00e0n h\u00ecnh ph\u1eb3ng v\u00e0 b\u1ebfp nh\u1ecf, v\u00e0 b\u1ea1n c\u00f3 th\u1ec3 k\u1ebft n\u1ed1i trong su\u1ed1t th\u1eddi gian \u1edf \u0111\u00e2y v\u00ec Towneplace Suites Wilmington Newark Hotel cung c\u1ea5p cho kh\u00e1ch wifi mi\u1ec5n ph\u00ed.\nH\u01a1n n\u1eefa, TownePlace Suites Wilmington Newark/Christiana c\u00f2n cung c\u1ea5p b\u1ec3 b\u01a1i v\u00e0 b\u1eefa s\u00e1ng, mang l\u1ea1i kho\u1ea3nh kh\u1eafc th\u01b0 gi\u00e3n tr\u1ed1n xa m\u1ed9t ng\u00e0y b\u1eadn r\u1ed9n. \u0110\u1ed1i v\u1edbi kh\u00e1ch \u0111i l\u1ea1i b\u1eb1ng xe c\u1ed9 c\u1ee7a m\u00ecnh, \u0111\u1ed7 xe mi\u1ec5n ph\u00ed c\u00f3 s\u1eb5n.\nKhi \u1edf Newark h\u00e3y nh\u1edb th\u1eed t\u00f4m \u0111\u1ecba ph\u01b0\u01a1ng \u0111\u01b0\u1ee3c y\u00eau th\u00edch t\u1ea1i Border Cafe, Firebirds Wood Fired Grill ho\u1eb7c JB Dawson's Restaurant.\nN\u1ebfu b\u1ea1n th\u00edch kh\u00e1m ph\u00e1 Newark, kh\u00e1m ph\u00e1 m\u1ed9t trong nh\u1eefng c\u00f4ng vi\u00ean, nh\u01b0 Glasgow Park, Iron Hill Park v\u00e0 George Read Park.\nC\u00e1c nh\u00e2n vi\u00ean c\u1ee7a TownePlace Suites Wilmington Newark/Christiana mong mu\u1ed1n \u0111\u01b0\u1ee3c ph\u1ee5c v\u1ee5 b\u1ea1n trong k\u00ec ngh\u1ec9 s\u1eafp t\u1edbi.\n", "officialUrl": "https://www.marriott.com/en-us/hotels/ilgts-towneplace-suites-wilmington-newark-christiana/overview/?scid=45f93f1b-bd77-45c9-8dab-83b6a417f6fe&y_source=1_MjgxODI5Mi03NjktbG9jYXRpb24ud2Vic2l0ZQ%3D%3D", "postPhotosUrl": "/PostPhotos-d227098", "telephone": "+1 302-369-6212", "url": "/Hotel_Review-g34043-d227098-Reviews-TownePlace_Suites_Wilmington_Newark_Christiana-Newark_Delaware.html", "writeUserReviewUrl": "/UserReview-g34043-d227098-TownePlace_Suites_Wilmington_Newark_Christiana-Newark_Delaware.html", "localizedStreetAddress": {"city": "Newark", "country": "Hoa K\u1ef3", "fullAddress": "410 Eagle Run Road, Newark, DE 19702", "postalCode": "19702", "state": "Delaware", "street1": "410 Eagle Run Road", "street2": ""}, "streetAddress": {"street1": "410 Eagle Run Road", "street2": "", "state": "Delaware", "city": "Newark", "postalCode": "19702", "fullAddress": "410 Eagle Run Road, Newark, DE 19702"}, "localizedNames": [{"locale": "ko", "value": "\uba54\ub9ac\uc5b4\ud2b8 \ud0c0\uc6b4\ud50c\ub808\uc774\uc2a4 \uc2a4\uc704\ud2b8 \uc70c\ubc0d\ud134"}, {"locale": "ru", "value": "\u0422\u0430\u0443\u043d\u043f\u043b\u0435\u0439\u0441 \u0421\u044c\u044e\u0442\u0441 \u0423\u0438\u043b\u043c\u0438\u043d\u0433\u0442\u043e\u043d \u041d\u044c\u044e\u0430\u0440\u043a"}, {"locale": "ja", "value": "\u30bf\u30a6\u30f3\u30d7\u30ec\u30a4\u30b9 \u30b9\u30a4\u30fc\u30c4 \u30d0\u30a4 \u30de\u30ea\u30aa\u30c3\u30c8 \u30a6\u30a3\u30eb\u30df\u30f3\u30c8\u30f3 \u30cb\u30e5\u30fc\u30a2\u30fc\u30af/\u30af\u30ea\u30b9\u30c6\u30a3\u30ca"}], "localizedStreetAddresses": [{"street1": null, "street2": null, "fullAddress": "410 Eagle Run Road, Newark, DE 19702", "locale": "fr_BE"}, {"street1": null, "street2": null, "fullAddress": "410 Eagle Run Road, Newark, DE 19702", "locale": "es_MX"}, {"street1": null, "street2": null, "fullAddress": "410 Eagle Run Road, Newark, DE 19702", "locale": "es_VE"}, {"street1": null, "street2": null, "fullAddress": "410 Eagle Run Road, \u7d10\u74e6\u514b, DE", "locale": "zh_TW"}, {"street1": null, "street2": null, "fullAddress": "410 Eagle Run Road, \u7d10\u74e6\u514b, DE", "locale": "zh_HK"}, {"street1": null, "street2": null, "fullAddress": "410 Eagle Run Road, Newark, DE 19702", "locale": "it"}, {"street1": null, "street2": null, "fullAddress": "410 Eagle Run Road, \ub274\uc5b4\ud06c, DE", "locale": "ko"}, {"street1": null, "street2": null, "fullAddress": "410 Eagle Run Road, Newark, DE 19702", "locale": "es_CL"}, {"street1": null, "street2": null, "fullAddress": "410 Eagle Run Road, Newark, DE 19702", "locale": "fi"}, {"street1": null, "street2": null, "fullAddress": "410 Eagle Run Road, Newark, DE 19702", "locale": "pt_PT"}, {"street1": null, "street2": null, "fullAddress": "410 Eagle Run Road, Newark, DE 19702", "locale": "en_US"}, {"street1": null, "street2": null, "fullAddress": "410 Eagle Run Road, \u0e19\u0e27\u0e23\u0e4c\u0e01, DE 19702", "locale": "th"}, {"street1": null, "street2": null, "fullAddress": "410 Eagle Run Road, Newark, DE 19702", "locale": "en_SG"}, {"street1": null, "street2": null, "fullAddress": "410 Eagle Run Road, Newark, DE 19702", "locale": "pt"}, {"street1": null, "street2": null, "fullAddress": "410 Eagle Run Road, Newark, DE 19702", "locale": "en_UK"}, {"street1": null, "street2": null, "fullAddress": "410 Eagle Run Road, \u202bNewark\u202c, \u202bDelaware\u202c 19702", "locale": "ar"}, {"street1": null, "street2": null, "fullAddress": "410 Eagle Run Road, \u041d\u044c\u044e\u0430\u0440\u043a, DE 19702", "locale": "ru"}, {"street1": null, "street2": null, "fullAddress": "410 Eagle Run Road, Newark, DE 19702", "locale": "en_NZ"}, {"street1": null, "street2": null, "fullAddress": "410 Eagle Run Road, Newark, DE 19702", "locale": "de_CH"}, {"street1": null, "street2": null, "fullAddress": "410 Eagle Run Road, Newark, DE 19702", "locale": "sk"}, {"street1": null, "street2": null, "fullAddress": "410 Eagle Run Road, Newark, DE 19702", "locale": "en_ZA"}, {"street1": null, "street2": null, "fullAddress": "410 Eagle Run Road, Newark, DE 19702", "locale": "sv"}, {"street1": null, "street2": null, "fullAddress": "410 Eagle Run Road, Newark, DE 19702", "locale": "cs"}, {"street1": null, "street2": null, "fullAddress": "410 Eagle Run Road, \u039d\u03b9\u03bf\u03cd\u03b1\u03c1\u03ba, DE 19702", "locale": "el"}, {"street1": null, "street2": null, "fullAddress": "410 Eagle Run Road, Newark, DE 19702", "locale": "de_AT"}, {"street1": null, "street2": null, "fullAddress": "410 Eagle Run Road, Newark, DE 19702", "locale": "nl"}, {"street1": null, "street2": null, "fullAddress": "410 Eagle Run Road, Newark, DE 19702", "locale": "fr_CH"}, {"street1": null, "street2": null, "fullAddress": "410 Eagle Run Road, Newark, DE 19702", "locale": "hu"}, {"street1": null, "street2": null, "fullAddress": "410 Eagle Run Road, Newark, DE 19702", "locale": "en_AU"}, {"street1": null, "street2": null, "fullAddress": "410 Eagle Run Road, Newark, DE 19702", "locale": "in"}, {"street1": null, "street2": null, "fullAddress": "410 Eagle Run Road, Newark, DE 19702", "locale": "vi"}, {"street1": null, "street2": null, "fullAddress": "410 Eagle Run Road, Newark, DE 19702", "locale": "fr_CA"}, {"street1": null, "street2": null, "fullAddress": "410 Eagle Run Road, Newark, DE 19702", "locale": "es_AR"}, {"street1": null, "street2": null, "fullAddress": "410 Eagle Run Road, \u202bNewark\u202c, \u202bDelaware\u202c 19702", "locale": "ar_EG"}, {"street1": null, "street2": null, "fullAddress": "410 Eagle Run Road, Newark, DE 19702", "locale": "sr"}, {"street1": null, "street2": null, "fullAddress": "410 Eagle Run Road, Newark, DE 19702", "locale": "en_MY"}, {"street1": null, "street2": null, "fullAddress": "410 Eagle Run Road, Newark, DE 19702", "locale": "it_CH"}, {"street1": null, "street2": null, "fullAddress": "410 Eagle Run Road, Newark, DE 19702", "locale": "da"}, {"street1": null, "street2": null, "fullAddress": "410 Eagle Run Road, Newark, DE 19702", "locale": "es"}, {"street1": null, "street2": null, "fullAddress": "410 Eagle Run Road, Newark, DE 19702", "locale": "tr"}, {"street1": null, "street2": null, "fullAddress": "410 Eagle Run Road, Newark, DE 19702", "locale": "en_HK"}, {"street1": null, "street2": null, "fullAddress": "410 Eagle Run Road, Newark, DE 19702", "locale": "en_IE"}, {"street1": null, "street2": null, "fullAddress": "410 Eagle Run Road, Newark, DE 19702", "locale": "en_CA"}, {"street1": null, "street2": null, "fullAddress": "410 Eagle Run Road, Newark, DE 19702", "locale": "nl_BE"}, {"street1": null, "street2": null, "fullAddress": "410 Eagle Run Road, Newark, DE 19702", "locale": "pl"}, {"street1": null, "street2": null, "fullAddress": "410 Eagle Run Road, Newark, DE 19702", "locale": "no"}, {"street1": null, "street2": null, "fullAddress": "410 Eagle Run Road, \u7ebd\u74e6\u514b, DE", "locale": "zh_CN"}, {"street1": null, "street2": null, "fullAddress": "410 Eagle Run Road, Newark, DE 19702", "locale": "es_CO"}, {"street1": null, "street2": null, "fullAddress": "410 Eagle Run Road, Newark, DE 19702", "locale": "fr"}, {"street1": null, "street2": null, "fullAddress": "410 Eagle Run Road, \u30cb\u30e5\u30fc\u30a2\u30fc\u30af, DE", "locale": "ja"}, {"street1": null, "street2": null, "fullAddress": "410 Eagle Run Road, \u05e0\u05d9\u05d5\u05d0\u05e8\u05e7, DE 19702", "locale": "iw"}, {"street1": null, "street2": null, "fullAddress": "410 Eagle Run Road, Newark, DE 19702", "locale": "en_IN"}, {"street1": null, "street2": null, "fullAddress": "410 Eagle Run Road, Newark, DE 19702", "locale": "de"}, {"street1": null, "street2": null, "fullAddress": "410 Eagle Run Road, \u7ebd\u74e6\u514b, DE", "locale": "zh"}, {"street1": null, "street2": null, "fullAddress": "410 Eagle Run Road, Newark, DE 19702", "locale": "es_PE"}, {"street1": null, "street2": null, "fullAddress": "410 Eagle Run Road, Newark, DE 19702", "locale": "en_PH"}], "parents": [{"placeType": "CITY", "locationId": 34043, "name": "Newark"}, {"placeType": "STATE", "locationId": 28929, "name": "Delaware"}, {"placeType": "COUNTRY", "locationId": 191, "name": "Hoa K\u1ef3"}, {"placeType": "CONTINENT", "locationId": 19, "name": "B\u0103\u0301c My\u0303"}, {"placeType": null, "locationId": 1, "name": "Th\u00ea\u0301 gi\u01a1\u0301i"}], "thumbnail": {"title": null, "photoSizes": [{"height": 0, "isHorizontal": true, "width": 0, "url": "https://dynamic-media-cdn.tripadvisor.com/media/photo-o/29/0b/c9/9a/front-desk.jpg?w=100&h=100&s=1"}, {"height": 50, "isHorizontal": true, "width": 50, "url": "https://media-cdn.tripadvisor.com/media/photo-t/29/0b/c9/9a/front-desk.jpg"}, {"height": 150, "isHorizontal": true, "width": 150, "url": "https://media-cdn.tripadvisor.com/media/photo-l/29/0b/c9/9a/front-desk.jpg"}, {"height": 200, "isHorizontal": false, "width": 180, "url": "https://media-cdn.tripadvisor.com/media/photo-i/29/0b/c9/9a/front-desk.jpg"}, {"height": 167, "isHorizontal": true, "width": 250, "url": "https://media-cdn.tripadvisor.com/media/photo-f/29/0b/c9/9a/front-desk.jpg"}, {"height": 367, "isHorizontal": true, "width": 550, "url": "https://media-cdn.tripadvisor.com/media/photo-s/29/0b/c9/9a/front-desk.jpg"}, {"height": 683, "isHorizontal": true, "width": 1024, "url": "https://media-cdn.tripadvisor.com/media/photo-w/29/0b/c9/9a/front-desk.jpg"}, {"height": 853, "isHorizontal": true, "width": 1280, "url": "https://media-cdn.tripadvisor.com/media/photo-m/1280/29/0b/c9/9a/front-desk.jpg"}]}}]}}]