[{"data": {"restaurantStyles": [], "restaurantDiningOptions": [], "accommodationType": [], "restaurantTypes": [{"tag": {"categoryId": 230, "tagId": 10591, "tagName": "Restaurants", "tagNameLocalized": "Nha\u0300 ha\u0300ng", "translationKey": "tags_category_tag_restaurants"}}], "restaurantMealTypes": [{"tag": {"categoryId": 233, "tagId": 10598, "tagName": "Lunch", "tagNameLocalized": "B\u01b0\u0303a tr\u01b0a", "translationKey": "tags_category_tag_lunch"}}, {"tag": {"categoryId": 233, "tagId": 10597, "tagName": "Breakfast", "tagNameLocalized": "B\u1eefa s\u00e1ng", "translationKey": "tags_category_tag_breakfast"}}, {"tag": {"categoryId": 233, "tagId": 10599, "tagName": "Dinner", "tagNameLocalized": "B\u01b0\u0303a t\u00f4\u0301i", "translationKey": "tags_category_tag_dinner"}}], "restaurantPrice": [{"tag": {"categoryId": 240, "tagId": 10955, "tagName": "Mid Range", "tagNameLocalized": "H\u1ea1ng trung", "translationKey": "tags_category_tag_mid_range"}}], "restaurantCuisines": [{"tag": {"categoryId": 231, "tagId": 9908, "tagName": "American", "tagNameLocalized": "Ki\u1ec3u My\u0303", "translationKey": "tags_category_tag_american"}}], "locations": [{"accommodationType": "T_UNKNOWN", "countryId": 191, "hoursOfOperation": {"dailyTimeIntervals": [{"day": "MONDAY", "timeIntervals": [{"openingTime": {"hours": 1, "minutes": 0}, "closingTime": {"hours": 0, "minutes": 0}}]}, {"day": "TUESDAY", "timeIntervals": [{"openingTime": {"hours": 0, "minutes": 30}, "closingTime": {"hours": 0, "minutes": 0}}]}, {"day": "WEDNESDAY", "timeIntervals": [{"openingTime": {"hours": 0, "minutes": 30}, "closingTime": {"hours": 1, "minutes": 30}}]}, {"day": "THURSDAY", "timeIntervals": [{"openingTime": {"hours": 0, "minutes": 30}, "closingTime": {"hours": 0, "minutes": 0}}]}, {"day": "FRIDAY", "timeIntervals": [{"openingTime": {"hours": 0, "minutes": 30}, "closingTime": {"hours": 1, "minutes": 30}}]}, {"day": "SATURDAY", "timeIntervals": [{"openingTime": {"hours": 1, "minutes": 30}, "closingTime": {"hours": 0, "minutes": 0}}]}, {"day": "SUNDAY", "timeIntervals": [{"openingTime": {"hours": 0, "minutes": 30}, "closingTime": {"hours": 0, "minutes": 0}}]}]}, "isClosed": false, "isOwner": false, "latitude": 39.87447, "localizedDescriptions": [], "localizedNames": [], "locationId": 23099945, "locationV2": {"attractionTypes": []}, "longitude": -75.63627, "parentId": 52338, "placeType": "EATERY", "absoluteOwnerManagementUrl": "https://www.tripadvisor.com.vn/RSManagementCenter-d23099945-JunXion_Cafe_Market?cat=0&geo=52338", "email": "manager@junxioncafe.com", "geoName": "Chadds Ford", "isoCountryCode": "US", "localizedName": "JunXion Cafe & Market", "name": "JunXion Cafe & Market", "locationDescription": null, "officialUrl": "http://www.junxioncafe.com", "postPhotosUrl": "/PostPhotos-d23099945", "telephone": "+1 610-228-0405", "url": "/Restaurant_Review-g52338-d23099945-Reviews-JunXion_Cafe_Market-Chadds_Ford_Pennsylvania.html", "writeUserReviewUrl": "/UserReview-g52338-d23099945-JunXion_Cafe_Market-Chadds_Ford_Pennsylvania.html", "localizedStreetAddress": {"city": "Chadds Ford", "country": "Hoa K\u1ef3", "fullAddress": "880 Baltimore Pike, Chadds Ford, PA 19317-9305", "postalCode": "19317-9305", "state": "Pennsylvania:", "street1": "880 Baltimore Pike", "street2": ""}, "streetAddress": {"street1": "880 Baltimore Pike", "street2": "", "state": "Pennsylvania:", "city": "Chadds Ford", "postalCode": "19317-9305", "fullAddress": "880 Baltimore Pike, Chadds Ford, PA 19317-9305"}, "localizedStreetAddresses": [{"street1": null, "street2": null, "fullAddress": "880 Baltimore Pike, Chadds Ford, PA 19317-9305", "locale": "fr_BE"}, {"street1": null, "street2": null, "fullAddress": "880 Baltimore Pike, Chadds Ford, PA 19317-9305", "locale": "es_MX"}, {"street1": null, "street2": null, "fullAddress": "880 Baltimore Pike, Chadds Ford, PA 19317-9305", "locale": "es_VE"}, {"street1": null, "street2": null, "fullAddress": "880 Baltimore Pike, Chadds Ford, PA", "locale": "zh_TW"}, {"street1": null, "street2": null, "fullAddress": "880 Baltimore Pike, Chadds Ford, PA", "locale": "zh_HK"}, {"street1": null, "street2": null, "fullAddress": "880 Baltimore Pike, Chadds Ford, PA 19317-9305", "locale": "it"}, {"street1": null, "street2": null, "fullAddress": "880 Baltimore Pike, \ucc44\uc988\ud3ec\ub4dc, PA", "locale": "ko"}, {"street1": null, "street2": null, "fullAddress": "880 Baltimore Pike, Chadds Ford, PA 19317-9305", "locale": "es_CL"}, {"street1": null, "street2": null, "fullAddress": "880 Baltimore Pike, Chadds Ford, PA 19317-9305", "locale": "fi"}, {"street1": null, "street2": null, "fullAddress": "880 Baltimore Pike, Chadds Ford, PA 19317-9305", "locale": "pt_PT"}, {"street1": null, "street2": null, "fullAddress": "880 Baltimore Pike, Chadds Ford, PA 19317-9305", "locale": "en_US"}, {"street1": null, "street2": null, "fullAddress": "880 Baltimore Pike, Chadds Ford, PA 19317-9305", "locale": "th"}, {"street1": null, "street2": null, "fullAddress": "880 Baltimore Pike, Chadds Ford, PA 19317-9305", "locale": "en_SG"}, {"street1": null, "street2": null, "fullAddress": "880 Baltimore Pike, Chadds Ford, PA 19317-9305", "locale": "pt"}, {"street1": null, "street2": null, "fullAddress": "880 Baltimore Pike, Chadds Ford, PA 19317-9305", "locale": "en_UK"}, {"street1": null, "street2": null, "fullAddress": "880 Baltimore Pike, \u202bChadds Ford\u202c, \u0628\u0646\u0633\u064a\u0644\u0641\u0627\u0646\u064a\u0627 19317-9305", "locale": "ar"}, {"street1": null, "street2": null, "fullAddress": "880 Baltimore Pike, Chadds Ford, PA 19317-9305", "locale": "ru"}, {"street1": null, "street2": null, "fullAddress": "880 Baltimore Pike, Chadds Ford, PA 19317-9305", "locale": "en_NZ"}, {"street1": null, "street2": null, "fullAddress": "880 Baltimore Pike, Chadds Ford, PA 19317-9305", "locale": "de_CH"}, {"street1": null, "street2": null, "fullAddress": "880 Baltimore Pike, Chadds Ford, PA 19317-9305", "locale": "sk"}, {"street1": null, "street2": null, "fullAddress": "880 Baltimore Pike, Chadds Ford, PA 19317-9305", "locale": "en_ZA"}, {"street1": null, "street2": null, "fullAddress": "880 Baltimore Pike, Chadds Ford, PA 19317-9305", "locale": "sv"}, {"street1": null, "street2": null, "fullAddress": "880 Baltimore Pike, Chadds Ford, PA 19317-9305", "locale": "cs"}, {"street1": null, "street2": null, "fullAddress": "880 Baltimore Pike, Chadds Ford, PA 19317-9305", "locale": "el"}, {"street1": null, "street2": null, "fullAddress": "880 Baltimore Pike, Chadds Ford, PA 19317-9305", "locale": "de_AT"}, {"street1": null, "street2": null, "fullAddress": "880 Baltimore Pike, Chadds Ford, PA 19317-9305", "locale": "nl"}, {"street1": null, "street2": null, "fullAddress": "880 Baltimore Pike, Chadds Ford, PA 19317-9305", "locale": "fr_CH"}, {"street1": null, "street2": null, "fullAddress": "880 Baltimore Pike, Chadds Ford, PA 19317-9305", "locale": "hu"}, {"street1": null, "street2": null, "fullAddress": "880 Baltimore Pike, Chadds Ford, PA 19317-9305", "locale": "en_AU"}, {"street1": null, "street2": null, "fullAddress": "880 Baltimore Pike, Chadds Ford, PA 19317-9305", "locale": "in"}, {"street1": null, "street2": null, "fullAddress": "880 Baltimore Pike, Chadds Ford, PA 19317-9305", "locale": "vi"}, {"street1": null, "street2": null, "fullAddress": "880 Baltimore Pike, Chadds Ford, PA 19317-9305", "locale": "fr_CA"}, {"street1": null, "street2": null, "fullAddress": "880 Baltimore Pike, Chadds Ford, PA 19317-9305", "locale": "es_AR"}, {"street1": null, "street2": null, "fullAddress": "880 Baltimore Pike, \u202bChadds Ford\u202c, \u0628\u0646\u0633\u064a\u0644\u0641\u0627\u0646\u064a\u0627 19317-9305", "locale": "ar_EG"}, {"street1": null, "street2": null, "fullAddress": "880 Baltimore Pike, Chadds Ford, PA 19317-9305", "locale": "sr"}, {"street1": null, "street2": null, "fullAddress": "880 Baltimore Pike, Chadds Ford, PA 19317-9305", "locale": "en_MY"}, {"street1": null, "street2": null, "fullAddress": "880 Baltimore Pike, Chadds Ford, PA 19317-9305", "locale": "it_CH"}, {"street1": null, "street2": null, "fullAddress": "880 Baltimore Pike, Chadds Ford, PA 19317-9305", "locale": "da"}, {"street1": null, "street2": null, "fullAddress": "880 Baltimore Pike, Chadds Ford, PA 19317-9305", "locale": "es"}, {"street1": null, "street2": null, "fullAddress": "880 Baltimore Pike, Chadds Ford, PA 19317-9305", "locale": "tr"}, {"street1": null, "street2": null, "fullAddress": "880 Baltimore Pike, Chadds Ford, PA 19317-9305", "locale": "en_HK"}, {"street1": null, "street2": null, "fullAddress": "880 Baltimore Pike, Chadds Ford, PA 19317-9305", "locale": "en_IE"}, {"street1": null, "street2": null, "fullAddress": "880 Baltimore Pike, Chadds Ford, PA 19317-9305", "locale": "en_CA"}, {"street1": null, "street2": null, "fullAddress": "880 Baltimore Pike, Chadds Ford, PA 19317-9305", "locale": "nl_BE"}, {"street1": null, "street2": null, "fullAddress": "880 Baltimore Pike, Chadds Ford, PA 19317-9305", "locale": "pl"}, {"street1": null, "street2": null, "fullAddress": "880 Baltimore Pike, Chadds Ford, PA 19317-9305", "locale": "no"}, {"street1": null, "street2": null, "fullAddress": "880 Baltimore Pike, Chadds Ford, PA", "locale": "zh_CN"}, {"street1": null, "street2": null, "fullAddress": "880 Baltimore Pike, Chadds Ford, PA 19317-9305", "locale": "es_CO"}, {"street1": null, "street2": null, "fullAddress": "880 Baltimore Pike, Chadds Ford, PA 19317-9305", "locale": "fr"}, {"street1": null, "street2": null, "fullAddress": "880 Baltimore Pike, \u30c1\u30e3\u30ba\u30d5\u30a9\u30fc\u30c9, PA", "locale": "ja"}, {"street1": null, "street2": null, "fullAddress": "880 Baltimore Pike, \u202bChadds Ford\u202c, PA 19317-9305", "locale": "iw"}, {"street1": null, "street2": null, "fullAddress": "880 Baltimore Pike, Chadds Ford, PA 19317-9305", "locale": "en_IN"}, {"street1": null, "street2": null, "fullAddress": "880 Baltimore Pike, Chadds Ford, PA 19317-9305", "locale": "de"}, {"street1": null, "street2": null, "fullAddress": "880 Baltimore Pike, Chadds Ford, PA", "locale": "zh"}, {"street1": null, "street2": null, "fullAddress": "880 Baltimore Pike, Chadds Ford, PA 19317-9305", "locale": "es_PE"}, {"street1": null, "street2": null, "fullAddress": "880 Baltimore Pike, Chadds Ford, PA 19317-9305", "locale": "en_PH"}], "parents": [{"placeType": "CITY", "locationId": 52338, "name": "Chadds Ford"}, {"placeType": "STATE", "locationId": 28959, "name": "Pennsylvania:"}, {"placeType": "COUNTRY", "locationId": 191, "name": "Hoa K\u1ef3"}, {"placeType": "CONTINENT", "locationId": 19, "name": "B\u0103\u0301c My\u0303"}, {"placeType": null, "locationId": 1, "name": "Th\u00ea\u0301 gi\u01a1\u0301i"}], "thumbnail": {"title": null, "photoSizes": [{"height": 0, "isHorizontal": true, "width": 0, "url": "https://dynamic-media-cdn.tripadvisor.com/media/photo-o/25/be/9b/f1/colombia-food.jpg?w=100&h=100&s=1"}, {"height": 50, "isHorizontal": true, "width": 50, "url": "https://media-cdn.tripadvisor.com/media/photo-t/25/be/9b/f1/colombia-food.jpg"}, {"height": 150, "isHorizontal": true, "width": 150, "url": "https://media-cdn.tripadvisor.com/media/photo-l/25/be/9b/f1/colombia-food.jpg"}, {"height": 200, "isHorizontal": false, "width": 180, "url": "https://media-cdn.tripadvisor.com/media/photo-i/25/be/9b/f1/colombia-food.jpg"}, {"height": 205, "isHorizontal": true, "width": 241, "url": "https://media-cdn.tripadvisor.com/media/photo-f/25/be/9b/f1/colombia-food.jpg"}, {"height": 450, "isHorizontal": true, "width": 529, "url": "https://media-cdn.tripadvisor.com/media/photo-s/25/be/9b/f1/colombia-food.jpg"}, {"height": 871, "isHorizontal": true, "width": 1024, "url": "https://media-cdn.tripadvisor.com/media/photo-w/25/be/9b/f1/colombia-food.jpg"}, {"height": 918, "isHorizontal": true, "width": 1079, "url": "https://media-cdn.tripadvisor.com/media/photo-o/25/be/9b/f1/colombia-food.jpg"}]}}]}}]