[{"data": {"restaurantStyles": [], "restaurantTypes": [], "restaurantMealTypes": [], "restaurantDiningOptions": [], "restaurantPrice": [], "restaurantCuisines": [], "accommodationType": [], "locations": [{"accommodationType": "T_HOTEL", "countryId": 191, "hoursOfOperation": {"dailyTimeIntervals": [{"day": "MONDAY", "timeIntervals": [{"openingTime": {"hours": 0, "minutes": 0}, "closingTime": {"hours": 0, "minutes": 0}}]}, {"day": "TUESDAY", "timeIntervals": [{"openingTime": {"hours": 0, "minutes": 0}, "closingTime": {"hours": 0, "minutes": 0}}]}, {"day": "WEDNESDAY", "timeIntervals": [{"openingTime": {"hours": 0, "minutes": 0}, "closingTime": {"hours": 0, "minutes": 0}}]}, {"day": "THURSDAY", "timeIntervals": [{"openingTime": {"hours": 0, "minutes": 0}, "closingTime": {"hours": 0, "minutes": 0}}]}, {"day": "FRIDAY", "timeIntervals": [{"openingTime": {"hours": 0, "minutes": 0}, "closingTime": {"hours": 0, "minutes": 0}}]}, {"day": "SATURDAY", "timeIntervals": [{"openingTime": {"hours": 0, "minutes": 0}, "closingTime": {"hours": 0, "minutes": 0}}]}, {"day": "SUNDAY", "timeIntervals": [{"openingTime": {"hours": 0, "minutes": 0}, "closingTime": {"hours": 0, "minutes": 0}}]}]}, "isClosed": false, "isOwner": false, "latitude": 39.81793, "localizedDescriptions": [], "locationId": 235512, "locationV2": {"attractionTypes": []}, "longitude": -75.54983, "parentId": 34059, "placeType": "ACCOMMODATION", "absoluteOwnerManagementUrl": "https://www.tripadvisor.com.vn/HotelsManagementCenter-d235512-Holiday_Inn_Express_Wilmington_North_Brandywine_an_IHG_Hotel?cat=0&geo=34059", "email": "gm.hiexpresswilmington@gmail.com", "geoName": "Wilmington", "isoCountryCode": "US", "localizedName": "Holiday Inn Express Wilmington North - Brandywine, an IHG Hotel", "name": "Holiday Inn Express Wilmington North - Brandywine, an IHG Hotel", "locationDescription": "H\u00e3y t\u1ef1 h\u1ecfi t\u1ea1i sao kh\u00e1ch du l\u1ecbch \u0111\u00e3 l\u1ef1a ch\u1ecdn Inn At Wilmington khi \u0111\u1ebfn th\u0103m Wilmington. Kh\u00e1ch s\u1ea1n l\u00e0 s\u1ef1 t\u1ed5ng h\u1ee3p c\u1ee7a nh\u1eefng gi\u00e1 tr\u1ecb l\u00fd t\u01b0\u1edfng, s\u1ef1 tho\u1ea3i m\u00e1i v\u00e0 thu\u1eadn ti\u1ec7n nh\u01b0 khung c\u1ea3nh d\u00e0nh cho gia \u0111\u00ecnh c\u00f9ng v\u1edbi nh\u1eefng ti\u1ec7n nghi \u0111\u01b0\u1ee3c thi\u1ebft k\u1ebf cho nh\u1eefng du kh\u00e1ch nh\u01b0 b\u1ea1n.\nC\u00e1c ph\u00f2ng kh\u00e1ch s\u1ea1n cung c\u1ea5p tv m\u00e0n h\u00ecnh ph\u1eb3ng, t\u1ee7 l\u1ea1nh v\u00e0 \u0111i\u1ec1u h\u00f2a nhi\u1ec7t \u0111\u1ed9, v\u00e0 online l\u00e0 c\u00f3 th\u1ec3 v\u00ec wifi mi\u1ec5n ph\u00ed c\u00f3 s\u1eb5n, cho ph\u00e9p b\u1ea1n th\u01b0 gi\u00e3n ngh\u1ec9 ng\u01a1i kh\u00f4ng ph\u1ea3i lo l\u1eafng g\u00ec.\nInn At Wilmington cung c\u1ea5p b\u00e0n l\u1ec5 t\u00e2n 24 gi\u1edd, b\u00e1o ch\u00ed h\u00e0ng ng\u00e0y v\u00e0 nh\u1eadn ph\u00f2ng / tr\u1ea3 ph\u00f2ng nhanh. H\u01a1n n\u1eefa, l\u00e0 kh\u00e1ch h\u00e0ng gi\u00e1 tr\u1ecb c\u1ee7a Inn At Wilmington, b\u1ea1n c\u00f3 th\u1ec3 t\u1eadn h\u01b0\u1edfng trung t\u00e2m th\u1ec3 d\u1ee5c th\u1ea9m m\u1ef9 v\u00e0 b\u1eefa s\u00e1ng, c\u00f3 s\u1eb5n t\u1ea1i kh\u00e1ch s\u1ea1n. Kh\u00e1ch \u0111i \u0111\u1ebfn kh\u00e1ch s\u1ea1n b\u1eb1ng ph\u01b0\u01a1ng ti\u1ec7n c\u1ee7a m\u00ecnh c\u00f3 th\u1ec3 d\u00f9ng \u0111\u1ed7 xe mi\u1ec5n ph\u00ed.\nKhi b\u1ea1n \u0111\u00f3i, h\u00e3y nh\u1edb th\u1eed Famous Dave's, l\u00e0 \u0111\u1ed3 n\u01b0\u1edbng \u0111\u01b0\u1ee3c \u01b0a chu\u1ed9ng b\u1edfi ng\u01b0\u1eddi d\u00e2n \u0111\u1ecba ph\u01b0\u01a1ng c\u0169ng nh\u01b0 du kh\u00e1ch.\nH\u01a1n n\u1eefa, trong su\u1ed1t k\u1ef3 ngh\u1ec9 c\u1ee7a b\u1ea1n \u0111\u1eebng qu\u00ean gh\u00e9 th\u0103m m\u1ed9t s\u1ed1 \u0111i\u0323a \u0111i\u00ea\u0309m li\u0323ch s\u01b0\u0309 n\u1ed5i ti\u1ebfng, nh\u01b0 Nemours Mansion & Gardens, Rockwood Museum v\u00e0 Old Swedes Church.\nCh\u00fang t\u00f4i tin r\u1eb1ng b\u1ea1n s\u1ebd h\u00e0i l\u00f2ng v\u1edbi Inn At Wilmington khi tr\u1ea3i nghi\u1ec7m t\u1ea5t c\u1ea3 nh\u1eefng g\u00ec m\u00e0 Wilmington c\u00f3 th\u1ec3 \u0111\u01b0a l\u1ea1i.\n", "officialUrl": "https://www.ihg.com/holidayinnexpress/hotels/us/en/wilmington/ilgrr/hoteldetail?cm_mmc=YextLocal-_-EX-_-US-_-ILGRR", "postPhotosUrl": "/PostPhotos-d235512", "telephone": "+1 302-479-7900", "url": "/Hotel_Review-g34059-d235512-Reviews-Holiday_Inn_Express_Wilmington_North_Brandywine_an_IHG_Hotel-Wilmington_Delaware.html", "writeUserReviewUrl": "/UserReview-g34059-d235512-Holiday_Inn_Express_Wilmington_North_Brandywine_an_IHG_Hotel-Wilmington_Delaware.html", "localizedStreetAddress": {"city": "Wilmington", "country": "Hoa K\u1ef3", "fullAddress": "300 Rocky Run Pkwy, Wilmington, DE 19803-1515", "postalCode": "19803-1515", "state": "Delaware", "street1": "300 Rocky Run Pkwy", "street2": ""}, "streetAddress": {"street1": "300 Rocky Run Pkwy", "street2": "", "state": "Delaware", "city": "Wilmington", "postalCode": "19803-1515", "fullAddress": "300 Rocky Run Pkwy, Wilmington, DE 19803-1515"}, "localizedNames": [{"locale": "zh_TW", "value": "\u5a01\u723e\u660e\u9813\u98ef\u5e97"}, {"locale": "ar", "value": "\u0625\u0646 \u0622\u062a \u0648\u064a\u0644\u0645\u064a\u0646\u062c\u062a\u0648\u0646"}, {"locale": "ru", "value": "\u0418\u043d\u043d \u042d\u0442 \u0423\u0438\u043b\u043c\u0438\u043d\u0433\u0442\u043e\u043d"}, {"locale": "ja", "value": "\u30a4\u30f3 \u30a2\u30c3\u30c8 \u30a6\u30a3\u30eb\u30df\u30f3\u30c8\u30f3"}], "localizedStreetAddresses": [{"street1": null, "street2": null, "fullAddress": "300 Rocky Run Pkwy, Wilmington, DE 19803-1515", "locale": "es_MX"}, {"street1": null, "street2": null, "fullAddress": "300 Rocky Run Pkwy, Wilmington, DE 19803-1515", "locale": "fr_BE"}, {"street1": null, "street2": null, "fullAddress": "300 Rocky Run Pkwy, Wilmington, DE 19803-1515", "locale": "es_VE"}, {"street1": null, "street2": null, "fullAddress": "300 Rocky Run Pkwy, \u5a01\u723e\u660e\u9813, DE", "locale": "zh_TW"}, {"street1": null, "street2": null, "fullAddress": "300 Rocky Run Pkwy, \u5a01\u723e\u660e\u9813, DE", "locale": "zh_HK"}, {"street1": null, "street2": null, "fullAddress": "300 Rocky Run Pkwy, Wilmington, DE 19803-1515", "locale": "it"}, {"street1": null, "street2": null, "fullAddress": "300 Rocky Run Pkwy, \uc70c\ubc0d\ud134, DE", "locale": "ko"}, {"street1": null, "street2": null, "fullAddress": "300 Rocky Run Pkwy, Wilmington, DE 19803-1515", "locale": "es_CL"}, {"street1": null, "street2": null, "fullAddress": "300 Rocky Run Pkwy, Wilmington, DE 19803-1515", "locale": "fi"}, {"street1": null, "street2": null, "fullAddress": "300 Rocky Run Pkwy, Wilmington, DE 19803-1515", "locale": "pt_PT"}, {"street1": null, "street2": null, "fullAddress": "300 Rocky Run Pkwy, Wilmington, DE 19803-1515", "locale": "en_US"}, {"street1": null, "street2": null, "fullAddress": "300 Rocky Run Pkwy, \u0e27\u0e34\u0e25\u0e21\u0e34\u0e07\u0e15\u0e31\u0e19, DE 19803-1515", "locale": "th"}, {"street1": null, "street2": null, "fullAddress": "300 Rocky Run Pkwy, Wilmington, DE 19803-1515", "locale": "en_SG"}, {"street1": null, "street2": null, "fullAddress": "300 Rocky Run Pkwy, Wilmington, DE 19803-1515", "locale": "en_UK"}, {"street1": null, "street2": null, "fullAddress": "300 Rocky Run Pkwy, Wilmington, DE 19803-1515", "locale": "pt"}, {"street1": null, "street2": null, "fullAddress": "300 Rocky Run Pkwy, \u202bWilmington\u202c, \u202bDelaware\u202c 19803-1515", "locale": "ar"}, {"street1": null, "street2": null, "fullAddress": "300 Rocky Run Pkwy, \u0423\u0438\u043b\u043c\u0438\u043d\u0433\u0442\u043e\u043d, DE 19803-1515", "locale": "ru"}, {"street1": null, "street2": null, "fullAddress": "300 Rocky Run Pkwy, Wilmington, DE 19803-1515", "locale": "en_NZ"}, {"street1": null, "street2": null, "fullAddress": "300 Rocky Run Pkwy, Wilmington, DE 19803-1515", "locale": "de_CH"}, {"street1": null, "street2": null, "fullAddress": "300 Rocky Run Pkwy, Wilmington, DE 19803-1515", "locale": "sk"}, {"street1": null, "street2": null, "fullAddress": "300 Rocky Run Pkwy, Wilmington, DE 19803-1515", "locale": "en_ZA"}, {"street1": null, "street2": null, "fullAddress": "300 Rocky Run Pkwy, Wilmington, DE 19803-1515", "locale": "cs"}, {"street1": null, "street2": null, "fullAddress": "300 Rocky Run Pkwy, Wilmington, DE 19803-1515", "locale": "sv"}, {"street1": null, "street2": null, "fullAddress": "300 Rocky Run Pkwy, \u0393\u03bf\u03c5\u03af\u03bb\u03bc\u03b9\u03bd\u03b3\u03ba\u03c4\u03bf\u03bd, DE 19803-1515", "locale": "el"}, {"street1": null, "street2": null, "fullAddress": "300 Rocky Run Pkwy, Wilmington, DE 19803-1515", "locale": "de_AT"}, {"street1": null, "street2": null, "fullAddress": "300 Rocky Run Pkwy, Wilmington, DE 19803-1515", "locale": "fr_CH"}, {"street1": null, "street2": null, "fullAddress": "300 Rocky Run Pkwy, Wilmington, DE 19803-1515", "locale": "nl"}, {"street1": null, "street2": null, "fullAddress": "300 Rocky Run Pkwy, Wilmington, DE 19803-1515", "locale": "hu"}, {"street1": null, "street2": null, "fullAddress": "300 Rocky Run Pkwy, Wilmington, DE 19803-1515", "locale": "en_AU"}, {"street1": null, "street2": null, "fullAddress": "300 Rocky Run Pkwy, Wilmington, DE 19803-1515", "locale": "in"}, {"street1": null, "street2": null, "fullAddress": "300 Rocky Run Pkwy, Wilmington, DE 19803-1515", "locale": "vi"}, {"street1": null, "street2": null, "fullAddress": "300 Rocky Run Pkwy, Wilmington, DE 19803-1515", "locale": "fr_CA"}, {"street1": null, "street2": null, "fullAddress": "300 Rocky Run Pkwy, Wilmington, DE 19803-1515", "locale": "es_AR"}, {"street1": null, "street2": null, "fullAddress": "300 Rocky Run Pkwy, \u202bWilmington\u202c, \u202bDelaware\u202c 19803-1515", "locale": "ar_EG"}, {"street1": null, "street2": null, "fullAddress": "300 Rocky Run Pkwy, Wilmington, DE 19803-1515", "locale": "en_MY"}, {"street1": null, "street2": null, "fullAddress": "300 Rocky Run Pkwy, Wilmington, DE 19803-1515", "locale": "sr"}, {"street1": null, "street2": null, "fullAddress": "300 Rocky Run Pkwy, Wilmington, DE 19803-1515", "locale": "it_CH"}, {"street1": null, "street2": null, "fullAddress": "300 Rocky Run Pkwy, Wilmington, DE 19803-1515", "locale": "da"}, {"street1": null, "street2": null, "fullAddress": "300 Rocky Run Pkwy, Wilmington, DE 19803-1515", "locale": "es"}, {"street1": null, "street2": null, "fullAddress": "300 Rocky Run Pkwy, Wilmington, DE 19803-1515", "locale": "tr"}, {"street1": null, "street2": null, "fullAddress": "300 Rocky Run Pkwy, Wilmington, DE 19803-1515", "locale": "en_HK"}, {"street1": null, "street2": null, "fullAddress": "300 Rocky Run Pkwy, Wilmington, DE 19803-1515", "locale": "en_IE"}, {"street1": null, "street2": null, "fullAddress": "300 Rocky Run Pkwy, Wilmington, DE 19803-1515", "locale": "en_CA"}, {"street1": null, "street2": null, "fullAddress": "300 Rocky Run Pkwy, Wilmington, DE 19803-1515", "locale": "nl_BE"}, {"street1": null, "street2": null, "fullAddress": "300 Rocky Run Pkwy, Wilmington, DE 19803-1515", "locale": "pl"}, {"street1": null, "street2": null, "fullAddress": "300 Rocky Run Pkwy, Wilmington, DE 19803-1515", "locale": "no"}, {"street1": null, "street2": null, "fullAddress": "300 Rocky Run Pkwy, \u5a01\u5c14\u660e\u987f, DE", "locale": "zh_CN"}, {"street1": null, "street2": null, "fullAddress": "300 Rocky Run Pkwy, Wilmington, DE 19803-1515", "locale": "es_CO"}, {"street1": null, "street2": null, "fullAddress": "300 Rocky Run Pkwy, Wilmington, DE 19803-1515", "locale": "fr"}, {"street1": null, "street2": null, "fullAddress": "300 Rocky Run Pkwy, \u30a6\u30a3\u30eb\u30df\u30f3\u30c8\u30f3, DE", "locale": "ja"}, {"street1": null, "street2": null, "fullAddress": "300 Rocky Run Pkwy, \u05d5\u05d5\u05d9\u05dc\u05de\u05d9\u05e0\u05d2\u05d8\u05d5\u05df, DE 19803-1515", "locale": "iw"}, {"street1": null, "street2": null, "fullAddress": "300 Rocky Run Pkwy, Wilmington, DE 19803-1515", "locale": "de"}, {"street1": null, "street2": null, "fullAddress": "300 Rocky Run Pkwy, Wilmington, DE 19803-1515", "locale": "en_IN"}, {"street1": null, "street2": null, "fullAddress": "300 Rocky Run Pkwy, \u5a01\u5c14\u660e\u987f, DE", "locale": "zh"}, {"street1": null, "street2": null, "fullAddress": "300 Rocky Run Pkwy, Wilmington, DE 19803-1515", "locale": "es_PE"}, {"street1": null, "street2": null, "fullAddress": "300 Rocky Run Pkwy, Wilmington, DE 19803-1515", "locale": "en_PH"}], "parents": [{"placeType": "CITY", "locationId": 34059, "name": "Wilmington"}, {"placeType": "STATE", "locationId": 28929, "name": "Delaware"}, {"placeType": "COUNTRY", "locationId": 191, "name": "Hoa K\u1ef3"}, {"placeType": "CONTINENT", "locationId": 19, "name": "B\u0103\u0301c My\u0303"}, {"placeType": null, "locationId": 1, "name": "Th\u00ea\u0301 gi\u01a1\u0301i"}], "thumbnail": {"title": null, "photoSizes": [{"height": 0, "isHorizontal": true, "width": 0, "url": "https://dynamic-media-cdn.tripadvisor.com/media/photo-o/29/54/c2/2c/hotel-photo-is-representative.jpg?w=100&h=100&s=1"}, {"height": 50, "isHorizontal": true, "width": 50, "url": "https://media-cdn.tripadvisor.com/media/photo-t/29/54/c2/2c/hotel-photo-is-representative.jpg"}, {"height": 150, "isHorizontal": true, "width": 150, "url": "https://media-cdn.tripadvisor.com/media/photo-l/29/54/c2/2c/hotel-photo-is-representative.jpg"}, {"height": 200, "isHorizontal": false, "width": 180, "url": "https://media-cdn.tripadvisor.com/media/photo-i/29/54/c2/2c/hotel-photo-is-representative.jpg"}, {"height": 167, "isHorizontal": true, "width": 250, "url": "https://media-cdn.tripadvisor.com/media/photo-f/29/54/c2/2c/hotel-photo-is-representative.jpg"}, {"height": 367, "isHorizontal": true, "width": 550, "url": "https://media-cdn.tripadvisor.com/media/photo-s/29/54/c2/2c/hotel-photo-is-representative.jpg"}, {"height": 683, "isHorizontal": true, "width": 1024, "url": "https://media-cdn.tripadvisor.com/media/photo-w/29/54/c2/2c/hotel-photo-is-representative.jpg"}, {"height": 853, "isHorizontal": true, "width": 1280, "url": "https://media-cdn.tripadvisor.com/media/photo-m/1280/29/54/c2/2c/hotel-photo-is-representative.jpg"}]}}]}}]