[{"data": {"restaurantStyles": [], "restaurantDiningOptions": [], "restaurantPrice": [], "restaurantCuisines": [], "accommodationType": [], "restaurantTypes": [{"tag": {"categoryId": 230, "tagId": 10591, "tagName": "Restaurants", "tagNameLocalized": "Nha\u0300 ha\u0300ng", "translationKey": "tags_category_tag_restaurants"}}], "restaurantMealTypes": [{"tag": {"categoryId": 233, "tagId": 10598, "tagName": "Lunch", "tagNameLocalized": "B\u01b0\u0303a tr\u01b0a", "translationKey": "tags_category_tag_lunch"}}, {"tag": {"categoryId": 233, "tagId": 10599, "tagName": "Dinner", "tagNameLocalized": "B\u01b0\u0303a t\u00f4\u0301i", "translationKey": "tags_category_tag_dinner"}}], "locations": [{"accommodationType": "T_UNKNOWN", "countryId": 191, "hoursOfOperation": {"dailyTimeIntervals": [{"day": "MONDAY", "timeIntervals": []}, {"day": "TUESDAY", "timeIntervals": [{"openingTime": {"hours": 16, "minutes": 0}, "closingTime": {"hours": 21, "minutes": 0}}]}, {"day": "WEDNESDAY", "timeIntervals": [{"openingTime": {"hours": 16, "minutes": 0}, "closingTime": {"hours": 21, "minutes": 0}}]}, {"day": "THURSDAY", "timeIntervals": [{"openingTime": {"hours": 16, "minutes": 0}, "closingTime": {"hours": 21, "minutes": 0}}]}, {"day": "FRIDAY", "timeIntervals": [{"openingTime": {"hours": 12, "minutes": 0}, "closingTime": {"hours": 22, "minutes": 0}}]}, {"day": "SATURDAY", "timeIntervals": [{"openingTime": {"hours": 12, "minutes": 0}, "closingTime": {"hours": 22, "minutes": 0}}]}, {"day": "SUNDAY", "timeIntervals": [{"openingTime": {"hours": 11, "minutes": 0}, "closingTime": {"hours": 20, "minutes": 0}}]}]}, "isClosed": false, "isOwner": false, "latitude": 39.92843, "localizedDescriptions": [], "localizedNames": [], "locationId": 23828161, "locationV2": {"attractionTypes": []}, "longitude": -75.33343, "parentId": 53743, "placeType": "EATERY", "absoluteOwnerManagementUrl": "https://www.tripadvisor.com.vn/RSManagementCenter-d23828161-Dom_Mia_s?cat=0&geo=53743", "email": "domandmias@gmail.com", "geoName": "Springfield", "isoCountryCode": "US", "localizedName": "Dom & Mia's", "name": "Dom & Mia's", "locationDescription": null, "officialUrl": "http://www.domandmias.com", "postPhotosUrl": "/PostPhotos-d23828161", "telephone": "+1 610-808-6381", "url": "/Restaurant_Review-g53743-d23828161-Reviews-Dom_Mia_s-Springfield_Pennsylvania.html", "writeUserReviewUrl": "/UserReview-g53743-d23828161-Dom_Mia_s-Springfield_Pennsylvania.html", "localizedStreetAddress": {"city": "Springfield", "country": "Hoa K\u1ef3", "fullAddress": "145 Saxer Ave, Springfield, PA 19064", "postalCode": "19064", "state": "Pennsylvania:", "street1": "145 Saxer Ave", "street2": ""}, "streetAddress": {"street1": "145 Saxer Ave", "street2": "", "state": "Pennsylvania:", "city": "Springfield", "postalCode": "19064", "fullAddress": "145 Saxer Ave, Springfield, PA 19064"}, "localizedStreetAddresses": [{"street1": null, "street2": null, "fullAddress": "145 Saxer Ave, Springfield, PA 19064", "locale": "fr_BE"}, {"street1": null, "street2": null, "fullAddress": "145 Saxer Ave, Springfield, PA 19064", "locale": "es_MX"}, {"street1": null, "street2": null, "fullAddress": "145 Saxer Ave, Springfield, PA 19064", "locale": "es_VE"}, {"street1": null, "street2": null, "fullAddress": "145 Saxer Ave, Springfield, PA", "locale": "zh_HK"}, {"street1": null, "street2": null, "fullAddress": "145 Saxer Ave, Springfield, PA", "locale": "zh_TW"}, {"street1": null, "street2": null, "fullAddress": "145 Saxer Ave, Springfield, PA 19064", "locale": "it"}, {"street1": null, "street2": null, "fullAddress": "145 Saxer Ave, \uc2a4\ud504\ub9c1\ud544\ub4dc, PA", "locale": "ko"}, {"street1": null, "street2": null, "fullAddress": "145 Saxer Ave, Springfield, PA 19064", "locale": "es_CL"}, {"street1": null, "street2": null, "fullAddress": "145 Saxer Ave, Springfield, PA 19064", "locale": "fi"}, {"street1": null, "street2": null, "fullAddress": "145 Saxer Ave, Springfield, PA 19064", "locale": "pt_PT"}, {"street1": null, "street2": null, "fullAddress": "145 Saxer Ave, Springfield, PA 19064", "locale": "en_US"}, {"street1": null, "street2": null, "fullAddress": "145 Saxer Ave, \u0e2a\u0e1b\u0e23\u0e34\u0e07\u0e1f\u0e34\u0e25\u0e14\u0e4c, PA 19064", "locale": "th"}, {"street1": null, "street2": null, "fullAddress": "145 Saxer Ave, Springfield, PA 19064", "locale": "en_SG"}, {"street1": null, "street2": null, "fullAddress": "145 Saxer Ave, Springfield, PA 19064", "locale": "pt"}, {"street1": null, "street2": null, "fullAddress": "145 Saxer Ave, Springfield, PA 19064", "locale": "en_UK"}, {"street1": null, "street2": null, "fullAddress": "145 Saxer Ave, \u202bSpringfield\u202c, \u0628\u0646\u0633\u064a\u0644\u0641\u0627\u0646\u064a\u0627 19064", "locale": "ar"}, {"street1": null, "street2": null, "fullAddress": "145 Saxer Ave, Springfield, PA 19064", "locale": "ru"}, {"street1": null, "street2": null, "fullAddress": "145 Saxer Ave, Springfield, PA 19064", "locale": "en_NZ"}, {"street1": null, "street2": null, "fullAddress": "145 Saxer Ave, Springfield, PA 19064", "locale": "de_CH"}, {"street1": null, "street2": null, "fullAddress": "145 Saxer Ave, Springfield, PA 19064", "locale": "sk"}, {"street1": null, "street2": null, "fullAddress": "145 Saxer Ave, Springfield, PA 19064", "locale": "en_ZA"}, {"street1": null, "street2": null, "fullAddress": "145 Saxer Ave, Springfield, PA 19064", "locale": "sv"}, {"street1": null, "street2": null, "fullAddress": "145 Saxer Ave, Springfield, PA 19064", "locale": "cs"}, {"street1": null, "street2": null, "fullAddress": "145 Saxer Ave, \u03a3\u03c0\u03c1\u03af\u03bd\u03b3\u03ba\u03c6\u03b9\u03bb\u03bd\u03c4, PA 19064", "locale": "el"}, {"street1": null, "street2": null, "fullAddress": "145 Saxer Ave, Springfield, PA 19064", "locale": "de_AT"}, {"street1": null, "street2": null, "fullAddress": "145 Saxer Ave, Springfield, PA 19064", "locale": "nl"}, {"street1": null, "street2": null, "fullAddress": "145 Saxer Ave, Springfield, PA 19064", "locale": "fr_CH"}, {"street1": null, "street2": null, "fullAddress": "145 Saxer Ave, Springfield, PA 19064", "locale": "hu"}, {"street1": null, "street2": null, "fullAddress": "145 Saxer Ave, Springfield, PA 19064", "locale": "en_AU"}, {"street1": null, "street2": null, "fullAddress": "145 Saxer Ave, Springfield, PA 19064", "locale": "in"}, {"street1": null, "street2": null, "fullAddress": "145 Saxer Ave, Springfield, PA 19064", "locale": "vi"}, {"street1": null, "street2": null, "fullAddress": "145 Saxer Ave, Springfield, PA 19064", "locale": "fr_CA"}, {"street1": null, "street2": null, "fullAddress": "145 Saxer Ave, Springfield, PA 19064", "locale": "es_AR"}, {"street1": null, "street2": null, "fullAddress": "145 Saxer Ave, \u202bSpringfield\u202c, \u0628\u0646\u0633\u064a\u0644\u0641\u0627\u0646\u064a\u0627 19064", "locale": "ar_EG"}, {"street1": null, "street2": null, "fullAddress": "145 Saxer Ave, Springfield, PA 19064", "locale": "en_MY"}, {"street1": null, "street2": null, "fullAddress": "145 Saxer Ave, Springfield, PA 19064", "locale": "sr"}, {"street1": null, "street2": null, "fullAddress": "145 Saxer Ave, Springfield, PA 19064", "locale": "it_CH"}, {"street1": null, "street2": null, "fullAddress": "145 Saxer Ave, Springfield - Bucks County, PA 19064", "locale": "da"}, {"street1": null, "street2": null, "fullAddress": "145 Saxer Ave, Springfield, PA 19064", "locale": "es"}, {"street1": null, "street2": null, "fullAddress": "145 Saxer Ave, Springfield, PA 19064", "locale": "tr"}, {"street1": null, "street2": null, "fullAddress": "145 Saxer Ave, Springfield, PA 19064", "locale": "en_HK"}, {"street1": null, "street2": null, "fullAddress": "145 Saxer Ave, Springfield, PA 19064", "locale": "en_IE"}, {"street1": null, "street2": null, "fullAddress": "145 Saxer Ave, Springfield, PA 19064", "locale": "en_CA"}, {"street1": null, "street2": null, "fullAddress": "145 Saxer Ave, Springfield, PA 19064", "locale": "no"}, {"street1": null, "street2": null, "fullAddress": "145 Saxer Ave, Springfield, PA 19064", "locale": "pl"}, {"street1": null, "street2": null, "fullAddress": "145 Saxer Ave, Springfield, PA 19064", "locale": "nl_BE"}, {"street1": null, "street2": null, "fullAddress": "145 Saxer Ave, Springfield, PA", "locale": "zh_CN"}, {"street1": null, "street2": null, "fullAddress": "145 Saxer Ave, Springfield, PA 19064", "locale": "es_CO"}, {"street1": null, "street2": null, "fullAddress": "145 Saxer Ave, Springfield, PA 19064", "locale": "fr"}, {"street1": null, "street2": null, "fullAddress": "145 Saxer Ave, \u30b9\u30d7\u30ea\u30f3\u30b0\u30d5\u30a3\u30fc\u30eb\u30c9, PA", "locale": "ja"}, {"street1": null, "street2": null, "fullAddress": "145 Saxer Ave, \u202bSpringfield\u202c, PA 19064", "locale": "iw"}, {"street1": null, "street2": null, "fullAddress": "145 Saxer Ave, Springfield, PA 19064", "locale": "de"}, {"street1": null, "street2": null, "fullAddress": "145 Saxer Ave, Springfield, PA 19064", "locale": "en_IN"}, {"street1": null, "street2": null, "fullAddress": "145 Saxer Ave, Springfield, PA", "locale": "zh"}, {"street1": null, "street2": null, "fullAddress": "145 Saxer Ave, Springfield, PA 19064", "locale": "es_PE"}, {"street1": null, "street2": null, "fullAddress": "145 Saxer Ave, Springfield, PA 19064", "locale": "en_PH"}], "parents": [{"placeType": "CITY", "locationId": 53743, "name": "Springfield"}, {"placeType": "COUNTY", "locationId": 1021815, "name": "Bucks County"}, {"placeType": "STATE", "locationId": 28959, "name": "Pennsylvania:"}, {"placeType": "COUNTRY", "locationId": 191, "name": "Hoa K\u1ef3"}, {"placeType": "CONTINENT", "locationId": 19, "name": "B\u0103\u0301c My\u0303"}, {"placeType": null, "locationId": 1, "name": "Th\u00ea\u0301 gi\u01a1\u0301i"}], "thumbnail": {"title": "Loved the harvest salad with its delicious dressing, but the goat cheese was lacking.", "photoSizes": [{"height": 0, "isHorizontal": true, "width": 0, "url": "https://dynamic-media-cdn.tripadvisor.com/media/photo-o/27/2c/9d/41/loved-the-harvest-salad.jpg?w=100&h=100&s=1"}, {"height": 50, "isHorizontal": true, "width": 50, "url": "https://media-cdn.tripadvisor.com/media/photo-t/27/2c/9d/41/loved-the-harvest-salad.jpg"}, {"height": 150, "isHorizontal": true, "width": 150, "url": "https://media-cdn.tripadvisor.com/media/photo-l/27/2c/9d/41/loved-the-harvest-salad.jpg"}, {"height": 200, "isHorizontal": false, "width": 180, "url": "https://media-cdn.tripadvisor.com/media/photo-i/27/2c/9d/41/loved-the-harvest-salad.jpg"}, {"height": 205, "isHorizontal": true, "width": 247, "url": "https://media-cdn.tripadvisor.com/media/photo-f/27/2c/9d/41/loved-the-harvest-salad.jpg"}, {"height": 450, "isHorizontal": true, "width": 543, "url": "https://media-cdn.tripadvisor.com/media/photo-s/27/2c/9d/41/loved-the-harvest-salad.jpg"}, {"height": 582, "isHorizontal": true, "width": 702, "url": "https://media-cdn.tripadvisor.com/media/photo-o/27/2c/9d/41/loved-the-harvest-salad.jpg"}]}}]}}]