[{"data": {"restaurantPrice": [], "accommodationType": [], "restaurantStyles": [{"tag": {"categoryId": 235, "tagId": 16550, "tagName": "Hidden Gems - Restaurant Styles", "tagNameLocalized": "Vi\u00ean ngo\u0323c \u00e2\u0309n", "translationKey": "tags_category_tag_hidden_gems_restaurant_styles"}}, {"tag": {"categoryId": 235, "tagId": 12504, "tagName": "Hot New Restaurants", "tagNameLocalized": "Nh\u00e0 h\u00e0ng m\u1edbi n\u1ed5i b\u1eadt", "translationKey": "tags_category_tag_hot_new_restaurants"}}, {"tag": {"categoryId": 235, "tagId": 10614, "tagName": "Romantic", "tagNameLocalized": "La\u0303ng ma\u0323n", "translationKey": "tags_category_tag_romantic_restaurant_styles"}}, {"tag": {"categoryId": 235, "tagId": 10605, "tagName": "Doing business", "tagNameLocalized": "H\u1ecdp c\u00f4ng vi\u1ec7c", "translationKey": "business_meetings"}}, {"tag": {"categoryId": 235, "tagId": 10608, "tagName": "Bar scene", "tagNameLocalized": "Quang ca\u0309nh qu\u00e2\u0300y bar", "translationKey": "tags_category_tag_bar_scene"}}, {"tag": {"categoryId": 235, "tagId": 10609, "tagName": "Large groups", "tagNameLocalized": "Nho\u0301m l\u01a1\u0301n", "translationKey": "tags_category_tag_large_groups"}}], "restaurantTypes": [{"tag": {"categoryId": 230, "tagId": 10591, "tagName": "Restaurants", "tagNameLocalized": "Nha\u0300 ha\u0300ng", "translationKey": "tags_category_tag_restaurants"}}], "restaurantMealTypes": [{"tag": {"categoryId": 233, "tagId": 10599, "tagName": "Dinner", "tagNameLocalized": "B\u01b0\u0303a t\u00f4\u0301i", "translationKey": "tags_category_tag_dinner"}}], "restaurantDiningOptions": [{"tag": {"categoryId": 234, "tagId": 21379, "tagName": "Non-smoking restaurants", "tagNameLocalized": "Nh\u00e0 h\u00e0ng kh\u00f4ng h\u00fat thu\u1ed1c", "translationKey": "tags_category_tag_non_smoking_restaurants"}}, {"tag": {"categoryId": 234, "tagId": 11780, "tagName": "Accepts Credit Cards", "tagNameLocalized": "Ch\u1ea5p nh\u1eadn th\u1ebb t\u00edn d\u1ee5ng", "translationKey": "tags_category_tag_accepts_credit_cards"}}, {"tag": {"categoryId": 234, "tagId": 20996, "tagName": "Dog Friendly", "tagNameLocalized": "Cho ph\u00e9p ch\u00f3", "translationKey": "tags_category_tag_dog_friendly"}}, {"tag": {"categoryId": 234, "tagId": 10855, "tagName": "Street Parking", "tagNameLocalized": "B\u00e3i \u0111\u1ed7 xe \u0111\u01b0\u1eddng ph\u1ed1", "translationKey": "tags_category_tag_street_parking"}}, {"tag": {"categoryId": 234, "tagId": 10602, "tagName": "Reservations", "tagNameLocalized": "\u0110\u0103\u0323t ch\u00f4\u0303", "translationKey": "tags_category_tag_reservations"}}, {"tag": {"categoryId": 234, "tagId": 10866, "tagName": "Accepts Mastercard", "tagNameLocalized": "Ch\u1ea5p nh\u1eadn th\u1ebb Mastercard", "translationKey": "tags_category_tag_accepts_mastercard"}}, {"tag": {"categoryId": 234, "tagId": 10854, "tagName": "Parking Available", "tagNameLocalized": "C\u00f3 b\u00e3i \u0111\u1ed7 xe", "translationKey": "tags_category_tag_parking_available"}}, {"tag": {"categoryId": 234, "tagId": 10865, "tagName": "Accepts American Express", "tagNameLocalized": "Ch\u1ea5p nh\u1eadn th\u1ebb American Express", "translationKey": "tags_category_tag_accepts_american_express"}}, {"tag": {"categoryId": 234, "tagId": 10868, "tagName": "Digital Payments", "tagNameLocalized": "Thanh to\u00e1n \u0111i\u1ec7n t\u1eed", "translationKey": "tags_category_tag_digital_payments"}}, {"tag": {"categoryId": 234, "tagId": 10702, "tagName": "Private Dining", "tagNameLocalized": "\u0102n t\u1ed1i ph\u00f2ng ri\u00eang", "translationKey": "tags_category_tag_private_dining"}}, {"tag": {"categoryId": 234, "tagId": 10603, "tagName": "Outdoor Seating", "tagNameLocalized": "Ng\u00f4\u0300i ngoa\u0300i tr\u01a1\u0300i", "translationKey": "tags_category_tag_outdoor_seating"}}, {"tag": {"categoryId": 234, "tagId": 10867, "tagName": "Accepts Visa", "tagNameLocalized": "Ch\u1ea5p nh\u1eadn th\u1ebb Visa", "translationKey": "tags_category_tag_accepts_visa"}}, {"tag": {"categoryId": 234, "tagId": 10858, "tagName": "Free Off-Street Parking", "tagNameLocalized": "B\u00e3i \u0111\u1ed7 xe t\u1eadp trung mi\u1ec5n ph\u00ed", "translationKey": "tags_category_tag_free_off_street_parking"}}, {"tag": {"categoryId": 234, "tagId": 21907, "tagName": "Gift Cards Available", "tagNameLocalized": "C\u00f3 th\u1ebb qu\u00e0 t\u1eb7ng", "translationKey": "tags_category_tag_gift_cards_available"}}, {"tag": {"categoryId": 234, "tagId": 16547, "tagName": "Table Service", "tagNameLocalized": "D\u1ecbch v\u1ee5 b\u00e0n", "translationKey": "tags_category_tag_table_service"}}, {"tag": {"categoryId": 234, "tagId": 10871, "tagName": "Accepts Discover", "tagNameLocalized": "Ch\u1ea5p nh\u1eadn th\u1ebb Discover", "translationKey": "tags_category_tag_accepts_discover"}}, {"tag": {"categoryId": 234, "tagId": 10860, "tagName": "Highchairs Available", "tagNameLocalized": "C\u00f3 gh\u1ebf \u0103n cho b\u00e9", "translationKey": "tags_category_tag_highchairs_available"}}, {"tag": {"categoryId": 234, "tagId": 10870, "tagName": "Free Wifi", "tagNameLocalized": "Wifi mi\u1ec5n ph\u00ed", "translationKey": "tags_category_tag_free_wifi_restaurant_dining_options"}}, {"tag": {"categoryId": 234, "tagId": 10862, "tagName": "Serves Alcohol", "tagNameLocalized": "Ph\u1ee5c v\u1ee5 \u0111\u1ed3 u\u1ed1ng c\u00f3 c\u1ed3n", "translationKey": "tags_category_tag_serves_alcohol"}}, {"tag": {"categoryId": 234, "tagId": 10861, "tagName": "Wheelchair Accessible", "tagNameLocalized": "L\u1ed1i v\u00e0o ra cho xe l\u0103n", "translationKey": "tags_category_tag_wheelchair_accessible"}}, {"tag": {"categoryId": 234, "tagId": 10864, "tagName": "Wine and Beer", "tagNameLocalized": "R\u01b0\u1ee3u v\u00e0 bia", "translationKey": "tags_category_tag_wine_and_beer"}}, {"tag": {"categoryId": 234, "tagId": 10852, "tagName": "Seating", "tagNameLocalized": "Ch\u1ed7 ng\u1ed3i", "translationKey": "tags_category_tag_seating"}}, {"tag": {"categoryId": 234, "tagId": 10863, "tagName": "Full Bar", "tagNameLocalized": "Qu\u00e2\u0300y bar \u0111\u00e2\u0300y \u0111u\u0309", "translationKey": "tags_category_tag_full_bar"}}], "restaurantCuisines": [{"tag": {"categoryId": 231, "tagId": 9908, "tagName": "American", "tagNameLocalized": "Ki\u1ec3u My\u0303", "translationKey": "tags_category_tag_american"}}, {"tag": {"categoryId": 231, "tagId": 21353, "tagName": "Dining bars", "tagNameLocalized": "Qu\u00e1n bar ph\u1ee5c v\u1ee5 \u0111\u1ed3 \u0103n", "translationKey": "tags_category_tag_dining_bars"}}, {"tag": {"categoryId": 231, "tagId": 10682, "tagName": "Wine Bar", "tagNameLocalized": "Qu\u00e2\u0300y r\u01b0\u01a1\u0323u vang", "translationKey": "tags_category_tag_wine_bar"}}, {"tag": {"categoryId": 231, "tagId": 10670, "tagName": "Pub", "tagNameLocalized": "Qua\u0301n r\u01b0\u01a1\u0323u", "translationKey": "tags_category_tag_pub"}}, {"tag": {"categoryId": 231, "tagId": 10683, "tagName": "Gastropub", "tagNameLocalized": "Qua\u0301n r\u01b0\u01a1\u0323u \u0111\u0103\u0323c sa\u0309n", "translationKey": "tags_category_tag_gastropub"}}, {"tag": {"categoryId": 231, "tagId": 10642, "tagName": "Cafe", "tagNameLocalized": "C\u00e0 ph\u00ea", "translationKey": "tags_category_tag_cafe"}}], "locations": [{"accommodationType": "T_UNKNOWN", "countryId": 191, "hoursOfOperation": {"dailyTimeIntervals": [{"day": "MONDAY", "timeIntervals": []}, {"day": "TUESDAY", "timeIntervals": [{"openingTime": {"hours": 17, "minutes": 0}, "closingTime": {"hours": 21, "minutes": 0}}]}, {"day": "WEDNESDAY", "timeIntervals": [{"openingTime": {"hours": 17, "minutes": 0}, "closingTime": {"hours": 21, "minutes": 0}}]}, {"day": "THURSDAY", "timeIntervals": [{"openingTime": {"hours": 17, "minutes": 0}, "closingTime": {"hours": 21, "minutes": 0}}]}, {"day": "FRIDAY", "timeIntervals": [{"openingTime": {"hours": 17, "minutes": 0}, "closingTime": {"hours": 21, "minutes": 0}}]}, {"day": "SATURDAY", "timeIntervals": [{"openingTime": {"hours": 17, "minutes": 0}, "closingTime": {"hours": 21, "minutes": 0}}]}, {"day": "SUNDAY", "timeIntervals": []}]}, "isClosed": false, "isOwner": false, "latitude": 39.901924, "localizedDescriptions": [], "localizedNames": [], "locationId": 24074817, "locationV2": {"attractionTypes": []}, "longitude": -75.35007, "parentId": 53792, "placeType": "EATERY", "thumbnail": null, "absoluteOwnerManagementUrl": "https://www.tripadvisor.com.vn/RSManagementCenter-d24074817-Village_Vine_Wine_Bar_Bistro?cat=0&geo=53792", "email": "reservations@villagevineswarthmore.com", "geoName": "Swarthmore", "isoCountryCode": "US", "localizedName": "Village Vine Wine Bar + Bistro", "name": "Village Vine Wine Bar + Bistro", "locationDescription": null, "officialUrl": "http://www.villagevineswarthmore.com", "postPhotosUrl": "/PostPhotos-d24074817", "telephone": "+1 484-471-3997", "url": "/Restaurant_Review-g53792-d24074817-Reviews-Village_Vine_Wine_Bar_Bistro-Swarthmore_Pennsylvania.html", "writeUserReviewUrl": "/UserReview-g53792-d24074817-Village_Vine_Wine_Bar_Bistro-Swarthmore_Pennsylvania.html", "localizedStreetAddress": {"city": "Swarthmore", "country": "Hoa K\u1ef3", "fullAddress": "6 Park Ave, Swarthmore, PA 19081-1723", "postalCode": "19081-1723", "state": "Pennsylvania:", "street1": "6 Park Ave", "street2": ""}, "streetAddress": {"street1": "6 Park Ave", "street2": "", "state": "Pennsylvania:", "city": "Swarthmore", "postalCode": "19081-1723", "fullAddress": "6 Park Ave, Swarthmore, PA 19081-1723"}, "localizedStreetAddresses": [{"street1": null, "street2": null, "fullAddress": "6 Park Ave, Swarthmore, PA 19081-1723", "locale": "es_MX"}, {"street1": null, "street2": null, "fullAddress": "6 Park Ave, Swarthmore, PA 19081-1723", "locale": "fr_BE"}, {"street1": null, "street2": null, "fullAddress": "6 Park Ave, Swarthmore, PA 19081-1723", "locale": "es_VE"}, {"street1": null, "street2": null, "fullAddress": "6 Park Ave, Swarthmore, PA", "locale": "zh_HK"}, {"street1": null, "street2": null, "fullAddress": "6 Park Ave, Swarthmore, PA", "locale": "zh_TW"}, {"street1": null, "street2": null, "fullAddress": "6 Park Ave, Swarthmore, PA 19081-1723", "locale": "it"}, {"street1": null, "street2": null, "fullAddress": "6 Park Ave, \uc2a4\ud2b8\ub77c\uc2a4\ubaa8\uc5b4, PA", "locale": "ko"}, {"street1": null, "street2": null, "fullAddress": "6 Park Ave, Swarthmore, PA 19081-1723", "locale": "es_CL"}, {"street1": null, "street2": null, "fullAddress": "6 Park Ave, Swarthmore, PA 19081-1723", "locale": "fi"}, {"street1": null, "street2": null, "fullAddress": "6 Park Ave, Swarthmore, PA 19081-1723", "locale": "pt_PT"}, {"street1": null, "street2": null, "fullAddress": "6 Park Ave, Swarthmore, PA 19081-1723", "locale": "en_US"}, {"street1": null, "street2": null, "fullAddress": "6 Park Ave, Swarthmore, PA 19081-1723", "locale": "th"}, {"street1": null, "street2": null, "fullAddress": "6 Park Ave, Swarthmore, PA 19081-1723", "locale": "en_SG"}, {"street1": null, "street2": null, "fullAddress": "6 Park Ave, Swarthmore, PA 19081-1723", "locale": "pt"}, {"street1": null, "street2": null, "fullAddress": "6 Park Ave, Swarthmore, PA 19081-1723", "locale": "en_UK"}, {"street1": null, "street2": null, "fullAddress": "6 Park Ave, \u202bSwarthmore\u202c, \u0628\u0646\u0633\u064a\u0644\u0641\u0627\u0646\u064a\u0627 19081-1723", "locale": "ar"}, {"street1": null, "street2": null, "fullAddress": "6 Park Ave, Swarthmore, PA 19081-1723", "locale": "ru"}, {"street1": null, "street2": null, "fullAddress": "6 Park Ave, Swarthmore, PA 19081-1723", "locale": "en_NZ"}, {"street1": null, "street2": null, "fullAddress": "6 Park Ave, Swarthmore, PA 19081-1723", "locale": "de_CH"}, {"street1": null, "street2": null, "fullAddress": "6 Park Ave, Swarthmore, PA 19081-1723", "locale": "sk"}, {"street1": null, "street2": null, "fullAddress": "6 Park Ave, Swarthmore, PA 19081-1723", "locale": "en_ZA"}, {"street1": null, "street2": null, "fullAddress": "6 Park Ave, Swarthmore, PA 19081-1723", "locale": "cs"}, {"street1": null, "street2": null, "fullAddress": "6 Park Ave, Swarthmore, PA 19081-1723", "locale": "sv"}, {"street1": null, "street2": null, "fullAddress": "6 Park Ave, Swarthmore, PA 19081-1723", "locale": "el"}, {"street1": null, "street2": null, "fullAddress": "6 Park Ave, Swarthmore, PA 19081-1723", "locale": "de_AT"}, {"street1": null, "street2": null, "fullAddress": "6 Park Ave, Swarthmore, PA 19081-1723", "locale": "nl"}, {"street1": null, "street2": null, "fullAddress": "6 Park Ave, Swarthmore, PA 19081-1723", "locale": "hu"}, {"street1": null, "street2": null, "fullAddress": "6 Park Ave, Swarthmore, PA 19081-1723", "locale": "fr_CH"}, {"street1": null, "street2": null, "fullAddress": "6 Park Ave, Swarthmore, PA 19081-1723", "locale": "en_AU"}, {"street1": null, "street2": null, "fullAddress": "6 Park Ave, Swarthmore, PA 19081-1723", "locale": "in"}, {"street1": null, "street2": null, "fullAddress": "6 Park Ave, Swarthmore, PA 19081-1723", "locale": "vi"}, {"street1": null, "street2": null, "fullAddress": "6 Park Ave, Swarthmore, PA 19081-1723", "locale": "fr_CA"}, {"street1": null, "street2": null, "fullAddress": "6 Park Ave, Swarthmore, PA 19081-1723", "locale": "es_AR"}, {"street1": null, "street2": null, "fullAddress": "6 Park Ave, \u202bSwarthmore\u202c, \u0628\u0646\u0633\u064a\u0644\u0641\u0627\u0646\u064a\u0627 19081-1723", "locale": "ar_EG"}, {"street1": null, "street2": null, "fullAddress": "6 Park Ave, Swarthmore, PA 19081-1723", "locale": "en_MY"}, {"street1": null, "street2": null, "fullAddress": "6 Park Ave, Swarthmore, PA 19081-1723", "locale": "sr"}, {"street1": null, "street2": null, "fullAddress": "6 Park Ave, Swarthmore, PA 19081-1723", "locale": "it_CH"}, {"street1": null, "street2": null, "fullAddress": "6 Park Ave, Swarthmore, PA 19081-1723", "locale": "da"}, {"street1": null, "street2": null, "fullAddress": "6 Park Ave, Swarthmore, PA 19081-1723", "locale": "es"}, {"street1": null, "street2": null, "fullAddress": "6 Park Ave, Swarthmore, PA 19081-1723", "locale": "tr"}, {"street1": null, "street2": null, "fullAddress": "6 Park Ave, Swarthmore, PA 19081-1723", "locale": "en_HK"}, {"street1": null, "street2": null, "fullAddress": "6 Park Ave, Swarthmore, PA 19081-1723", "locale": "en_IE"}, {"street1": null, "street2": null, "fullAddress": "6 Park Ave, Swarthmore, PA 19081-1723", "locale": "en_CA"}, {"street1": null, "street2": null, "fullAddress": "6 Park Ave, Swarthmore, PA 19081-1723", "locale": "no"}, {"street1": null, "street2": null, "fullAddress": "6 Park Ave, Swarthmore, PA 19081-1723", "locale": "nl_BE"}, {"street1": null, "street2": null, "fullAddress": "6 Park Ave, Swarthmore, PA 19081-1723", "locale": "pl"}, {"street1": null, "street2": null, "fullAddress": "6 Park Ave, Swarthmore, PA", "locale": "zh_CN"}, {"street1": null, "street2": null, "fullAddress": "6 Park Ave, Swarthmore, PA 19081-1723", "locale": "es_CO"}, {"street1": null, "street2": null, "fullAddress": "6 Park Ave, Swarthmore, PA 19081-1723", "locale": "fr"}, {"street1": null, "street2": null, "fullAddress": "6 Park Ave, \u30b9\u30ef\u30fc\u30b9\u30e2\u30a2, PA", "locale": "ja"}, {"street1": null, "street2": null, "fullAddress": "6 Park Ave, \u202bSwarthmore\u202c, PA 19081-1723", "locale": "iw"}, {"street1": null, "street2": null, "fullAddress": "6 Park Ave, Swarthmore, PA 19081-1723", "locale": "de"}, {"street1": null, "street2": null, "fullAddress": "6 Park Ave, Swarthmore, PA 19081-1723", "locale": "en_IN"}, {"street1": null, "street2": null, "fullAddress": "6 Park Ave, Swarthmore, PA", "locale": "zh"}, {"street1": null, "street2": null, "fullAddress": "6 Park Ave, Swarthmore, PA 19081-1723", "locale": "es_PE"}, {"street1": null, "street2": null, "fullAddress": "6 Park Ave, Swarthmore, PA 19081-1723", "locale": "en_PH"}], "parents": [{"placeType": "CITY", "locationId": 53792, "name": "Swarthmore"}, {"placeType": "STATE", "locationId": 28959, "name": "Pennsylvania:"}, {"placeType": "COUNTRY", "locationId": 191, "name": "Hoa K\u1ef3"}, {"placeType": "CONTINENT", "locationId": 19, "name": "B\u0103\u0301c My\u0303"}, {"placeType": null, "locationId": 1, "name": "Th\u00ea\u0301 gi\u01a1\u0301i"}]}]}}]