[{"data": {"accommodationType": [], "restaurantStyles": [{"tag": {"categoryId": 235, "tagId": 16550, "tagName": "Hidden Gems - Restaurant Styles", "tagNameLocalized": "Vi\u00ean ngo\u0323c \u00e2\u0309n", "translationKey": "tags_category_tag_hidden_gems_restaurant_styles"}}, {"tag": {"categoryId": 235, "tagId": 12504, "tagName": "Hot New Restaurants", "tagNameLocalized": "Nh\u00e0 h\u00e0ng m\u1edbi n\u1ed5i b\u1eadt", "translationKey": "tags_category_tag_hot_new_restaurants"}}], "restaurantTypes": [{"tag": {"categoryId": 230, "tagId": 10591, "tagName": "Restaurants", "tagNameLocalized": "Nha\u0300 ha\u0300ng", "translationKey": "tags_category_tag_restaurants"}}], "restaurantMealTypes": [{"tag": {"categoryId": 233, "tagId": 10599, "tagName": "Dinner", "tagNameLocalized": "B\u01b0\u0303a t\u00f4\u0301i", "translationKey": "tags_category_tag_dinner"}}], "restaurantDiningOptions": [{"tag": {"categoryId": 234, "tagId": 21907, "tagName": "Gift Cards Available", "tagNameLocalized": "C\u00f3 th\u1ebb qu\u00e0 t\u1eb7ng", "translationKey": "tags_category_tag_gift_cards_available"}}], "restaurantPrice": [{"tag": {"categoryId": 240, "tagId": 10955, "tagName": "Mid Range", "tagNameLocalized": "H\u1ea1ng trung", "translationKey": "tags_category_tag_mid_range"}}], "restaurantCuisines": [{"tag": {"categoryId": 231, "tagId": 10648, "tagName": "International", "tagNameLocalized": "Qu\u00f4\u0301c t\u00ea\u0301", "translationKey": "tags_category_tag_international"}}, {"tag": {"categoryId": 231, "tagId": 9908, "tagName": "American", "tagNameLocalized": "Ki\u1ec3u My\u0303", "translationKey": "tags_category_tag_american"}}], "locations": [{"accommodationType": "T_UNKNOWN", "countryId": 191, "hoursOfOperation": {"dailyTimeIntervals": [{"day": "MONDAY", "timeIntervals": [{"openingTime": {"hours": 17, "minutes": 0}, "closingTime": {"hours": 21, "minutes": 0}}]}, {"day": "TUESDAY", "timeIntervals": []}, {"day": "WEDNESDAY", "timeIntervals": []}, {"day": "THURSDAY", "timeIntervals": [{"openingTime": {"hours": 17, "minutes": 0}, "closingTime": {"hours": 21, "minutes": 0}}]}, {"day": "FRIDAY", "timeIntervals": [{"openingTime": {"hours": 17, "minutes": 0}, "closingTime": {"hours": 21, "minutes": 0}}]}, {"day": "SATURDAY", "timeIntervals": [{"openingTime": {"hours": 17, "minutes": 0}, "closingTime": {"hours": 21, "minutes": 0}}]}, {"day": "SUNDAY", "timeIntervals": [{"openingTime": {"hours": 17, "minutes": 0}, "closingTime": {"hours": 21, "minutes": 0}}]}]}, "isClosed": false, "isOwner": false, "latitude": 38.54773, "localizedDescriptions": [], "localizedNames": [], "locationId": 24550599, "locationV2": {"attractionTypes": []}, "longitude": -75.11351, "parentId": 1900178, "placeType": "EATERY", "absoluteOwnerManagementUrl": "https://www.tripadvisor.com.vn/RSManagementCenter-d24550599-Melissa_s_Dinner_Lounge?cat=0&geo=1900178", "email": null, "geoName": "Millville", "isoCountryCode": "US", "localizedName": "Melissa's Dinner & Lounge", "name": "Melissa's Dinner & Lounge", "locationDescription": null, "officialUrl": "http://www.melissasdinnerandlounge.com", "postPhotosUrl": "/PostPhotos-d24550599", "telephone": "+1 302-616-1795", "url": "/Restaurant_Review-g1900178-d24550599-Reviews-Melissa_s_Dinner_Lounge-Millville_Delaware.html", "writeUserReviewUrl": "/UserReview-g1900178-d24550599-Melissa_s_Dinner_Lounge-Millville_Delaware.html", "localizedStreetAddress": {"city": "Millville", "country": "Hoa K\u1ef3", "fullAddress": "35507 Atlantic Ave, Millville, DE 19967-6990", "postalCode": "19967-6990", "state": "Delaware", "street1": "35507 Atlantic Ave", "street2": ""}, "streetAddress": {"street1": "35507 Atlantic Ave", "street2": "", "state": "Delaware", "city": "Millville", "postalCode": "19967-6990", "fullAddress": "35507 Atlantic Ave, Millville, DE 19967-6990"}, "localizedStreetAddresses": [{"street1": null, "street2": null, "fullAddress": "35507 Atlantic Ave, Millville, DE 19967-6990", "locale": "es_MX"}, {"street1": null, "street2": null, "fullAddress": "35507 Atlantic Ave, Millville, DE 19967-6990", "locale": "fr_BE"}, {"street1": null, "street2": null, "fullAddress": "35507 Atlantic Ave, Millville, DE 19967-6990", "locale": "es_VE"}, {"street1": null, "street2": null, "fullAddress": "35507 Atlantic Ave, Millville, DE", "locale": "zh_HK"}, {"street1": null, "street2": null, "fullAddress": "35507 Atlantic Ave, Millville, DE", "locale": "zh_TW"}, {"street1": null, "street2": null, "fullAddress": "35507 Atlantic Ave, Millville, DE 19967-6990", "locale": "it"}, {"street1": null, "street2": null, "fullAddress": "35507 Atlantic Ave, Millville, DE", "locale": "ko"}, {"street1": null, "street2": null, "fullAddress": "35507 Atlantic Ave, Millville, DE 19967-6990", "locale": "es_CL"}, {"street1": null, "street2": null, "fullAddress": "35507 Atlantic Ave, Millville, DE 19967-6990", "locale": "fi"}, {"street1": null, "street2": null, "fullAddress": "35507 Atlantic Ave, Millville, DE 19967-6990", "locale": "pt_PT"}, {"street1": null, "street2": null, "fullAddress": "35507 Atlantic Ave, Millville, DE 19967-6990", "locale": "en_US"}, {"street1": null, "street2": null, "fullAddress": "35507 Atlantic Ave, Millville, DE 19967-6990", "locale": "th"}, {"street1": null, "street2": null, "fullAddress": "35507 Atlantic Ave, Millville, DE 19967-6990", "locale": "en_SG"}, {"street1": null, "street2": null, "fullAddress": "35507 Atlantic Ave, Millville, DE 19967-6990", "locale": "en_UK"}, {"street1": null, "street2": null, "fullAddress": "35507 Atlantic Ave, Millville, DE 19967-6990", "locale": "pt"}, {"street1": null, "street2": null, "fullAddress": "35507 Atlantic Ave, \u202bMillville\u202c, \u202bDelaware\u202c 19967-6990", "locale": "ar"}, {"street1": null, "street2": null, "fullAddress": "35507 Atlantic Ave, Millville, DE 19967-6990", "locale": "ru"}, {"street1": null, "street2": null, "fullAddress": "35507 Atlantic Ave, Millville, DE 19967-6990", "locale": "en_NZ"}, {"street1": null, "street2": null, "fullAddress": "35507 Atlantic Ave, Millville, DE 19967-6990", "locale": "de_CH"}, {"street1": null, "street2": null, "fullAddress": "35507 Atlantic Ave, Millville, DE 19967-6990", "locale": "sk"}, {"street1": null, "street2": null, "fullAddress": "35507 Atlantic Ave, Millville, DE 19967-6990", "locale": "en_ZA"}, {"street1": null, "street2": null, "fullAddress": "35507 Atlantic Ave, Millville, DE 19967-6990", "locale": "sv"}, {"street1": null, "street2": null, "fullAddress": "35507 Atlantic Ave, Millville, DE 19967-6990", "locale": "cs"}, {"street1": null, "street2": null, "fullAddress": "35507 Atlantic Ave, Millville, DE 19967-6990", "locale": "el"}, {"street1": null, "street2": null, "fullAddress": "35507 Atlantic Ave, Millville, DE 19967-6990", "locale": "de_AT"}, {"street1": null, "street2": null, "fullAddress": "35507 Atlantic Ave, Millville, DE 19967-6990", "locale": "nl"}, {"street1": null, "street2": null, "fullAddress": "35507 Atlantic Ave, Millville, DE 19967-6990", "locale": "hu"}, {"street1": null, "street2": null, "fullAddress": "35507 Atlantic Ave, Millville, DE 19967-6990", "locale": "fr_CH"}, {"street1": null, "street2": null, "fullAddress": "35507 Atlantic Ave, Millville, DE 19967-6990", "locale": "en_AU"}, {"street1": null, "street2": null, "fullAddress": "35507 Atlantic Ave, Millville, DE 19967-6990", "locale": "in"}, {"street1": null, "street2": null, "fullAddress": "35507 Atlantic Ave, Millville, DE 19967-6990", "locale": "vi"}, {"street1": null, "street2": null, "fullAddress": "35507 Atlantic Ave, Millville, DE 19967-6990", "locale": "fr_CA"}, {"street1": null, "street2": null, "fullAddress": "35507 Atlantic Ave, Millville, DE 19967-6990", "locale": "es_AR"}, {"street1": null, "street2": null, "fullAddress": "35507 Atlantic Ave, \u202bMillville\u202c, \u202bDelaware\u202c 19967-6990", "locale": "ar_EG"}, {"street1": null, "street2": null, "fullAddress": "35507 Atlantic Ave, Millville, DE 19967-6990", "locale": "en_MY"}, {"street1": null, "street2": null, "fullAddress": "35507 Atlantic Ave, Millville, DE 19967-6990", "locale": "sr"}, {"street1": null, "street2": null, "fullAddress": "35507 Atlantic Ave, Millville, DE 19967-6990", "locale": "it_CH"}, {"street1": null, "street2": null, "fullAddress": "35507 Atlantic Ave, Millville, DE 19967-6990", "locale": "da"}, {"street1": null, "street2": null, "fullAddress": "35507 Atlantic Ave, Millville, DE 19967-6990", "locale": "es"}, {"street1": null, "street2": null, "fullAddress": "35507 Atlantic Ave, Millville, DE 19967-6990", "locale": "tr"}, {"street1": null, "street2": null, "fullAddress": "35507 Atlantic Ave, Millville, DE 19967-6990", "locale": "en_HK"}, {"street1": null, "street2": null, "fullAddress": "35507 Atlantic Ave, Millville, DE 19967-6990", "locale": "en_IE"}, {"street1": null, "street2": null, "fullAddress": "35507 Atlantic Ave, Millville, DE 19967-6990", "locale": "en_CA"}, {"street1": null, "street2": null, "fullAddress": "35507 Atlantic Ave, Millville, DE 19967-6990", "locale": "no"}, {"street1": null, "street2": null, "fullAddress": "35507 Atlantic Ave, Millville, DE 19967-6990", "locale": "pl"}, {"street1": null, "street2": null, "fullAddress": "35507 Atlantic Ave, Millville, DE 19967-6990", "locale": "nl_BE"}, {"street1": null, "street2": null, "fullAddress": "35507 Atlantic Ave, Millville, DE", "locale": "zh_CN"}, {"street1": null, "street2": null, "fullAddress": "35507 Atlantic Ave, Millville, DE 19967-6990", "locale": "es_CO"}, {"street1": null, "street2": null, "fullAddress": "35507 Atlantic Ave, Millville, DE 19967-6990", "locale": "fr"}, {"street1": null, "street2": null, "fullAddress": "35507 Atlantic Ave, \u30df\u30eb\u30d3\u30eb, DE", "locale": "ja"}, {"street1": null, "street2": null, "fullAddress": "35507 Atlantic Ave, \u202bMillville\u202c, DE 19967-6990", "locale": "iw"}, {"street1": null, "street2": null, "fullAddress": "35507 Atlantic Ave, Millville, DE 19967-6990", "locale": "de"}, {"street1": null, "street2": null, "fullAddress": "35507 Atlantic Ave, Millville, DE 19967-6990", "locale": "en_IN"}, {"street1": null, "street2": null, "fullAddress": "35507 Atlantic Ave, Millville, DE", "locale": "zh"}, {"street1": null, "street2": null, "fullAddress": "35507 Atlantic Ave, Millville, DE 19967-6990", "locale": "es_PE"}, {"street1": null, "street2": null, "fullAddress": "35507 Atlantic Ave, Millville, DE 19967-6990", "locale": "en_PH"}], "parents": [{"placeType": "CITY", "locationId": 1900178, "name": "Millville"}, {"placeType": "STATE", "locationId": 28929, "name": "Delaware"}, {"placeType": "COUNTRY", "locationId": 191, "name": "Hoa K\u1ef3"}, {"placeType": "CONTINENT", "locationId": 19, "name": "B\u0103\u0301c My\u0303"}, {"placeType": null, "locationId": 1, "name": "Th\u00ea\u0301 gi\u01a1\u0301i"}], "thumbnail": {"title": null, "photoSizes": [{"height": 0, "isHorizontal": false, "width": 0, "url": "https://dynamic-media-cdn.tripadvisor.com/media/photo-o/26/c4/bd/05/cozy-dining-2.jpg?w=100&h=100&s=1"}, {"height": 50, "isHorizontal": true, "width": 50, "url": "https://media-cdn.tripadvisor.com/media/photo-t/26/c4/bd/05/cozy-dining-2.jpg"}, {"height": 150, "isHorizontal": true, "width": 150, "url": "https://media-cdn.tripadvisor.com/media/photo-l/26/c4/bd/05/cozy-dining-2.jpg"}, {"height": 205, "isHorizontal": false, "width": 154, "url": "https://media-cdn.tripadvisor.com/media/photo-f/26/c4/bd/05/cozy-dining-2.jpg"}, {"height": 200, "isHorizontal": false, "width": 180, "url": "https://media-cdn.tripadvisor.com/media/photo-i/26/c4/bd/05/cozy-dining-2.jpg"}, {"height": 450, "isHorizontal": false, "width": 338, "url": "https://media-cdn.tripadvisor.com/media/photo-s/26/c4/bd/05/cozy-dining-2.jpg"}, {"height": 733, "isHorizontal": false, "width": 550, "url": "https://media-cdn.tripadvisor.com/media/photo-p/26/c4/bd/05/cozy-dining-2.jpg"}, {"height": 800, "isHorizontal": false, "width": 600, "url": "https://media-cdn.tripadvisor.com/media/photo-o/26/c4/bd/05/cozy-dining-2.jpg"}]}}]}}]