[{"data": {"restaurantStyles": [], "restaurantTypes": [], "restaurantMealTypes": [], "restaurantDiningOptions": [], "restaurantPrice": [], "restaurantCuisines": [], "accommodationType": [{"tag": {"categoryId": 225, "tagId": 9672, "tagName": "Resort", "tagNameLocalized": "Khu nghi\u0309 d\u01b0\u01a1\u0303ng", "translationKey": "tags_category_tag_resort"}}], "locations": [{"accommodationType": "T_HOTEL", "countryId": 191, "hoursOfOperation": {"dailyTimeIntervals": [{"day": "MONDAY", "timeIntervals": [{"openingTime": {"hours": 0, "minutes": 0}, "closingTime": {"hours": 0, "minutes": 0}}]}, {"day": "TUESDAY", "timeIntervals": [{"openingTime": {"hours": 0, "minutes": 0}, "closingTime": {"hours": 0, "minutes": 0}}]}, {"day": "WEDNESDAY", "timeIntervals": [{"openingTime": {"hours": 0, "minutes": 0}, "closingTime": {"hours": 0, "minutes": 0}}]}, {"day": "THURSDAY", "timeIntervals": [{"openingTime": {"hours": 0, "minutes": 0}, "closingTime": {"hours": 0, "minutes": 0}}]}, {"day": "FRIDAY", "timeIntervals": [{"openingTime": {"hours": 0, "minutes": 0}, "closingTime": {"hours": 0, "minutes": 0}}]}, {"day": "SATURDAY", "timeIntervals": [{"openingTime": {"hours": 0, "minutes": 0}, "closingTime": {"hours": 0, "minutes": 0}}]}, {"day": "SUNDAY", "timeIntervals": [{"openingTime": {"hours": 0, "minutes": 0}, "closingTime": {"hours": 0, "minutes": 0}}]}]}, "isClosed": false, "isOwner": false, "latitude": 38.718044, "localizedDescriptions": [], "locationId": 252177, "locationV2": {"attractionTypes": []}, "longitude": -75.076645, "parentId": 34048, "placeType": "ACCOMMODATION", "absoluteOwnerManagementUrl": "https://www.tripadvisor.com.vn/HotelsManagementCenter-d252177-Atlantic_Sands_Hotel_Conference_Center?cat=0&geo=34048", "email": "Info@atlanticsandshotel.com", "geoName": "Ba\u0303i bi\u00ea\u0309n Rehoboth", "isoCountryCode": "US", "localizedName": "Atlantic Sands Hotel & Conference Center", "name": "Atlantic Sands Hotel & Conference Center", "locationDescription": "Atlantic Sands Hotel & Conference Center l\u00e0 m\u1ed9t l\u1ef1a ch\u1ecdn tuy\u1ec7t v\u1eddi cho kh\u00e1ch du l\u1ecbch khi \u0111\u1ebfn Ba\u0303i bi\u00ea\u0309n Rehoboth, cung c\u1ea5p kh\u00f4ng kh\u00ed d\u00e0nh cho gia \u0111\u00ecnh c\u00f9ng v\u1edbi nhi\u1ec1u ti\u1ec7n nghi h\u1eefu \u00edch cho k\u00ec ngh\u1ec9 c\u1ee7a b\u1ea1n.\nTrong khi \u1edf Atlantic Sands Hotel & Conference Center, du kh\u00e1ch c\u00f3 th\u1ec3 kh\u00e1m ph\u00e1 Verrazzano Monument (0,3 km) v\u00e0 The Wizard's Whisk (0,5 km), m\u1ed9t trong nh\u1eefng \u0111i\u1ec3m \u0111\u1ebfn h\u00e0ng \u0111\u1ea7u c\u1ee7a Ba\u0303i bi\u00ea\u0309n Rehoboth.\nWifi mi\u1ec5n ph\u00ed \u0111\u01b0\u1ee3c cung c\u1ea5p cho kh\u00e1ch, v\u00e0 c\u00e1c ph\u00f2ng t\u1ea1i Atlantic Sands Hotel c\u0169ng c\u00f3 tv m\u00e0n h\u00ecnh ph\u1eb3ng, t\u1ee7 l\u1ea1nh v\u00e0 \u0111i\u1ec1u h\u00f2a nhi\u1ec7t \u0111\u1ed9.\nKh\u00e1ch c\u1ee7a Atlantic Sands Hotel c\u0169ng th\u00edch th\u00fa v\u1edbi b\u1ec3 b\u01a1i v\u00e0 ph\u00f2ng kh\u00e1ch, ngay trong kh\u00e1ch s\u1ea1n. \u0110\u1ed1i v\u1edbi du kh\u00e1ch c\u00f3 xe c\u1ed9, \u0111\u1ed7 xe mi\u1ec5n ph\u00ed c\u00f3 s\u1eb5n.\nKhi \u0111\u1ebfn Ba\u0303i bi\u00ea\u0309n Rehoboth, b\u1ea1n c\u00f3 th\u1ec3 mu\u1ed1n th\u1eed h\u00e0u t\u1ea1i m\u1ed9t trong nh\u1eefng nh\u00e0 h\u00e0ng l\u00e2n c\u1eadn nh\u01b0 Fins Fish House & Raw Bar, Victoria's Restaurant ho\u1eb7c Purple Parrot Grill.\nTrong k\u1ef3 ngh\u1ec9 c\u1ee7a b\u1ea1n, nh\u1edb gh\u00e9 th\u0103m nh\u1eefng \u0111i\u1ec3m \u0111\u1ebfn y\u00eau th\u00edch nh\u01b0 Rehoboth Beach Boardwalk (0,1 km), n\u1eb1m trong v\u00f2ng \u0111i b\u1ed9 t\u1eeb kha\u0301ch sa\u0323n.\nH\u00e3y t\u1eadn h\u01b0\u1edfng k\u1ef3 ngh\u1ec9 c\u1ee7a b\u1ea1n \u1edf Ba\u0303i bi\u00ea\u0309n Rehoboth!\n", "officialUrl": "https://atlanticsandshotel.com/", "postPhotosUrl": "/PostPhotos-d252177", "telephone": "+1 302-227-2511", "url": "/Hotel_Review-g34048-d252177-Reviews-Atlantic_Sands_Hotel_Conference_Center-Rehoboth_Beach_Delaware.html", "writeUserReviewUrl": "/UserReview-g34048-d252177-Atlantic_Sands_Hotel_Conference_Center-Rehoboth_Beach_Delaware.html", "localizedStreetAddress": {"city": "Ba\u0303i bi\u00ea\u0309n Rehoboth", "country": "Hoa K\u1ef3", "fullAddress": "1 Baltimore Avenue 101 N Boardwalk, Ba\u0303i bi\u00ea\u0309n Rehoboth, DE 19971-2160", "postalCode": "19971-2160", "state": "Delaware", "street1": "1 Baltimore Avenue", "street2": "101 N Boardwalk"}, "streetAddress": {"street1": "1 Baltimore Avenue", "street2": "101 N Boardwalk", "state": "Delaware", "city": "Ba\u0303i bi\u00ea\u0309n Rehoboth", "postalCode": "19971-2160", "fullAddress": "1 Baltimore Avenue 101 N Boardwalk, Ba\u0303i bi\u00ea\u0309n Rehoboth, DE 19971-2160"}, "localizedNames": [{"locale": "zh_TW", "value": "\u4e9e\u7279\u862d\u5927\u6851\u8332\u9152\u5e97\u53ca\u6703\u8b70\u4e2d\u5fc3"}, {"locale": "ko", "value": "\uc560\ud2c0\ub79c\ud2f1 \uc0cc\uc988 \ud638\ud154 \ud6c4\uc544\ud78c \ucee8\ud37c\ub7f0\uc2a4 \uc13c\ud130"}, {"locale": "ar", "value": "\u0623\u062a\u0644\u0627\u0646\u062a\u064a\u0643 \u0633\u0627\u0646\u062f\u0632 \u0647\u0648\u062a\u0644 \u0622\u0646\u062f \u0643\u0648\u0646\u0641\u0631\u0627\u0646\u0633 \u0633\u0646\u062a\u0631"}, {"locale": "ru", "value": "\u0410\u0442\u043b\u0430\u043d\u0442\u0438\u043a \u0421\u0430\u043d\u0434\u0441 \u041e\u0442\u0435\u043b\u044c & \u041a\u043e\u043d\u0444\u0435\u0440\u0435\u043d\u0446-\u0426\u0435\u043d\u0442\u0440"}, {"locale": "zh_CN", "value": "\u4e9a\u7279\u5170\u5927\u6851\u5179\u9152\u5e97\u53ca\u4f1a\u8bae\u4e2d\u5fc3"}, {"locale": "ja", "value": "\u30a2\u30c8\u30e9\u30f3\u30c6\u30a3\u30c3\u30af \u30b5\u30f3\u30ba \u30db\u30c6\u30eb & \u30ab\u30f3\u30d5\u30a1\u30ec\u30f3\u30b9 \u30bb\u30f3\u30bf\u30fc"}, {"locale": "zh", "value": "\u4e9a\u7279\u5170\u5927\u6851\u5179\u9152\u5e97\u53ca\u4f1a\u8bae\u4e2d\u5fc3"}], "localizedStreetAddresses": [{"street1": null, "street2": null, "fullAddress": "1 Baltimore Avenue 101 N Boardwalk, Rehoboth Beach, DE 19971-2160", "locale": "fr_BE"}, {"street1": null, "street2": null, "fullAddress": "1 Baltimore Avenue 101 N Boardwalk, Rehoboth Beach, DE 19971-2160", "locale": "es_MX"}, {"street1": null, "street2": null, "fullAddress": "1 Baltimore Avenue 101 N Boardwalk, Rehoboth Beach, DE 19971-2160", "locale": "es_VE"}, {"street1": null, "street2": null, "fullAddress": "1 Baltimore Avenue 101 N Boardwalk, \u745e\u548c\u67cf\u65af\u6d77\u7058, DE", "locale": "zh_HK"}, {"street1": null, "street2": null, "fullAddress": "1 Baltimore Avenue 101 N Boardwalk, \u745e\u548c\u67cf\u65af\u6d77\u7058, DE", "locale": "zh_TW"}, {"street1": null, "street2": null, "fullAddress": "1 Baltimore Avenue 101 N Boardwalk, Rehoboth Beach, DE 19971-2160", "locale": "it"}, {"street1": null, "street2": null, "fullAddress": "1 Baltimore Avenue 101 N Boardwalk, \ub974\ud638\ubcf4\uc2a4 \ube44\uce58, DE", "locale": "ko"}, {"street1": null, "street2": null, "fullAddress": "1 Baltimore Avenue 101 N Boardwalk, Rehoboth Beach, DE 19971-2160", "locale": "es_CL"}, {"street1": null, "street2": null, "fullAddress": "1 Baltimore Avenue 101 N Boardwalk, Rehoboth Beach, DE 19971-2160", "locale": "fi"}, {"street1": null, "street2": null, "fullAddress": "1 Baltimore Avenue 101 N Boardwalk, Rehoboth Beach, DE 19971-2160", "locale": "pt_PT"}, {"street1": null, "street2": null, "fullAddress": "1 Baltimore Avenue 101 N Boardwalk, Rehoboth Beach, DE 19971-2160", "locale": "en_US"}, {"street1": null, "street2": null, "fullAddress": "1 Baltimore Avenue 101 N Boardwalk, \u0e40\u0e23\u0e42\u0e2e\u0e42\u0e1a\u0e17\u0e1a\u0e35\u0e0a, DE 19971-2160", "locale": "th"}, {"street1": null, "street2": null, "fullAddress": "1 Baltimore Avenue 101 N Boardwalk, Rehoboth Beach, DE 19971-2160", "locale": "en_SG"}, {"street1": null, "street2": null, "fullAddress": "1 Baltimore Avenue 101 N Boardwalk, Rehoboth Beach, DE 19971-2160", "locale": "en_UK"}, {"street1": null, "street2": null, "fullAddress": "1 Baltimore Avenue 101 N Boardwalk, Rehoboth Beach, DE 19971-2160", "locale": "pt"}, {"street1": null, "street2": null, "fullAddress": "1 Baltimore Avenue 101 N Boardwalk, \u0634\u0627\u0637\u0626 \u0631\u064a\u0647\u0648\u0628\u0648\u062b, \u202bDelaware\u202c 19971-2160", "locale": "ar"}, {"street1": null, "street2": null, "fullAddress": "1 Baltimore Avenue 101 N Boardwalk, \u0420\u0435\u0445\u043e\u0431\u0443\u0442-\u0411\u0438\u0447, DE 19971-2160", "locale": "ru"}, {"street1": null, "street2": null, "fullAddress": "1 Baltimore Avenue 101 N Boardwalk, Rehoboth Beach, DE 19971-2160", "locale": "en_NZ"}, {"street1": null, "street2": null, "fullAddress": "1 Baltimore Avenue 101 N Boardwalk, Rehoboth Beach, DE 19971-2160", "locale": "de_CH"}, {"street1": null, "street2": null, "fullAddress": "1 Baltimore Avenue 101 N Boardwalk, Rehoboth Beach, DE 19971-2160", "locale": "sk"}, {"street1": null, "street2": null, "fullAddress": "1 Baltimore Avenue 101 N Boardwalk, Rehoboth Beach, DE 19971-2160", "locale": "en_ZA"}, {"street1": null, "street2": null, "fullAddress": "1 Baltimore Avenue 101 N Boardwalk, Rehoboth Beach, DE 19971-2160", "locale": "cs"}, {"street1": null, "street2": null, "fullAddress": "1 Baltimore Avenue 101 N Boardwalk, Rehoboth Beach, DE 19971-2160", "locale": "sv"}, {"street1": null, "street2": null, "fullAddress": "1 Baltimore Avenue 101 N Boardwalk, \u03a1\u03b5\u03c7\u03cc\u03bc\u03c0\u03bf\u03b8 \u039c\u03c0\u03b9\u03c4\u03c2, DE 19971-2160", "locale": "el"}, {"street1": null, "street2": null, "fullAddress": "1 Baltimore Avenue 101 N Boardwalk, Rehoboth Beach, DE 19971-2160", "locale": "de_AT"}, {"street1": null, "street2": null, "fullAddress": "1 Baltimore Avenue 101 N Boardwalk, Rehoboth Beach, DE 19971-2160", "locale": "fr_CH"}, {"street1": null, "street2": null, "fullAddress": "1 Baltimore Avenue 101 N Boardwalk, Rehoboth Beach, DE 19971-2160", "locale": "nl"}, {"street1": null, "street2": null, "fullAddress": "1 Baltimore Avenue 101 N Boardwalk, Rehoboth Beach, DE 19971-2160", "locale": "hu"}, {"street1": null, "street2": null, "fullAddress": "1 Baltimore Avenue 101 N Boardwalk, Rehoboth Beach, DE 19971-2160", "locale": "en_AU"}, {"street1": null, "street2": null, "fullAddress": "1 Baltimore Avenue 101 N Boardwalk, Pantai Rehoboth, DE 19971-2160", "locale": "in"}, {"street1": null, "street2": null, "fullAddress": "1 Baltimore Avenue 101 N Boardwalk, Ba\u0303i bi\u00ea\u0309n Rehoboth, DE 19971-2160", "locale": "vi"}, {"street1": null, "street2": null, "fullAddress": "1 Baltimore Avenue 101 N Boardwalk, Rehoboth Beach, DE 19971-2160", "locale": "fr_CA"}, {"street1": null, "street2": null, "fullAddress": "1 Baltimore Avenue 101 N Boardwalk, Rehoboth Beach, DE 19971-2160", "locale": "es_AR"}, {"street1": null, "street2": null, "fullAddress": "1 Baltimore Avenue 101 N Boardwalk, \u0634\u0627\u0637\u0626 \u0631\u064a\u0647\u0648\u0628\u0648\u062b, \u202bDelaware\u202c 19971-2160", "locale": "ar_EG"}, {"street1": null, "street2": null, "fullAddress": "1 Baltimore Avenue 101 N Boardwalk, Rehoboth Beach, DE 19971-2160", "locale": "en_MY"}, {"street1": null, "street2": null, "fullAddress": "1 Baltimore Avenue 101 N Boardwalk, Rehoboth Beach, DE 19971-2160", "locale": "sr"}, {"street1": null, "street2": null, "fullAddress": "1 Baltimore Avenue 101 N Boardwalk, Rehoboth Beach, DE 19971-2160", "locale": "it_CH"}, {"street1": null, "street2": null, "fullAddress": "1 Baltimore Avenue 101 N Boardwalk, Rehoboth Beach, DE 19971-2160", "locale": "da"}, {"street1": null, "street2": null, "fullAddress": "1 Baltimore Avenue 101 N Boardwalk, Rehoboth Beach, DE 19971-2160", "locale": "es"}, {"street1": null, "street2": null, "fullAddress": "1 Baltimore Avenue 101 N Boardwalk, Rehoboth Beach, DE 19971-2160", "locale": "tr"}, {"street1": null, "street2": null, "fullAddress": "1 Baltimore Avenue 101 N Boardwalk, Rehoboth Beach, DE 19971-2160", "locale": "en_HK"}, {"street1": null, "street2": null, "fullAddress": "1 Baltimore Avenue 101 N Boardwalk, Rehoboth Beach, DE 19971-2160", "locale": "en_IE"}, {"street1": null, "street2": null, "fullAddress": "1 Baltimore Avenue 101 N Boardwalk, Rehoboth Beach, DE 19971-2160", "locale": "en_CA"}, {"street1": null, "street2": null, "fullAddress": "1 Baltimore Avenue 101 N Boardwalk, Rehoboth Beach, DE 19971-2160", "locale": "nl_BE"}, {"street1": null, "street2": null, "fullAddress": "1 Baltimore Avenue 101 N Boardwalk, Rehoboth Beach, DE 19971-2160", "locale": "no"}, {"street1": null, "street2": null, "fullAddress": "1 Baltimore Avenue 101 N Boardwalk, Rehoboth Beach, DE 19971-2160", "locale": "pl"}, {"street1": null, "street2": null, "fullAddress": "1 Baltimore Avenue 101 N Boardwalk, \u91cc\u970d\u535a\u65af\u6bd4\u5947, DE", "locale": "zh_CN"}, {"street1": null, "street2": null, "fullAddress": "1 Baltimore Avenue 101 N Boardwalk, Rehoboth Beach, DE 19971-2160", "locale": "es_CO"}, {"street1": null, "street2": null, "fullAddress": "1 Baltimore Avenue 101 N Boardwalk, Rehoboth Beach, DE 19971-2160", "locale": "fr"}, {"street1": null, "street2": null, "fullAddress": "1 Baltimore Avenue 101 N Boardwalk, \u30ec\u30db\u30dc\u30c8 \u30d3\u30fc\u30c1, DE", "locale": "ja"}, {"street1": null, "street2": null, "fullAddress": "1 Baltimore Avenue 101 N Boardwalk, \u05e8\u05d0\u05d5\u05d1\u05d5\u05ea' \u05d1\u05d9\u05e5', DE 19971-2160", "locale": "iw"}, {"street1": null, "street2": null, "fullAddress": "1 Baltimore Avenue 101 N Boardwalk, Rehoboth Beach, DE 19971-2160", "locale": "de"}, {"street1": null, "street2": null, "fullAddress": "1 Baltimore Avenue 101 N Boardwalk, Rehoboth Beach, DE 19971-2160", "locale": "en_IN"}, {"street1": null, "street2": null, "fullAddress": "1 Baltimore Avenue 101 N Boardwalk, \u91cc\u970d\u535a\u65af\u6bd4\u5947, DE", "locale": "zh"}, {"street1": null, "street2": null, "fullAddress": "1 Baltimore Avenue 101 N Boardwalk, Rehoboth Beach, DE 19971-2160", "locale": "es_PE"}, {"street1": null, "street2": null, "fullAddress": "1 Baltimore Avenue 101 N Boardwalk, Rehoboth Beach, DE 19971-2160", "locale": "en_PH"}], "parents": [{"placeType": "CITY", "locationId": 34048, "name": "Ba\u0303i bi\u00ea\u0309n Rehoboth"}, {"placeType": "STATE", "locationId": 28929, "name": "Delaware"}, {"placeType": "COUNTRY", "locationId": 191, "name": "Hoa K\u1ef3"}, {"placeType": "CONTINENT", "locationId": 19, "name": "B\u0103\u0301c My\u0303"}, {"placeType": null, "locationId": 1, "name": "Th\u00ea\u0301 gi\u01a1\u0301i"}], "thumbnail": {"title": null, "photoSizes": [{"height": 0, "isHorizontal": true, "width": 0, "url": "https://dynamic-media-cdn.tripadvisor.com/media/photo-o/17/83/bf/54/atlantic-sands-hotel.jpg?w=100&h=100&s=1"}, {"height": 50, "isHorizontal": true, "width": 50, "url": "https://media-cdn.tripadvisor.com/media/photo-t/17/83/bf/54/atlantic-sands-hotel.jpg"}, {"height": 150, "isHorizontal": true, "width": 150, "url": "https://media-cdn.tripadvisor.com/media/photo-l/17/83/bf/54/atlantic-sands-hotel.jpg"}, {"height": 200, "isHorizontal": false, "width": 180, "url": "https://media-cdn.tripadvisor.com/media/photo-i/17/83/bf/54/atlantic-sands-hotel.jpg"}, {"height": 167, "isHorizontal": true, "width": 250, "url": "https://media-cdn.tripadvisor.com/media/photo-f/17/83/bf/54/atlantic-sands-hotel.jpg"}, {"height": 367, "isHorizontal": true, "width": 550, "url": "https://media-cdn.tripadvisor.com/media/photo-s/17/83/bf/54/atlantic-sands-hotel.jpg"}, {"height": 683, "isHorizontal": true, "width": 1024, "url": "https://media-cdn.tripadvisor.com/media/photo-w/17/83/bf/54/atlantic-sands-hotel.jpg"}, {"height": 854, "isHorizontal": true, "width": 1280, "url": "https://media-cdn.tripadvisor.com/media/photo-m/1280/17/83/bf/54/atlantic-sands-hotel.jpg"}]}}]}}]