[{"data": {"restaurantStyles": [], "restaurantPrice": [], "accommodationType": [], "restaurantTypes": [{"tag": {"categoryId": 230, "tagId": 10591, "tagName": "Restaurants", "tagNameLocalized": "Nha\u0300 ha\u0300ng", "translationKey": "tags_category_tag_restaurants"}}], "restaurantMealTypes": [{"tag": {"categoryId": 233, "tagId": 10949, "tagName": "Drinks", "tagNameLocalized": "\u0110\u1ed3 u\u1ed1ng", "translationKey": "tags_category_tag_drinks"}}, {"tag": {"categoryId": 233, "tagId": 10598, "tagName": "Lunch", "tagNameLocalized": "B\u01b0\u0303a tr\u01b0a", "translationKey": "tags_category_tag_lunch"}}, {"tag": {"categoryId": 233, "tagId": 10599, "tagName": "Dinner", "tagNameLocalized": "B\u01b0\u0303a t\u00f4\u0301i", "translationKey": "tags_category_tag_dinner"}}], "restaurantDiningOptions": [{"tag": {"categoryId": 234, "tagId": 10854, "tagName": "Parking Available", "tagNameLocalized": "C\u00f3 b\u00e3i \u0111\u1ed7 xe", "translationKey": "tags_category_tag_parking_available"}}, {"tag": {"categoryId": 234, "tagId": 11780, "tagName": "Accepts Credit Cards", "tagNameLocalized": "Ch\u1ea5p nh\u1eadn th\u1ebb t\u00edn d\u1ee5ng", "translationKey": "tags_category_tag_accepts_credit_cards"}}, {"tag": {"categoryId": 234, "tagId": 10863, "tagName": "Full Bar", "tagNameLocalized": "Qu\u00e2\u0300y bar \u0111\u00e2\u0300y \u0111u\u0309", "translationKey": "tags_category_tag_full_bar"}}], "restaurantCuisines": [{"tag": {"categoryId": 231, "tagId": 5473, "tagName": "Japanese", "tagNameLocalized": "Ki\u00ea\u0309u Nh\u00e2\u0323t", "translationKey": "tags_category_tag_japanese"}}], "locations": [{"accommodationType": "T_UNKNOWN", "countryId": 191, "hoursOfOperation": {"dailyTimeIntervals": [{"day": "MONDAY", "timeIntervals": [{"openingTime": {"hours": 11, "minutes": 0}, "closingTime": {"hours": 21, "minutes": 0}}]}, {"day": "TUESDAY", "timeIntervals": []}, {"day": "WEDNESDAY", "timeIntervals": [{"openingTime": {"hours": 11, "minutes": 0}, "closingTime": {"hours": 21, "minutes": 0}}]}, {"day": "THURSDAY", "timeIntervals": [{"openingTime": {"hours": 11, "minutes": 0}, "closingTime": {"hours": 21, "minutes": 0}}]}, {"day": "FRIDAY", "timeIntervals": [{"openingTime": {"hours": 11, "minutes": 0}, "closingTime": {"hours": 21, "minutes": 30}}]}, {"day": "SATURDAY", "timeIntervals": [{"openingTime": {"hours": 11, "minutes": 0}, "closingTime": {"hours": 21, "minutes": 30}}]}, {"day": "SUNDAY", "timeIntervals": [{"openingTime": {"hours": 11, "minutes": 0}, "closingTime": {"hours": 21, "minutes": 0}}]}]}, "isClosed": false, "isOwner": false, "latitude": 39.683167, "localizedDescriptions": [], "localizedNames": [], "locationId": 25320208, "locationV2": {"attractionTypes": []}, "longitude": -75.746185, "parentId": 34043, "placeType": "EATERY", "absoluteOwnerManagementUrl": "https://www.tripadvisor.com.vn/RSManagementCenter-d25320208-Kakure_Bistro?cat=0&geo=34043", "email": null, "geoName": "Newark", "isoCountryCode": "US", "localizedName": "Kakure Bistro", "name": "Kakure Bistro", "locationDescription": null, "officialUrl": null, "postPhotosUrl": "/PostPhotos-d25320208", "telephone": "+1 302-294-1588", "url": "/Restaurant_Review-g34043-d25320208-Reviews-Kakure_Bistro-Newark_Delaware.html", "writeUserReviewUrl": "/UserReview-g34043-d25320208-Kakure_Bistro-Newark_Delaware.html", "localizedStreetAddress": {"city": "Newark", "country": "Hoa K\u1ef3", "fullAddress": "165 E Main St., Newark, DE 19711", "postalCode": "19711", "state": "Delaware", "street1": "165 E Main St.", "street2": ""}, "streetAddress": {"street1": "165 E Main St.", "street2": "", "state": "Delaware", "city": "Newark", "postalCode": "19711", "fullAddress": "165 E Main St., Newark, DE 19711"}, "localizedStreetAddresses": [{"street1": null, "street2": null, "fullAddress": "165 E Main St., Newark, DE 19711", "locale": "fr_BE"}, {"street1": null, "street2": null, "fullAddress": "165 E Main St., Newark, DE 19711", "locale": "es_MX"}, {"street1": null, "street2": null, "fullAddress": "165 E Main St., Newark, DE 19711", "locale": "es_VE"}, {"street1": null, "street2": null, "fullAddress": "165 E Main St., \u7d10\u74e6\u514b, DE", "locale": "zh_HK"}, {"street1": null, "street2": null, "fullAddress": "165 E Main St., \u7d10\u74e6\u514b, DE", "locale": "zh_TW"}, {"street1": null, "street2": null, "fullAddress": "165 E Main St., Newark, DE 19711", "locale": "it"}, {"street1": null, "street2": null, "fullAddress": "165 E Main St., \ub274\uc5b4\ud06c, DE", "locale": "ko"}, {"street1": null, "street2": null, "fullAddress": "165 E Main St., Newark, DE 19711", "locale": "es_CL"}, {"street1": null, "street2": null, "fullAddress": "165 E Main St., Newark, DE 19711", "locale": "fi"}, {"street1": null, "street2": null, "fullAddress": "165 E Main St., Newark, DE 19711", "locale": "pt_PT"}, {"street1": null, "street2": null, "fullAddress": "165 E Main St., Newark, DE 19711", "locale": "en_US"}, {"street1": null, "street2": null, "fullAddress": "165 E Main St., \u0e19\u0e27\u0e23\u0e4c\u0e01, DE 19711", "locale": "th"}, {"street1": null, "street2": null, "fullAddress": "165 E Main St., Newark, DE 19711", "locale": "en_SG"}, {"street1": null, "street2": null, "fullAddress": "165 E Main St., Newark, DE 19711", "locale": "pt"}, {"street1": null, "street2": null, "fullAddress": "165 E Main St., Newark, DE 19711", "locale": "en_UK"}, {"street1": null, "street2": null, "fullAddress": "165 E Main St., \u202bNewark\u202c, \u202bDelaware\u202c 19711", "locale": "ar"}, {"street1": null, "street2": null, "fullAddress": "165 E Main St., \u041d\u044c\u044e\u0430\u0440\u043a, DE 19711", "locale": "ru"}, {"street1": null, "street2": null, "fullAddress": "165 E Main St., Newark, DE 19711", "locale": "en_NZ"}, {"street1": null, "street2": null, "fullAddress": "165 E Main St., Newark, DE 19711", "locale": "de_CH"}, {"street1": null, "street2": null, "fullAddress": "165 E Main St., Newark, DE 19711", "locale": "sk"}, {"street1": null, "street2": null, "fullAddress": "165 E Main St., Newark, DE 19711", "locale": "en_ZA"}, {"street1": null, "street2": null, "fullAddress": "165 E Main St., Newark, DE 19711", "locale": "sv"}, {"street1": null, "street2": null, "fullAddress": "165 E Main St., Newark, DE 19711", "locale": "cs"}, {"street1": null, "street2": null, "fullAddress": "165 E Main St., \u039d\u03b9\u03bf\u03cd\u03b1\u03c1\u03ba, DE 19711", "locale": "el"}, {"street1": null, "street2": null, "fullAddress": "165 E Main St., Newark, DE 19711", "locale": "de_AT"}, {"street1": null, "street2": null, "fullAddress": "165 E Main St., Newark, DE 19711", "locale": "nl"}, {"street1": null, "street2": null, "fullAddress": "165 E Main St., Newark, DE 19711", "locale": "fr_CH"}, {"street1": null, "street2": null, "fullAddress": "165 E Main St., Newark, DE 19711", "locale": "hu"}, {"street1": null, "street2": null, "fullAddress": "165 E Main St., Newark, DE 19711", "locale": "en_AU"}, {"street1": null, "street2": null, "fullAddress": "165 E Main St., Newark, DE 19711", "locale": "in"}, {"street1": null, "street2": null, "fullAddress": "165 E Main St., Newark, DE 19711", "locale": "vi"}, {"street1": null, "street2": null, "fullAddress": "165 E Main St., Newark, DE 19711", "locale": "fr_CA"}, {"street1": null, "street2": null, "fullAddress": "165 E Main St., Newark, DE 19711", "locale": "es_AR"}, {"street1": null, "street2": null, "fullAddress": "165 E Main St., \u202bNewark\u202c, \u202bDelaware\u202c 19711", "locale": "ar_EG"}, {"street1": null, "street2": null, "fullAddress": "165 E Main St., Newark, DE 19711", "locale": "en_MY"}, {"street1": null, "street2": null, "fullAddress": "165 E Main St., Newark, DE 19711", "locale": "sr"}, {"street1": null, "street2": null, "fullAddress": "165 E Main St., Newark, DE 19711", "locale": "it_CH"}, {"street1": null, "street2": null, "fullAddress": "165 E Main St., Newark, DE 19711", "locale": "da"}, {"street1": null, "street2": null, "fullAddress": "165 E Main St., Newark, DE 19711", "locale": "es"}, {"street1": null, "street2": null, "fullAddress": "165 E Main St., Newark, DE 19711", "locale": "tr"}, {"street1": null, "street2": null, "fullAddress": "165 E Main St., Newark, DE 19711", "locale": "en_HK"}, {"street1": null, "street2": null, "fullAddress": "165 E Main St., Newark, DE 19711", "locale": "en_IE"}, {"street1": null, "street2": null, "fullAddress": "165 E Main St., Newark, DE 19711", "locale": "en_CA"}, {"street1": null, "street2": null, "fullAddress": "165 E Main St., Newark, DE 19711", "locale": "no"}, {"street1": null, "street2": null, "fullAddress": "165 E Main St., Newark, DE 19711", "locale": "pl"}, {"street1": null, "street2": null, "fullAddress": "165 E Main St., Newark, DE 19711", "locale": "nl_BE"}, {"street1": null, "street2": null, "fullAddress": "165 E Main St., \u7ebd\u74e6\u514b, DE", "locale": "zh_CN"}, {"street1": null, "street2": null, "fullAddress": "165 E Main St., Newark, DE 19711", "locale": "es_CO"}, {"street1": null, "street2": null, "fullAddress": "165 E Main St., Newark, DE 19711", "locale": "fr"}, {"street1": null, "street2": null, "fullAddress": "165 E Main St., \u30cb\u30e5\u30fc\u30a2\u30fc\u30af, DE", "locale": "ja"}, {"street1": null, "street2": null, "fullAddress": "165 E Main St., \u05e0\u05d9\u05d5\u05d0\u05e8\u05e7, DE 19711", "locale": "iw"}, {"street1": null, "street2": null, "fullAddress": "165 E Main St., Newark, DE 19711", "locale": "de"}, {"street1": null, "street2": null, "fullAddress": "165 E Main St., Newark, DE 19711", "locale": "en_IN"}, {"street1": null, "street2": null, "fullAddress": "165 E Main St., \u7ebd\u74e6\u514b, DE", "locale": "zh"}, {"street1": null, "street2": null, "fullAddress": "165 E Main St., Newark, DE 19711", "locale": "es_PE"}, {"street1": null, "street2": null, "fullAddress": "165 E Main St., Newark, DE 19711", "locale": "en_PH"}], "parents": [{"placeType": "CITY", "locationId": 34043, "name": "Newark"}, {"placeType": "STATE", "locationId": 28929, "name": "Delaware"}, {"placeType": "COUNTRY", "locationId": 191, "name": "Hoa K\u1ef3"}, {"placeType": "CONTINENT", "locationId": 19, "name": "B\u0103\u0301c My\u0303"}, {"placeType": null, "locationId": 1, "name": "Th\u00ea\u0301 gi\u01a1\u0301i"}], "thumbnail": {"title": null, "photoSizes": [{"height": 0, "isHorizontal": true, "width": 0, "url": "https://dynamic-media-cdn.tripadvisor.com/media/photo-o/28/3d/44/78/boxed-meals.jpg?w=100&h=100&s=1"}, {"height": 50, "isHorizontal": true, "width": 50, "url": "https://media-cdn.tripadvisor.com/media/photo-t/28/3d/44/78/boxed-meals.jpg"}, {"height": 150, "isHorizontal": true, "width": 150, "url": "https://media-cdn.tripadvisor.com/media/photo-l/28/3d/44/78/boxed-meals.jpg"}, {"height": 200, "isHorizontal": false, "width": 180, "url": "https://media-cdn.tripadvisor.com/media/photo-i/28/3d/44/78/boxed-meals.jpg"}, {"height": 141, "isHorizontal": true, "width": 250, "url": "https://media-cdn.tripadvisor.com/media/photo-f/28/3d/44/78/boxed-meals.jpg"}, {"height": 309, "isHorizontal": true, "width": 550, "url": "https://media-cdn.tripadvisor.com/media/photo-s/28/3d/44/78/boxed-meals.jpg"}, {"height": 576, "isHorizontal": true, "width": 1024, "url": "https://media-cdn.tripadvisor.com/media/photo-w/28/3d/44/78/boxed-meals.jpg"}, {"height": 720, "isHorizontal": true, "width": 1280, "url": "https://media-cdn.tripadvisor.com/media/photo-m/1280/28/3d/44/78/boxed-meals.jpg"}]}}]}}]