[{"data": {"restaurantStyles": [], "accommodationType": [], "restaurantTypes": [{"tag": {"categoryId": 230, "tagId": 10591, "tagName": "Restaurants", "tagNameLocalized": "Nha\u0300 ha\u0300ng", "translationKey": "tags_category_tag_restaurants"}}], "restaurantMealTypes": [{"tag": {"categoryId": 233, "tagId": 10949, "tagName": "Drinks", "tagNameLocalized": "\u0110\u1ed3 u\u1ed1ng", "translationKey": "tags_category_tag_drinks"}}, {"tag": {"categoryId": 233, "tagId": 10599, "tagName": "Dinner", "tagNameLocalized": "B\u01b0\u0303a t\u00f4\u0301i", "translationKey": "tags_category_tag_dinner"}}], "restaurantDiningOptions": [{"tag": {"categoryId": 234, "tagId": 11780, "tagName": "Accepts Credit Cards", "tagNameLocalized": "Ch\u1ea5p nh\u1eadn th\u1ebb t\u00edn d\u1ee5ng", "translationKey": "tags_category_tag_accepts_credit_cards"}}, {"tag": {"categoryId": 234, "tagId": 10602, "tagName": "Reservations", "tagNameLocalized": "\u0110\u0103\u0323t ch\u00f4\u0303", "translationKey": "tags_category_tag_reservations"}}, {"tag": {"categoryId": 234, "tagId": 10866, "tagName": "Accepts Mastercard", "tagNameLocalized": "Ch\u1ea5p nh\u1eadn th\u1ebb Mastercard", "translationKey": "tags_category_tag_accepts_mastercard"}}, {"tag": {"categoryId": 234, "tagId": 10601, "tagName": "Takeout", "tagNameLocalized": "C\u01b0\u0309a ha\u0300ng ba\u0301n th\u01b0\u0301c \u0103n mang v\u00ea\u0300", "translationKey": "tags_category_tag_takeout"}}, {"tag": {"categoryId": 234, "tagId": 10865, "tagName": "Accepts American Express", "tagNameLocalized": "Ch\u1ea5p nh\u1eadn th\u1ebb American Express", "translationKey": "tags_category_tag_accepts_american_express"}}, {"tag": {"categoryId": 234, "tagId": 10603, "tagName": "Outdoor Seating", "tagNameLocalized": "Ng\u00f4\u0300i ngoa\u0300i tr\u01a1\u0300i", "translationKey": "tags_category_tag_outdoor_seating"}}, {"tag": {"categoryId": 234, "tagId": 10867, "tagName": "Accepts Visa", "tagNameLocalized": "Ch\u1ea5p nh\u1eadn th\u1ebb Visa", "translationKey": "tags_category_tag_accepts_visa"}}, {"tag": {"categoryId": 234, "tagId": 21907, "tagName": "Gift Cards Available", "tagNameLocalized": "C\u00f3 th\u1ebb qu\u00e0 t\u1eb7ng", "translationKey": "tags_category_tag_gift_cards_available"}}, {"tag": {"categoryId": 234, "tagId": 10871, "tagName": "Accepts Discover", "tagNameLocalized": "Ch\u1ea5p nh\u1eadn th\u1ebb Discover", "translationKey": "tags_category_tag_accepts_discover"}}, {"tag": {"categoryId": 234, "tagId": 10860, "tagName": "Highchairs Available", "tagNameLocalized": "C\u00f3 gh\u1ebf \u0103n cho b\u00e9", "translationKey": "tags_category_tag_highchairs_available"}}, {"tag": {"categoryId": 234, "tagId": 10862, "tagName": "Serves Alcohol", "tagNameLocalized": "Ph\u1ee5c v\u1ee5 \u0111\u1ed3 u\u1ed1ng c\u00f3 c\u1ed3n", "translationKey": "tags_category_tag_serves_alcohol"}}, {"tag": {"categoryId": 234, "tagId": 10861, "tagName": "Wheelchair Accessible", "tagNameLocalized": "L\u1ed1i v\u00e0o ra cho xe l\u0103n", "translationKey": "tags_category_tag_wheelchair_accessible"}}, {"tag": {"categoryId": 234, "tagId": 10864, "tagName": "Wine and Beer", "tagNameLocalized": "R\u01b0\u1ee3u v\u00e0 bia", "translationKey": "tags_category_tag_wine_and_beer"}}, {"tag": {"categoryId": 234, "tagId": 10852, "tagName": "Seating", "tagNameLocalized": "Ch\u1ed7 ng\u1ed3i", "translationKey": "tags_category_tag_seating"}}, {"tag": {"categoryId": 234, "tagId": 10863, "tagName": "Full Bar", "tagNameLocalized": "Qu\u00e2\u0300y bar \u0111\u00e2\u0300y \u0111u\u0309", "translationKey": "tags_category_tag_full_bar"}}], "restaurantPrice": [{"tag": {"categoryId": 240, "tagId": 10955, "tagName": "Mid Range", "tagNameLocalized": "H\u1ea1ng trung", "translationKey": "tags_category_tag_mid_range"}}], "restaurantCuisines": [{"tag": {"categoryId": 231, "tagId": 5110, "tagName": "Mexican", "tagNameLocalized": "Ki\u00ea\u0309u Mexico", "translationKey": "tags_category_tag_mexican"}}, {"tag": {"categoryId": 231, "tagId": 10640, "tagName": "Bar", "tagNameLocalized": "Qu\u00e2\u0300y bar", "translationKey": "tags_category_tag_bar"}}, {"tag": {"categoryId": 231, "tagId": 10643, "tagName": "Seafood", "tagNameLocalized": "Ha\u0309i sa\u0309n", "translationKey": "tags_category_tag_seafood"}}], "locations": [{"accommodationType": "T_UNKNOWN", "countryId": 191, "hoursOfOperation": {"dailyTimeIntervals": [{"day": "MONDAY", "timeIntervals": [{"openingTime": {"hours": 11, "minutes": 0}, "closingTime": {"hours": 22, "minutes": 0}}]}, {"day": "TUESDAY", "timeIntervals": [{"openingTime": {"hours": 11, "minutes": 0}, "closingTime": {"hours": 22, "minutes": 0}}]}, {"day": "WEDNESDAY", "timeIntervals": [{"openingTime": {"hours": 11, "minutes": 0}, "closingTime": {"hours": 22, "minutes": 0}}]}, {"day": "THURSDAY", "timeIntervals": [{"openingTime": {"hours": 11, "minutes": 0}, "closingTime": {"hours": 22, "minutes": 0}}]}, {"day": "FRIDAY", "timeIntervals": [{"openingTime": {"hours": 11, "minutes": 0}, "closingTime": {"hours": 23, "minutes": 0}}]}, {"day": "SATURDAY", "timeIntervals": [{"openingTime": {"hours": 11, "minutes": 0}, "closingTime": {"hours": 23, "minutes": 0}}]}, {"day": "SUNDAY", "timeIntervals": [{"openingTime": {"hours": 11, "minutes": 0}, "closingTime": {"hours": 22, "minutes": 0}}]}]}, "isClosed": false, "isOwner": false, "latitude": 38.460262, "localizedDescriptions": [], "localizedNames": [], "locationId": 25457499, "locationV2": {"attractionTypes": []}, "longitude": -75.68909, "parentId": 32286, "placeType": "EATERY", "absoluteOwnerManagementUrl": "https://www.tripadvisor.com.vn/RSManagementCenter-d25457499-South_of_Nick_s_Del_Mar?cat=0&geo=32286", "email": null, "geoName": "Del Mar", "isoCountryCode": "US", "localizedName": "South of Nick's - Del Mar", "name": "South of Nick's - Del Mar", "locationDescription": null, "officialUrl": "http://nicksrestaurants.com/southofnicks/del-mar/", "postPhotosUrl": "/PostPhotos-d25457499", "telephone": "+1 858-465-7145", "url": "/Restaurant_Review-g32286-d25457499-Reviews-South_of_Nick_s_Del_Mar-Del_Mar_California.html", "writeUserReviewUrl": "/UserReview-g32286-d25457499-South_of_Nick_s_Del_Mar-Del_Mar_California.html", "localizedStreetAddress": {"city": "Del Mar", "country": "Hoa K\u1ef3", "fullAddress": "3387 Del Mar Heights Rd Bldg. 1, Del Mar, CA 92130", "postalCode": "92130", "state": "California", "street1": "3387 Del Mar Heights Rd", "street2": "Bldg. 1"}, "streetAddress": {"street1": "3387 Del Mar Heights Rd", "street2": "Bldg. 1", "state": "California", "city": "Del Mar", "postalCode": "92130", "fullAddress": "3387 Del Mar Heights Rd Bldg. 1, Del Mar, CA 92130"}, "localizedStreetAddresses": [{"street1": null, "street2": null, "fullAddress": "3387 Del Mar Heights Rd Bldg. 1, Del Mar, CA 92130", "locale": "fr_BE"}, {"street1": null, "street2": null, "fullAddress": "3387 Del Mar Heights Rd Bldg. 1, Del Mar, CA 92130", "locale": "es_MX"}, {"street1": null, "street2": null, "fullAddress": "3387 Del Mar Heights Rd Bldg. 1, Del Mar, CA 92130", "locale": "es_VE"}, {"street1": null, "street2": null, "fullAddress": "3387 Del Mar Heights Rd Bldg. 1, \u5fb7\u723e\u99ac, CA", "locale": "zh_HK"}, {"street1": null, "street2": null, "fullAddress": "3387 Del Mar Heights Rd Bldg. 1, \u5fb7\u723e\u99ac, CA", "locale": "zh_TW"}, {"street1": null, "street2": null, "fullAddress": "3387 Del Mar Heights Rd Bldg. 1, Del Mar, CA 92130", "locale": "it"}, {"street1": null, "street2": null, "fullAddress": "3387 Del Mar Heights Rd Bldg. 1, \ub378 \ub9c8\ub974, CA", "locale": "ko"}, {"street1": null, "street2": null, "fullAddress": "3387 Del Mar Heights Rd Bldg. 1, Del Mar, CA 92130", "locale": "es_CL"}, {"street1": null, "street2": null, "fullAddress": "3387 Del Mar Heights Rd Bldg. 1, Del Mar, CA 92130", "locale": "fi"}, {"street1": null, "street2": null, "fullAddress": "3387 Del Mar Heights Rd Bldg. 1, Del Mar, CA 92130", "locale": "pt_PT"}, {"street1": null, "street2": null, "fullAddress": "3387 Del Mar Heights Rd Bldg. 1, Del Mar, CA 92130", "locale": "en_US"}, {"street1": null, "street2": null, "fullAddress": "3387 Del Mar Heights Rd Bldg. 1, \u0e40\u0e14\u0e25\u0e21\u0e32\u0e23\u0e4c, CA 92130", "locale": "th"}, {"street1": null, "street2": null, "fullAddress": "3387 Del Mar Heights Rd Bldg. 1, Del Mar, CA 92130", "locale": "en_SG"}, {"street1": null, "street2": null, "fullAddress": "3387 Del Mar Heights Rd Bldg. 1, Del Mar, CA 92130", "locale": "pt"}, {"street1": null, "street2": null, "fullAddress": "3387 Del Mar Heights Rd Bldg. 1, Del Mar, CA 92130", "locale": "en_UK"}, {"street1": null, "street2": null, "fullAddress": "3387 Del Mar Heights Rd Bldg. 1, \u062f\u064a\u0644\u00a0\u0645\u0627\u0631, \u0643\u0627\u0644\u064a\u0641\u0648\u0631\u0646\u064a\u0627 92130", "locale": "ar"}, {"street1": null, "street2": null, "fullAddress": "3387 Del Mar Heights Rd Bldg. 1, \u0414\u0435\u043b\u044c-\u041c\u0430\u0440, CA 92130", "locale": "ru"}, {"street1": null, "street2": null, "fullAddress": "3387 Del Mar Heights Rd Bldg. 1, Del Mar, CA 92130", "locale": "en_NZ"}, {"street1": null, "street2": null, "fullAddress": "3387 Del Mar Heights Rd Bldg. 1, Del Mar, CA 92130", "locale": "de_CH"}, {"street1": null, "street2": null, "fullAddress": "3387 Del Mar Heights Rd Bldg. 1, Del Mar, CA 92130", "locale": "sk"}, {"street1": null, "street2": null, "fullAddress": "3387 Del Mar Heights Rd Bldg. 1, Del Mar, CA 92130", "locale": "en_ZA"}, {"street1": null, "street2": null, "fullAddress": "3387 Del Mar Heights Rd Bldg. 1, Del Mar, CA 92130", "locale": "cs"}, {"street1": null, "street2": null, "fullAddress": "3387 Del Mar Heights Rd Bldg. 1, Del Mar, CA 92130", "locale": "sv"}, {"street1": null, "street2": null, "fullAddress": "3387 Del Mar Heights Rd Bldg. 1, Del Mar, CA 92130", "locale": "el"}, {"street1": null, "street2": null, "fullAddress": "3387 Del Mar Heights Rd Bldg. 1, Del Mar, CA 92130", "locale": "de_AT"}, {"street1": null, "street2": null, "fullAddress": "3387 Del Mar Heights Rd Bldg. 1, Del Mar, CA 92130", "locale": "hu"}, {"street1": null, "street2": null, "fullAddress": "3387 Del Mar Heights Rd Bldg. 1, Del Mar, CA 92130", "locale": "nl"}, {"street1": null, "street2": null, "fullAddress": "3387 Del Mar Heights Rd Bldg. 1, Del Mar, CA 92130", "locale": "fr_CH"}, {"street1": null, "street2": null, "fullAddress": "3387 Del Mar Heights Rd Bldg. 1, Del Mar, CA 92130", "locale": "en_AU"}, {"street1": null, "street2": null, "fullAddress": "3387 Del Mar Heights Rd Bldg. 1, Del Mar, CA 92130", "locale": "in"}, {"street1": null, "street2": null, "fullAddress": "3387 Del Mar Heights Rd Bldg. 1, Del Mar, CA 92130", "locale": "vi"}, {"street1": null, "street2": null, "fullAddress": "3387 Del Mar Heights Rd Bldg. 1, Del Mar, CA 92130", "locale": "fr_CA"}, {"street1": null, "street2": null, "fullAddress": "3387 Del Mar Heights Rd Bldg. 1, Del Mar, CA 92130", "locale": "es_AR"}, {"street1": null, "street2": null, "fullAddress": "3387 Del Mar Heights Rd Bldg. 1, \u062f\u064a\u0644\u00a0\u0645\u0627\u0631, \u0643\u0627\u0644\u064a\u0641\u0648\u0631\u0646\u064a\u0627 92130", "locale": "ar_EG"}, {"street1": null, "street2": null, "fullAddress": "3387 Del Mar Heights Rd Bldg. 1, Del Mar, CA 92130", "locale": "sr"}, {"street1": null, "street2": null, "fullAddress": "3387 Del Mar Heights Rd Bldg. 1, Del Mar, CA 92130", "locale": "en_MY"}, {"street1": null, "street2": null, "fullAddress": "3387 Del Mar Heights Rd Bldg. 1, Del Mar, CA 92130", "locale": "it_CH"}, {"street1": null, "street2": null, "fullAddress": "3387 Del Mar Heights Rd Bldg. 1, Del Mar, CA 92130", "locale": "da"}, {"street1": null, "street2": null, "fullAddress": "3387 Del Mar Heights Rd Bldg. 1, Del Mar, CA 92130", "locale": "es"}, {"street1": null, "street2": null, "fullAddress": "3387 Del Mar Heights Rd Bldg. 1, Del Mar, CA 92130", "locale": "tr"}, {"street1": null, "street2": null, "fullAddress": "3387 Del Mar Heights Rd Bldg. 1, Del Mar, CA 92130", "locale": "en_HK"}, {"street1": null, "street2": null, "fullAddress": "3387 Del Mar Heights Rd Bldg. 1, Del Mar, CA 92130", "locale": "en_IE"}, {"street1": null, "street2": null, "fullAddress": "3387 Del Mar Heights Rd Bldg. 1, Del Mar, CA 92130", "locale": "en_CA"}, {"street1": null, "street2": null, "fullAddress": "3387 Del Mar Heights Rd Bldg. 1, Del Mar, CA 92130", "locale": "nl_BE"}, {"street1": null, "street2": null, "fullAddress": "3387 Del Mar Heights Rd Bldg. 1, Del Mar, CA 92130", "locale": "pl"}, {"street1": null, "street2": null, "fullAddress": "3387 Del Mar Heights Rd Bldg. 1, Del Mar, CA 92130", "locale": "no"}, {"street1": null, "street2": null, "fullAddress": "3387 Del Mar Heights Rd Bldg. 1, \u5fb7\u5c14\u9a6c, CA", "locale": "zh_CN"}, {"street1": null, "street2": null, "fullAddress": "3387 Del Mar Heights Rd Bldg. 1, Del Mar, CA 92130", "locale": "es_CO"}, {"street1": null, "street2": null, "fullAddress": "3387 Del Mar Heights Rd Bldg. 1, Del Mar, CA 92130", "locale": "fr"}, {"street1": null, "street2": null, "fullAddress": "3387 Del Mar Heights Rd Bldg. 1, \u30c7\u30eb\u30de\u30fc\u30eb, CA", "locale": "ja"}, {"street1": null, "street2": null, "fullAddress": "3387 Del Mar Heights Rd Bldg. 1, \u05d3\u05dc \u05de\u05d0\u05e8, CA 92130", "locale": "iw"}, {"street1": null, "street2": null, "fullAddress": "3387 Del Mar Heights Rd Bldg. 1, Del Mar, CA 92130", "locale": "en_IN"}, {"street1": null, "street2": null, "fullAddress": "3387 Del Mar Heights Rd Bldg. 1, Del Mar, CA 92130", "locale": "de"}, {"street1": null, "street2": null, "fullAddress": "3387 Del Mar Heights Rd Bldg. 1, \u5fb7\u5c14\u9a6c, CA", "locale": "zh"}, {"street1": null, "street2": null, "fullAddress": "3387 Del Mar Heights Rd Bldg. 1, Del Mar, CA 92130", "locale": "es_PE"}, {"street1": null, "street2": null, "fullAddress": "3387 Del Mar Heights Rd Bldg. 1, Del Mar, CA 92130", "locale": "en_PH"}], "parents": [{"placeType": "CITY", "locationId": 32286, "name": "Del Mar"}, {"placeType": "STATE", "locationId": 28926, "name": "California"}, {"placeType": "COUNTRY", "locationId": 191, "name": "Hoa K\u1ef3"}, {"placeType": "CONTINENT", "locationId": 19, "name": "B\u0103\u0301c My\u0303"}, {"placeType": null, "locationId": 1, "name": "Th\u00ea\u0301 gi\u01a1\u0301i"}], "thumbnail": {"title": null, "photoSizes": [{"height": 0, "isHorizontal": true, "width": 0, "url": "https://dynamic-media-cdn.tripadvisor.com/media/photo-o/29/99/f2/73/enchiladas-divorciadas.jpg?w=100&h=100&s=1"}, {"height": 50, "isHorizontal": true, "width": 50, "url": "https://media-cdn.tripadvisor.com/media/photo-t/29/99/f2/73/enchiladas-divorciadas.jpg"}, {"height": 150, "isHorizontal": true, "width": 150, "url": "https://media-cdn.tripadvisor.com/media/photo-l/29/99/f2/73/enchiladas-divorciadas.jpg"}, {"height": 200, "isHorizontal": false, "width": 180, "url": "https://media-cdn.tripadvisor.com/media/photo-i/29/99/f2/73/enchiladas-divorciadas.jpg"}, {"height": 167, "isHorizontal": true, "width": 250, "url": "https://media-cdn.tripadvisor.com/media/photo-f/29/99/f2/73/enchiladas-divorciadas.jpg"}, {"height": 367, "isHorizontal": true, "width": 550, "url": "https://media-cdn.tripadvisor.com/media/photo-s/29/99/f2/73/enchiladas-divorciadas.jpg"}, {"height": 683, "isHorizontal": true, "width": 1024, "url": "https://media-cdn.tripadvisor.com/media/photo-w/29/99/f2/73/enchiladas-divorciadas.jpg"}, {"height": 853, "isHorizontal": true, "width": 1280, "url": "https://media-cdn.tripadvisor.com/media/photo-m/1280/29/99/f2/73/enchiladas-divorciadas.jpg"}]}}]}}]