[{"data": {"restaurantStyles": [], "restaurantTypes": [], "restaurantMealTypes": [], "restaurantDiningOptions": [], "restaurantPrice": [], "restaurantCuisines": [], "accommodationType": [], "locations": [{"accommodationType": "T_HOTEL", "countryId": 191, "hoursOfOperation": {"dailyTimeIntervals": [{"day": "MONDAY", "timeIntervals": [{"openingTime": {"hours": 0, "minutes": 0}, "closingTime": {"hours": 0, "minutes": 0}}]}, {"day": "TUESDAY", "timeIntervals": [{"openingTime": {"hours": 0, "minutes": 0}, "closingTime": {"hours": 0, "minutes": 0}}]}, {"day": "WEDNESDAY", "timeIntervals": [{"openingTime": {"hours": 0, "minutes": 0}, "closingTime": {"hours": 0, "minutes": 0}}]}, {"day": "THURSDAY", "timeIntervals": [{"openingTime": {"hours": 0, "minutes": 0}, "closingTime": {"hours": 0, "minutes": 0}}]}, {"day": "FRIDAY", "timeIntervals": [{"openingTime": {"hours": 0, "minutes": 0}, "closingTime": {"hours": 0, "minutes": 0}}]}, {"day": "SATURDAY", "timeIntervals": [{"openingTime": {"hours": 0, "minutes": 0}, "closingTime": {"hours": 0, "minutes": 0}}]}, {"day": "SUNDAY", "timeIntervals": [{"openingTime": {"hours": 0, "minutes": 0}, "closingTime": {"hours": 0, "minutes": 0}}]}]}, "isClosed": false, "isOwner": false, "latitude": 38.92256, "localizedDescriptions": [], "locationId": 256860, "locationV2": {"attractionTypes": []}, "longitude": -75.566536, "parentId": 34021, "placeType": "ACCOMMODATION", "absoluteOwnerManagementUrl": "https://www.tripadvisor.com.vn/HotelsManagementCenter-d256860-Holiday_Inn_Express_Suites_Harrington_an_IHG_Hotel?cat=0&geo=34021", "email": "hhgdegm@hotmail.com", "geoName": "Harrington", "isoCountryCode": "US", "localizedName": "Holiday Inn Express & Suites Harrington, an IHG Hotel", "name": "Holiday Inn Express & Suites Harrington, an IHG Hotel", "locationDescription": "T\u00ecm ki\u1ebfm kh\u00e1ch s\u1ea1n \u1edf Harrington? H\u00e3y xem Holiday Inn Express Harrington, kha\u0301ch sa\u0323n d\u00e0nh cho gia \u0111\u00ecnh, l\u01b0u tr\u00fa t\u1ea1i \u0111\u00e2y s\u1ebd gi\u00fap b\u1ea1n kh\u00e1m ph\u00e1 Harrington m\u1ed9t c\u00e1ch d\u1ec5 d\u00e0ng.\nC\u00e1c ph\u00f2ng kh\u00e1ch s\u1ea1n cung c\u1ea5p c\u00e1c ti\u1ec7n nghi nh\u01b0 tv m\u00e0n h\u00ecnh ph\u1eb3ng, b\u1ebfp nh\u1ecf v\u00e0 \u0111i\u1ec1u h\u00f2a nhi\u1ec7t \u0111\u1ed9, v\u00e0 kh\u00e1ch c\u00f3 th\u1ec3 k\u1ebft n\u1ed1i internet v\u1edbi wifi mi\u1ec5n ph\u00ed \u0111\u01b0\u1ee3c cung c\u1ea5p b\u1edfi kha\u0301ch sa\u0323n.\nHoliday Inn Express Harrington Hotel cung c\u1ea5p b\u00e0n l\u1ec5 t\u00e2n 24 gi\u1edd, nh\u1eadn ph\u00f2ng / tr\u1ea3 ph\u00f2ng nhanh v\u00e0 b\u00e1o ch\u00ed h\u00e0ng ng\u00e0y, gi\u00fap cho k\u1ef3 ngh\u1ec9 c\u1ee7a b\u1ea1n tr\u1edf n\u00ean d\u1ec5 ch\u1ecbu h\u01a1n n\u1eefa. Kh\u00e1ch s\u1ea1n c\u00f2n cung c\u1ea5p b\u1ec3 b\u01a1i v\u00e0 b\u1eefa s\u00e1ng. N\u1ebfu b\u1ea1n l\u00e1i xe \u0111\u1ebfn Holiday Inn Express Harrington Hotel, \u0111\u1ed7 xe mi\u1ec5n ph\u00ed c\u00f3 s\u1eb5n.\nHarrington c\u00f3 r\u1ea5t nhi\u1ec1u ha\u0309i sa\u0309n. V\u00ec th\u1ebf khi \u1edf \u0111\u00e2y, h\u00e3y nh\u1edb th\u1eed nh\u1eefng \u0111i\u1ec3m \u1ea9m th\u1ef1c y\u00eau th\u00edch nh\u01b0 The Salty Wave Seafood Market v\u00e0 Pizza King, ph\u1ee5c v\u1ee5 m\u1ed9t s\u1ed1 m\u00f3n \u0103n r\u1ea5t tuy\u1ec7t v\u1eddi.\nTrong k\u1ef3 ngh\u1ec9 c\u1ee7a b\u1ea1n, nh\u1edb gh\u00e9 th\u0103m nh\u1eefng \u0111i\u1ec3m \u0111\u1ebfn y\u00eau th\u00edch nh\u01b0 The Quillen Arena (1,9 km), n\u1eb1m trong v\u00f2ng \u0111i b\u1ed9 t\u1eeb kha\u0301ch sa\u0323n.\nCh\u00fang t\u00f4i tin r\u1eb1ng b\u1ea1n s\u1ebd t\u1eadn h\u01b0\u1edfng th\u1eddi gian l\u01b0u tr\u00fa t\u1ea1i Holiday Inn Express Harrington b\u1edfi b\u1ea1n s\u1ebd \u0111\u01b0\u1ee3c kh\u00e1m ph\u00e1 m\u1ecdi th\u1ee9 m\u00e0 Harrington c\u00f3 th\u1ec3 mang l\u1ea1i.\n", "officialUrl": "https://www.ihg.com/holidayinnexpress/hotels/us/en/harrington/hhgde/hoteldetail?cm_mmc=YextLocal-_-EX-_-US-_-HHGDE", "postPhotosUrl": "/PostPhotos-d256860", "telephone": "+1 302-398-8800", "url": "/Hotel_Review-g34021-d256860-Reviews-Holiday_Inn_Express_Suites_Harrington_an_IHG_Hotel-Harrington_Delaware.html", "writeUserReviewUrl": "/UserReview-g34021-d256860-Holiday_Inn_Express_Suites_Harrington_an_IHG_Hotel-Harrington_Delaware.html", "localizedStreetAddress": {"city": "Harrington", "country": "Hoa K\u1ef3", "fullAddress": "17271 S. Dupont Hwy, Harrington, DE 19952", "postalCode": "19952", "state": "Delaware", "street1": "17271 S. Dupont Hwy", "street2": ""}, "streetAddress": {"street1": "17271 S. Dupont Hwy", "street2": "", "state": "Delaware", "city": "Harrington", "postalCode": "19952", "fullAddress": "17271 S. Dupont Hwy, Harrington, DE 19952"}, "localizedNames": [{"locale": "zh_TW", "value": "\u54c8\u9748\u9813\u591a\u4f5b\u723e\u5730\u5340\u667a\u9078\u5047\u65e5\u5957\u623f\u98ef\u5e97"}, {"locale": "ko", "value": "\ud640\ub9ac\ub370\uc774 \uc778 \uc775\uc2a4\ud504\ub808\uc2a4 \ud638\ud154 \uc564\ub4dc \uc2a4\uc704\ud2b8 \ud574\ub9c1\ud134-\ub3c4\ubc84 \uc9c0\uc5ed, \ub378\ub77c\uc6e8\uc5b4"}, {"locale": "ar", "value": "\u0647\u0648\u0644\u062f\u0627\u064a \u0625\u0646 \u0625\u0643\u0633\u0628\u0631\u0633 \u0647\u0648\u062a\u0644 \u0622\u0646\u062f \u0633\u0648\u064a\u062a\u0633 \u0647\u0627\u0631\u0646\u062c\u062a\u0648\u0646"}, {"locale": "ru", "value": "\u0425\u043e\u043b\u0438\u0434\u0435\u0439 \u0418\u043d\u043d \u042d\u043a\u0441\u043f\u0440\u0435\u0441\u0441 \u0410\u0440\u0440\u0438\u043d\u0433\u0442\u043e\u043d"}, {"locale": "ja", "value": "\u30db\u30ea\u30c7\u30a4 \u30a4\u30f3 \u30a8\u30af\u30b9\u30d7\u30ec\u30b9 \u30db\u30c6\u30eb & \u30b9\u30a4\u30fc\u30c4 - \u30cf\u30ea\u30f3\u30c8\u30f3 - \u30c9\u30fc\u30d0\u30fc \u30a8\u30ea\u30a2 \u30c7\u30e9\u30a6\u30a8\u30a2"}], "localizedStreetAddresses": [{"street1": null, "street2": null, "fullAddress": "17271 S. Dupont Hwy, Harrington, DE 19952", "locale": "es_MX"}, {"street1": null, "street2": null, "fullAddress": "17271 S. Dupont Hwy, Harrington, DE 19952", "locale": "fr_BE"}, {"street1": null, "street2": null, "fullAddress": "17271 S. Dupont Hwy, Harrington, DE 19952", "locale": "es_VE"}, {"street1": null, "street2": null, "fullAddress": "17271 S. Dupont Hwy, Harrington, DE", "locale": "zh_TW"}, {"street1": null, "street2": null, "fullAddress": "17271 S. Dupont Hwy, Harrington, DE", "locale": "zh_HK"}, {"street1": null, "street2": null, "fullAddress": "17271 S. Dupont Hwy, Harrington, DE 19952", "locale": "it"}, {"street1": null, "street2": null, "fullAddress": "17271 S. Dupont Hwy, \ud574\ub9c1\ud134, DE", "locale": "ko"}, {"street1": null, "street2": null, "fullAddress": "17271 S. Dupont Hwy, Harrington, DE 19952", "locale": "es_CL"}, {"street1": null, "street2": null, "fullAddress": "17271 S. Dupont Hwy, Harrington, DE 19952", "locale": "fi"}, {"street1": null, "street2": null, "fullAddress": "17271 S. Dupont Hwy, Harrington, DE 19952", "locale": "pt_PT"}, {"street1": null, "street2": null, "fullAddress": "17271 S. Dupont Hwy, Harrington, DE 19952", "locale": "en_US"}, {"street1": null, "street2": null, "fullAddress": "17271 S. Dupont Hwy, \u0e41\u0e2e\u0e23\u0e4c\u0e23\u0e34\u0e07\u0e15\u0e31\u0e19, DE 19952", "locale": "th"}, {"street1": null, "street2": null, "fullAddress": "17271 S. Dupont Hwy, Harrington, DE 19952", "locale": "en_SG"}, {"street1": null, "street2": null, "fullAddress": "17271 S. Dupont Hwy, Harrington, DE 19952", "locale": "pt"}, {"street1": null, "street2": null, "fullAddress": "17271 S. Dupont Hwy, Harrington, DE 19952", "locale": "en_UK"}, {"street1": null, "street2": null, "fullAddress": "17271 S. Dupont Hwy, \u202bHarrington\u202c, \u202bDelaware\u202c 19952", "locale": "ar"}, {"street1": null, "street2": null, "fullAddress": "17271 S. Dupont Hwy, Harrington, DE 19952", "locale": "ru"}, {"street1": null, "street2": null, "fullAddress": "17271 S. Dupont Hwy, Harrington, DE 19952", "locale": "en_NZ"}, {"street1": null, "street2": null, "fullAddress": "17271 S. Dupont Hwy, Harrington, DE 19952", "locale": "de_CH"}, {"street1": null, "street2": null, "fullAddress": "17271 S. Dupont Hwy, Harrington, DE 19952", "locale": "sk"}, {"street1": null, "street2": null, "fullAddress": "17271 S. Dupont Hwy, Harrington, DE 19952", "locale": "en_ZA"}, {"street1": null, "street2": null, "fullAddress": "17271 S. Dupont Hwy, Harrington, DE 19952", "locale": "cs"}, {"street1": null, "street2": null, "fullAddress": "17271 S. Dupont Hwy, Harrington, DE 19952", "locale": "sv"}, {"street1": null, "street2": null, "fullAddress": "17271 S. Dupont Hwy, Harrington, DE 19952", "locale": "el"}, {"street1": null, "street2": null, "fullAddress": "17271 S. Dupont Hwy, Harrington, DE 19952", "locale": "de_AT"}, {"street1": null, "street2": null, "fullAddress": "17271 S. Dupont Hwy, Harrington, DE 19952", "locale": "hu"}, {"street1": null, "street2": null, "fullAddress": "17271 S. Dupont Hwy, Harrington, DE 19952", "locale": "nl"}, {"street1": null, "street2": null, "fullAddress": "17271 S. Dupont Hwy, Harrington, DE 19952", "locale": "fr_CH"}, {"street1": null, "street2": null, "fullAddress": "17271 S. Dupont Hwy, Harrington, DE 19952", "locale": "en_AU"}, {"street1": null, "street2": null, "fullAddress": "17271 S. Dupont Hwy, Harrington, DE 19952", "locale": "in"}, {"street1": null, "street2": null, "fullAddress": "17271 S. Dupont Hwy, Harrington, DE 19952", "locale": "vi"}, {"street1": null, "street2": null, "fullAddress": "17271 S. Dupont Hwy, Harrington, DE 19952", "locale": "fr_CA"}, {"street1": null, "street2": null, "fullAddress": "17271 S. Dupont Hwy, Harrington, DE 19952", "locale": "es_AR"}, {"street1": null, "street2": null, "fullAddress": "17271 S. Dupont Hwy, \u202bHarrington\u202c, \u202bDelaware\u202c 19952", "locale": "ar_EG"}, {"street1": null, "street2": null, "fullAddress": "17271 S. Dupont Hwy, Harrington, DE 19952", "locale": "sr"}, {"street1": null, "street2": null, "fullAddress": "17271 S. Dupont Hwy, Harrington, DE 19952", "locale": "en_MY"}, {"street1": null, "street2": null, "fullAddress": "17271 S. Dupont Hwy, Harrington, DE 19952", "locale": "it_CH"}, {"street1": null, "street2": null, "fullAddress": "17271 S. Dupont Hwy, Harrington, DE 19952", "locale": "da"}, {"street1": null, "street2": null, "fullAddress": "17271 S. Dupont Hwy, Harrington, DE 19952", "locale": "es"}, {"street1": null, "street2": null, "fullAddress": "17271 S. Dupont Hwy, Harrington, DE 19952", "locale": "tr"}, {"street1": null, "street2": null, "fullAddress": "17271 S. Dupont Hwy, Harrington, DE 19952", "locale": "en_HK"}, {"street1": null, "street2": null, "fullAddress": "17271 S. Dupont Hwy, Harrington, DE 19952", "locale": "en_IE"}, {"street1": null, "street2": null, "fullAddress": "17271 S. Dupont Hwy, Harrington, DE 19952", "locale": "en_CA"}, {"street1": null, "street2": null, "fullAddress": "17271 S. Dupont Hwy, Harrington, DE 19952", "locale": "no"}, {"street1": null, "street2": null, "fullAddress": "17271 S. Dupont Hwy, Harrington, DE 19952", "locale": "nl_BE"}, {"street1": null, "street2": null, "fullAddress": "17271 S. Dupont Hwy, Harrington, DE 19952", "locale": "pl"}, {"street1": null, "street2": null, "fullAddress": "17271 S. Dupont Hwy, Harrington, DE", "locale": "zh_CN"}, {"street1": null, "street2": null, "fullAddress": "17271 S. Dupont Hwy, Harrington, DE 19952", "locale": "es_CO"}, {"street1": null, "street2": null, "fullAddress": "17271 S. Dupont Hwy, Harrington, DE 19952", "locale": "fr"}, {"street1": null, "street2": null, "fullAddress": "17271 S. Dupont Hwy, \u30cf\u30ea\u30f3\u30c8\u30f3, DE", "locale": "ja"}, {"street1": null, "street2": null, "fullAddress": "17271 S. Dupont Hwy, \u202bHarrington\u202c, DE 19952", "locale": "iw"}, {"street1": null, "street2": null, "fullAddress": "17271 S. Dupont Hwy, Harrington, DE 19952", "locale": "de"}, {"street1": null, "street2": null, "fullAddress": "17271 S. Dupont Hwy, Harrington, DE 19952", "locale": "en_IN"}, {"street1": null, "street2": null, "fullAddress": "17271 S. Dupont Hwy, Harrington, DE", "locale": "zh"}, {"street1": null, "street2": null, "fullAddress": "17271 S. Dupont Hwy, Harrington, DE 19952", "locale": "es_PE"}, {"street1": null, "street2": null, "fullAddress": "17271 S. Dupont Hwy, Harrington, DE 19952", "locale": "en_PH"}], "parents": [{"placeType": "CITY", "locationId": 34021, "name": "Harrington"}, {"placeType": "STATE", "locationId": 28929, "name": "Delaware"}, {"placeType": "COUNTRY", "locationId": 191, "name": "Hoa K\u1ef3"}, {"placeType": "CONTINENT", "locationId": 19, "name": "B\u0103\u0301c My\u0303"}, {"placeType": null, "locationId": 1, "name": "Th\u00ea\u0301 gi\u01a1\u0301i"}], "thumbnail": {"title": null, "photoSizes": [{"height": 0, "isHorizontal": true, "width": 0, "url": "https://dynamic-media-cdn.tripadvisor.com/media/photo-o/29/10/0e/2f/our-frontdesk-is-staffed.jpg?w=100&h=100&s=1"}, {"height": 50, "isHorizontal": true, "width": 50, "url": "https://media-cdn.tripadvisor.com/media/photo-t/29/10/0e/2f/our-frontdesk-is-staffed.jpg"}, {"height": 150, "isHorizontal": true, "width": 150, "url": "https://media-cdn.tripadvisor.com/media/photo-l/29/10/0e/2f/our-frontdesk-is-staffed.jpg"}, {"height": 200, "isHorizontal": false, "width": 180, "url": "https://media-cdn.tripadvisor.com/media/photo-i/29/10/0e/2f/our-frontdesk-is-staffed.jpg"}, {"height": 167, "isHorizontal": true, "width": 250, "url": "https://media-cdn.tripadvisor.com/media/photo-f/29/10/0e/2f/our-frontdesk-is-staffed.jpg"}, {"height": 367, "isHorizontal": true, "width": 550, "url": "https://media-cdn.tripadvisor.com/media/photo-s/29/10/0e/2f/our-frontdesk-is-staffed.jpg"}, {"height": 683, "isHorizontal": true, "width": 1024, "url": "https://media-cdn.tripadvisor.com/media/photo-w/29/10/0e/2f/our-frontdesk-is-staffed.jpg"}, {"height": 853, "isHorizontal": true, "width": 1280, "url": "https://media-cdn.tripadvisor.com/media/photo-m/1280/29/10/0e/2f/our-frontdesk-is-staffed.jpg"}]}}]}}]