[{"data": {"restaurantStyles": [], "restaurantPrice": [], "accommodationType": [], "restaurantTypes": [{"tag": {"categoryId": 230, "tagId": 10591, "tagName": "Restaurants", "tagNameLocalized": "Nha\u0300 ha\u0300ng", "translationKey": "tags_category_tag_restaurants"}}], "restaurantMealTypes": [{"tag": {"categoryId": 233, "tagId": 10606, "tagName": "Brunch", "tagNameLocalized": "B\u01b0\u0303a n\u01b0\u0309a bu\u00f4\u0309i", "translationKey": "tags_category_tag_brunch"}}, {"tag": {"categoryId": 233, "tagId": 10949, "tagName": "Drinks", "tagNameLocalized": "\u0110\u1ed3 u\u1ed1ng", "translationKey": "tags_category_tag_drinks"}}, {"tag": {"categoryId": 233, "tagId": 10598, "tagName": "Lunch", "tagNameLocalized": "B\u01b0\u0303a tr\u01b0a", "translationKey": "tags_category_tag_lunch"}}, {"tag": {"categoryId": 233, "tagId": 10599, "tagName": "Dinner", "tagNameLocalized": "B\u01b0\u0303a t\u00f4\u0301i", "translationKey": "tags_category_tag_dinner"}}], "restaurantDiningOptions": [{"tag": {"categoryId": 234, "tagId": 21379, "tagName": "Non-smoking restaurants", "tagNameLocalized": "Nh\u00e0 h\u00e0ng kh\u00f4ng h\u00fat thu\u1ed1c", "translationKey": "tags_category_tag_non_smoking_restaurants"}}, {"tag": {"categoryId": 234, "tagId": 11780, "tagName": "Accepts Credit Cards", "tagNameLocalized": "Ch\u1ea5p nh\u1eadn th\u1ebb t\u00edn d\u1ee5ng", "translationKey": "tags_category_tag_accepts_credit_cards"}}, {"tag": {"categoryId": 234, "tagId": 10602, "tagName": "Reservations", "tagNameLocalized": "\u0110\u0103\u0323t ch\u00f4\u0303", "translationKey": "tags_category_tag_reservations"}}, {"tag": {"categoryId": 234, "tagId": 10866, "tagName": "Accepts Mastercard", "tagNameLocalized": "Ch\u1ea5p nh\u1eadn th\u1ebb Mastercard", "translationKey": "tags_category_tag_accepts_mastercard"}}, {"tag": {"categoryId": 234, "tagId": 10854, "tagName": "Parking Available", "tagNameLocalized": "C\u00f3 b\u00e3i \u0111\u1ed7 xe", "translationKey": "tags_category_tag_parking_available"}}, {"tag": {"categoryId": 234, "tagId": 10601, "tagName": "Takeout", "tagNameLocalized": "C\u01b0\u0309a ha\u0300ng ba\u0301n th\u01b0\u0301c \u0103n mang v\u00ea\u0300", "translationKey": "tags_category_tag_takeout"}}, {"tag": {"categoryId": 234, "tagId": 10865, "tagName": "Accepts American Express", "tagNameLocalized": "Ch\u1ea5p nh\u1eadn th\u1ebb American Express", "translationKey": "tags_category_tag_accepts_american_express"}}, {"tag": {"categoryId": 234, "tagId": 10702, "tagName": "Private Dining", "tagNameLocalized": "\u0102n t\u1ed1i ph\u00f2ng ri\u00eang", "translationKey": "tags_category_tag_private_dining"}}, {"tag": {"categoryId": 234, "tagId": 10867, "tagName": "Accepts Visa", "tagNameLocalized": "Ch\u1ea5p nh\u1eadn th\u1ebb Visa", "translationKey": "tags_category_tag_accepts_visa"}}, {"tag": {"categoryId": 234, "tagId": 21907, "tagName": "Gift Cards Available", "tagNameLocalized": "C\u00f3 th\u1ebb qu\u00e0 t\u1eb7ng", "translationKey": "tags_category_tag_gift_cards_available"}}, {"tag": {"categoryId": 234, "tagId": 10871, "tagName": "Accepts Discover", "tagNameLocalized": "Ch\u1ea5p nh\u1eadn th\u1ebb Discover", "translationKey": "tags_category_tag_accepts_discover"}}, {"tag": {"categoryId": 234, "tagId": 10860, "tagName": "Highchairs Available", "tagNameLocalized": "C\u00f3 gh\u1ebf \u0103n cho b\u00e9", "translationKey": "tags_category_tag_highchairs_available"}}, {"tag": {"categoryId": 234, "tagId": 10870, "tagName": "Free Wifi", "tagNameLocalized": "Wifi mi\u1ec5n ph\u00ed", "translationKey": "tags_category_tag_free_wifi_restaurant_dining_options"}}, {"tag": {"categoryId": 234, "tagId": 10862, "tagName": "Serves Alcohol", "tagNameLocalized": "Ph\u1ee5c v\u1ee5 \u0111\u1ed3 u\u1ed1ng c\u00f3 c\u1ed3n", "translationKey": "tags_category_tag_serves_alcohol"}}, {"tag": {"categoryId": 234, "tagId": 10861, "tagName": "Wheelchair Accessible", "tagNameLocalized": "L\u1ed1i v\u00e0o ra cho xe l\u0103n", "translationKey": "tags_category_tag_wheelchair_accessible"}}, {"tag": {"categoryId": 234, "tagId": 10864, "tagName": "Wine and Beer", "tagNameLocalized": "R\u01b0\u1ee3u v\u00e0 bia", "translationKey": "tags_category_tag_wine_and_beer"}}, {"tag": {"categoryId": 234, "tagId": 10852, "tagName": "Seating", "tagNameLocalized": "Ch\u1ed7 ng\u1ed3i", "translationKey": "tags_category_tag_seating"}}, {"tag": {"categoryId": 234, "tagId": 10863, "tagName": "Full Bar", "tagNameLocalized": "Qu\u00e2\u0300y bar \u0111\u00e2\u0300y \u0111u\u0309", "translationKey": "tags_category_tag_full_bar"}}], "restaurantCuisines": [{"tag": {"categoryId": 231, "tagId": 5110, "tagName": "Mexican", "tagNameLocalized": "Ki\u00ea\u0309u Mexico", "translationKey": "tags_category_tag_mexican"}}], "locations": [{"accommodationType": "T_UNKNOWN", "countryId": 191, "hoursOfOperation": {"dailyTimeIntervals": [{"day": "MONDAY", "timeIntervals": [{"openingTime": {"hours": 11, "minutes": 0}, "closingTime": {"hours": 22, "minutes": 0}}]}, {"day": "TUESDAY", "timeIntervals": [{"openingTime": {"hours": 11, "minutes": 0}, "closingTime": {"hours": 22, "minutes": 0}}]}, {"day": "WEDNESDAY", "timeIntervals": [{"openingTime": {"hours": 11, "minutes": 0}, "closingTime": {"hours": 22, "minutes": 0}}]}, {"day": "THURSDAY", "timeIntervals": [{"openingTime": {"hours": 11, "minutes": 0}, "closingTime": {"hours": 22, "minutes": 0}}]}, {"day": "FRIDAY", "timeIntervals": [{"openingTime": {"hours": 11, "minutes": 0}, "closingTime": {"hours": 22, "minutes": 0}}]}, {"day": "SATURDAY", "timeIntervals": [{"openingTime": {"hours": 11, "minutes": 0}, "closingTime": {"hours": 22, "minutes": 0}}]}, {"day": "SUNDAY", "timeIntervals": [{"openingTime": {"hours": 11, "minutes": 0}, "closingTime": {"hours": 22, "minutes": 0}}]}]}, "isClosed": false, "isOwner": false, "latitude": 38.74289, "localizedDescriptions": [], "localizedNames": [], "locationId": 26186394, "locationV2": {"attractionTypes": []}, "longitude": -75.60377, "parentId": 33999, "placeType": "EATERY", "thumbnail": null, "absoluteOwnerManagementUrl": "https://www.tripadvisor.com.vn/RSManagementCenter-d26186394-Don_Chuy_Mexican_Restaurant?cat=0&geo=33999", "email": null, "geoName": "Bridgeville", "isoCountryCode": "US", "localizedName": "Don Chuy Mexican Restaurant", "name": "Don Chuy Mexican Restaurant", "locationDescription": null, "officialUrl": null, "postPhotosUrl": "/PostPhotos-d26186394", "telephone": "+1 302-349-7492", "url": "/Restaurant_Review-g33999-d26186394-Reviews-Don_Chuy_Mexican_Restaurant-Bridgeville_Delaware.html", "writeUserReviewUrl": "/UserReview-g33999-d26186394-Don_Chuy_Mexican_Restaurant-Bridgeville_Delaware.html", "localizedStreetAddress": {"city": "Bridgeville", "country": "Hoa K\u1ef3", "fullAddress": "18541 S Main St, Bridgeville, DE 19933", "postalCode": "19933", "state": "Delaware", "street1": "18541 S Main St", "street2": ""}, "streetAddress": {"street1": "18541 S Main St", "street2": "", "state": "Delaware", "city": "Bridgeville", "postalCode": "19933", "fullAddress": "18541 S Main St, Bridgeville, DE 19933"}, "localizedStreetAddresses": [{"street1": null, "street2": null, "fullAddress": "18541 S Main St, Bridgeville, DE 19933", "locale": "fr_BE"}, {"street1": null, "street2": null, "fullAddress": "18541 S Main St, Bridgeville, DE 19933", "locale": "es_MX"}, {"street1": null, "street2": null, "fullAddress": "18541 S Main St, Bridgeville, DE 19933", "locale": "es_VE"}, {"street1": null, "street2": null, "fullAddress": "18541 S Main St, Bridgeville, DE", "locale": "zh_TW"}, {"street1": null, "street2": null, "fullAddress": "18541 S Main St, Bridgeville, DE", "locale": "zh_HK"}, {"street1": null, "street2": null, "fullAddress": "18541 S Main St, Bridgeville, DE 19933", "locale": "it"}, {"street1": null, "street2": null, "fullAddress": "18541 S Main St, \ube0c\ub9bf\uc9c0\ube4c, DE", "locale": "ko"}, {"street1": null, "street2": null, "fullAddress": "18541 S Main St, Bridgeville, DE 19933", "locale": "es_CL"}, {"street1": null, "street2": null, "fullAddress": "18541 S Main St, Bridgeville, DE 19933", "locale": "fi"}, {"street1": null, "street2": null, "fullAddress": "18541 S Main St, Bridgeville, DE 19933", "locale": "pt_PT"}, {"street1": null, "street2": null, "fullAddress": "18541 S Main St, Bridgeville, DE 19933", "locale": "en_US"}, {"street1": null, "street2": null, "fullAddress": "18541 S Main St, Bridgeville, DE 19933", "locale": "th"}, {"street1": null, "street2": null, "fullAddress": "18541 S Main St, Bridgeville, DE 19933", "locale": "en_SG"}, {"street1": null, "street2": null, "fullAddress": "18541 S Main St, Bridgeville, DE 19933", "locale": "pt"}, {"street1": null, "street2": null, "fullAddress": "18541 S Main St, Bridgeville, DE 19933", "locale": "en_UK"}, {"street1": null, "street2": null, "fullAddress": "18541 S Main St, \u202bBridgeville\u202c, \u202bDelaware\u202c 19933", "locale": "ar"}, {"street1": null, "street2": null, "fullAddress": "18541 S Main St, Bridgeville, DE 19933", "locale": "ru"}, {"street1": null, "street2": null, "fullAddress": "18541 S Main St, Bridgeville, DE 19933", "locale": "en_NZ"}, {"street1": null, "street2": null, "fullAddress": "18541 S Main St, Bridgeville, DE 19933", "locale": "de_CH"}, {"street1": null, "street2": null, "fullAddress": "18541 S Main St, Bridgeville, DE 19933", "locale": "sk"}, {"street1": null, "street2": null, "fullAddress": "18541 S Main St, Bridgeville, DE 19933", "locale": "en_ZA"}, {"street1": null, "street2": null, "fullAddress": "18541 S Main St, Bridgeville, DE 19933", "locale": "sv"}, {"street1": null, "street2": null, "fullAddress": "18541 S Main St, Bridgeville, DE 19933", "locale": "cs"}, {"street1": null, "street2": null, "fullAddress": "18541 S Main St, Bridgeville, DE 19933", "locale": "el"}, {"street1": null, "street2": null, "fullAddress": "18541 S Main St, Bridgeville, DE 19933", "locale": "de_AT"}, {"street1": null, "street2": null, "fullAddress": "18541 S Main St, Bridgeville, DE 19933", "locale": "nl"}, {"street1": null, "street2": null, "fullAddress": "18541 S Main St, Bridgeville, DE 19933", "locale": "fr_CH"}, {"street1": null, "street2": null, "fullAddress": "18541 S Main St, Bridgeville, DE 19933", "locale": "hu"}, {"street1": null, "street2": null, "fullAddress": "18541 S Main St, Bridgeville, DE 19933", "locale": "en_AU"}, {"street1": null, "street2": null, "fullAddress": "18541 S Main St, Bridgeville, DE 19933", "locale": "in"}, {"street1": null, "street2": null, "fullAddress": "18541 S Main St, Bridgeville, DE 19933", "locale": "vi"}, {"street1": null, "street2": null, "fullAddress": "18541 S Main St, Bridgeville, DE 19933", "locale": "fr_CA"}, {"street1": null, "street2": null, "fullAddress": "18541 S Main St, Bridgeville, DE 19933", "locale": "es_AR"}, {"street1": null, "street2": null, "fullAddress": "18541 S Main St, \u202bBridgeville\u202c, \u202bDelaware\u202c 19933", "locale": "ar_EG"}, {"street1": null, "street2": null, "fullAddress": "18541 S Main St, Bridgeville, DE 19933", "locale": "sr"}, {"street1": null, "street2": null, "fullAddress": "18541 S Main St, Bridgeville, DE 19933", "locale": "en_MY"}, {"street1": null, "street2": null, "fullAddress": "18541 S Main St, Bridgeville, DE 19933", "locale": "it_CH"}, {"street1": null, "street2": null, "fullAddress": "18541 S Main St, Bridgeville, DE 19933", "locale": "da"}, {"street1": null, "street2": null, "fullAddress": "18541 S Main St, Bridgeville, DE 19933", "locale": "es"}, {"street1": null, "street2": null, "fullAddress": "18541 S Main St, Bridgeville, DE 19933", "locale": "tr"}, {"street1": null, "street2": null, "fullAddress": "18541 S Main St, Bridgeville, DE 19933", "locale": "en_HK"}, {"street1": null, "street2": null, "fullAddress": "18541 S Main St, Bridgeville, DE 19933", "locale": "en_IE"}, {"street1": null, "street2": null, "fullAddress": "18541 S Main St, Bridgeville, DE 19933", "locale": "en_CA"}, {"street1": null, "street2": null, "fullAddress": "18541 S Main St, Bridgeville, DE 19933", "locale": "nl_BE"}, {"street1": null, "street2": null, "fullAddress": "18541 S Main St, Bridgeville, DE 19933", "locale": "pl"}, {"street1": null, "street2": null, "fullAddress": "18541 S Main St, Bridgeville, DE 19933", "locale": "no"}, {"street1": null, "street2": null, "fullAddress": "18541 S Main St, Bridgeville, DE", "locale": "zh_CN"}, {"street1": null, "street2": null, "fullAddress": "18541 S Main St, Bridgeville, DE 19933", "locale": "es_CO"}, {"street1": null, "street2": null, "fullAddress": "18541 S Main St, Bridgeville, DE 19933", "locale": "fr"}, {"street1": null, "street2": null, "fullAddress": "18541 S Main St, \u30d6\u30ea\u30c3\u30b8\u30f4\u30a3\u30eb, DE", "locale": "ja"}, {"street1": null, "street2": null, "fullAddress": "18541 S Main St, \u202bBridgeville\u202c, DE 19933", "locale": "iw"}, {"street1": null, "street2": null, "fullAddress": "18541 S Main St, Bridgeville, DE 19933", "locale": "en_IN"}, {"street1": null, "street2": null, "fullAddress": "18541 S Main St, Bridgeville, DE 19933", "locale": "de"}, {"street1": null, "street2": null, "fullAddress": "18541 S Main St, Bridgeville, DE", "locale": "zh"}, {"street1": null, "street2": null, "fullAddress": "18541 S Main St, Bridgeville, DE 19933", "locale": "es_PE"}, {"street1": null, "street2": null, "fullAddress": "18541 S Main St, Bridgeville, DE 19933", "locale": "en_PH"}], "parents": [{"placeType": "CITY", "locationId": 33999, "name": "Bridgeville"}, {"placeType": "STATE", "locationId": 28929, "name": "Delaware"}, {"placeType": "COUNTRY", "locationId": 191, "name": "Hoa K\u1ef3"}, {"placeType": "CONTINENT", "locationId": 19, "name": "B\u0103\u0301c My\u0303"}, {"placeType": null, "locationId": 1, "name": "Th\u00ea\u0301 gi\u01a1\u0301i"}]}]}}]