[{"data": {"accommodationType": [], "restaurantStyles": [{"tag": {"categoryId": 235, "tagId": 10604, "tagName": "Families with children", "tagNameLocalized": "Gia \u0111i\u0300nh co\u0301 tre\u0309 em", "translationKey": "tags_category_tag_families_with_children"}}, {"tag": {"categoryId": 235, "tagId": 11777, "tagName": "Kids", "tagNameLocalized": "Tr\u1ebb em", "translationKey": "tags_category_tag_kids"}}], "restaurantTypes": [{"tag": {"categoryId": 230, "tagId": 10591, "tagName": "Restaurants", "tagNameLocalized": "Nha\u0300 ha\u0300ng", "translationKey": "tags_category_tag_restaurants"}}], "restaurantMealTypes": [{"tag": {"categoryId": 233, "tagId": 10598, "tagName": "Lunch", "tagNameLocalized": "B\u01b0\u0303a tr\u01b0a", "translationKey": "tags_category_tag_lunch"}}, {"tag": {"categoryId": 233, "tagId": 10599, "tagName": "Dinner", "tagNameLocalized": "B\u01b0\u0303a t\u00f4\u0301i", "translationKey": "tags_category_tag_dinner"}}], "restaurantDiningOptions": [{"tag": {"categoryId": 234, "tagId": 10601, "tagName": "Takeout", "tagNameLocalized": "C\u01b0\u0309a ha\u0300ng ba\u0301n th\u01b0\u0301c \u0103n mang v\u00ea\u0300", "translationKey": "tags_category_tag_takeout"}}, {"tag": {"categoryId": 234, "tagId": 21907, "tagName": "Gift Cards Available", "tagNameLocalized": "C\u00f3 th\u1ebb qu\u00e0 t\u1eb7ng", "translationKey": "tags_category_tag_gift_cards_available"}}, {"tag": {"categoryId": 234, "tagId": 10852, "tagName": "Seating", "tagNameLocalized": "Ch\u1ed7 ng\u1ed3i", "translationKey": "tags_category_tag_seating"}}], "restaurantPrice": [{"tag": {"categoryId": 240, "tagId": 10953, "tagName": "Cheap Eats", "tagNameLocalized": "\u0110\u00f4\u0300 \u0103n gia\u0301 re\u0309", "translationKey": "tags_category_tag_cheap_eats"}}], "restaurantCuisines": [{"tag": {"categoryId": 231, "tagId": 5110, "tagName": "Mexican", "tagNameLocalized": "Ki\u00ea\u0309u Mexico", "translationKey": "tags_category_tag_mexican"}}], "locations": [{"accommodationType": "T_UNKNOWN", "countryId": 191, "hoursOfOperation": {"dailyTimeIntervals": [{"day": "MONDAY", "timeIntervals": [{"openingTime": {"hours": 11, "minutes": 0}, "closingTime": {"hours": 20, "minutes": 0}}]}, {"day": "TUESDAY", "timeIntervals": [{"openingTime": {"hours": 11, "minutes": 0}, "closingTime": {"hours": 20, "minutes": 0}}]}, {"day": "WEDNESDAY", "timeIntervals": [{"openingTime": {"hours": 11, "minutes": 0}, "closingTime": {"hours": 20, "minutes": 0}}]}, {"day": "THURSDAY", "timeIntervals": [{"openingTime": {"hours": 11, "minutes": 0}, "closingTime": {"hours": 20, "minutes": 0}}]}, {"day": "FRIDAY", "timeIntervals": [{"openingTime": {"hours": 11, "minutes": 0}, "closingTime": {"hours": 20, "minutes": 0}}]}, {"day": "SATURDAY", "timeIntervals": [{"openingTime": {"hours": 11, "minutes": 0}, "closingTime": {"hours": 20, "minutes": 0}}]}, {"day": "SUNDAY", "timeIntervals": [{"openingTime": {"hours": 11, "minutes": 0}, "closingTime": {"hours": 20, "minutes": 0}}]}]}, "isClosed": false, "isOwner": false, "latitude": 39.84569, "localizedDescriptions": [], "localizedNames": [], "locationId": 2648743, "locationV2": {"attractionTypes": []}, "longitude": -75.71102, "parentId": 52926, "placeType": "EATERY", "absoluteOwnerManagementUrl": "https://www.tripadvisor.com.vn/RSManagementCenter-d2648743-Michoacana_Grill?cat=0&geo=52926", "email": "michoacanagrillkennett@gmail.com", "geoName": "Kennett Square", "isoCountryCode": "US", "localizedName": "Michoacana Grill", "name": "Michoacana Grill", "locationDescription": null, "officialUrl": "http://michoacanagrillkennett.com", "postPhotosUrl": "/PostPhotos-d2648743", "telephone": "+1 610-444-8979", "url": "/Restaurant_Review-g52926-d2648743-Reviews-Michoacana_Grill-Kennett_Square_Pennsylvania.html", "writeUserReviewUrl": "/UserReview-g52926-d2648743-Michoacana_Grill-Kennett_Square_Pennsylvania.html", "localizedStreetAddress": {"city": "Kennett Square", "country": "Hoa K\u1ef3", "fullAddress": "201 S Union St, Kennett Square, PA 19348-3330", "postalCode": "19348-3330", "state": "Pennsylvania:", "street1": "201 S Union St", "street2": ""}, "streetAddress": {"street1": "201 S Union St", "street2": "", "state": "Pennsylvania:", "city": "Kennett Square", "postalCode": "19348-3330", "fullAddress": "201 S Union St, Kennett Square, PA 19348-3330"}, "localizedStreetAddresses": [{"street1": null, "street2": null, "fullAddress": "201 S Union St, Kennett Square, PA 19348-3330", "locale": "es_MX"}, {"street1": null, "street2": null, "fullAddress": "201 S Union St, Kennett Square, PA 19348-3330", "locale": "fr_BE"}, {"street1": null, "street2": null, "fullAddress": "201 S Union St, Kennett Square, PA 19348-3330", "locale": "es_VE"}, {"street1": null, "street2": null, "fullAddress": "201 S Union St, \u80af\u5c3c\u7279\u65af\u594e\u723e, PA", "locale": "zh_HK"}, {"street1": null, "street2": null, "fullAddress": "201 S Union St, \u80af\u5c3c\u7279\u65af\u594e\u723e, PA", "locale": "zh_TW"}, {"street1": null, "street2": null, "fullAddress": "201 S Union St, Kennett Square, PA 19348-3330", "locale": "it"}, {"street1": null, "street2": null, "fullAddress": "201 S Union St, \ucf00\ub137\ud2b8 \uc2a4\ud018\uc5b4, PA", "locale": "ko"}, {"street1": null, "street2": null, "fullAddress": "201 S Union St, Kennett Square, PA 19348-3330", "locale": "es_CL"}, {"street1": null, "street2": null, "fullAddress": "201 S Union St, Kennett Square, PA 19348-3330", "locale": "fi"}, {"street1": null, "street2": null, "fullAddress": "201 S Union St, Kennett Square, PA 19348-3330", "locale": "pt_PT"}, {"street1": null, "street2": null, "fullAddress": "201 S Union St, Kennett Square, PA 19348-3330", "locale": "en_US"}, {"street1": null, "street2": null, "fullAddress": "201 S Union St, \u0e40\u0e04\u0e19\u0e40\u0e19\u0e15\u0e15\u0e4c\u0e2a\u0e41\u0e04\u0e27\u0e23\u0e4c, PA 19348-3330", "locale": "th"}, {"street1": null, "street2": null, "fullAddress": "201 S Union St, Kennett Square, PA 19348-3330", "locale": "en_SG"}, {"street1": null, "street2": null, "fullAddress": "201 S Union St, Kennett Square, PA 19348-3330", "locale": "pt"}, {"street1": null, "street2": null, "fullAddress": "201 S Union St, Kennett Square, PA 19348-3330", "locale": "en_UK"}, {"street1": null, "street2": null, "fullAddress": "201 S Union St, \u202bKennett Square\u202c, \u0628\u0646\u0633\u064a\u0644\u0641\u0627\u0646\u064a\u0627 19348-3330", "locale": "ar"}, {"street1": null, "street2": null, "fullAddress": "201 S Union St, \u041a\u0435\u043d\u043d\u0435\u0442-\u0421\u043a\u0432\u0435\u0440, PA 19348-3330", "locale": "ru"}, {"street1": null, "street2": null, "fullAddress": "201 S Union St, Kennett Square, PA 19348-3330", "locale": "en_NZ"}, {"street1": null, "street2": null, "fullAddress": "201 S Union St, Kennett Square, PA 19348-3330", "locale": "de_CH"}, {"street1": null, "street2": null, "fullAddress": "201 S Union St, Kennett Square, PA 19348-3330", "locale": "sk"}, {"street1": null, "street2": null, "fullAddress": "201 S Union St, Kennett Square, PA 19348-3330", "locale": "en_ZA"}, {"street1": null, "street2": null, "fullAddress": "201 S Union St, Kennett Square, PA 19348-3330", "locale": "sv"}, {"street1": null, "street2": null, "fullAddress": "201 S Union St, Kennett Square, PA 19348-3330", "locale": "cs"}, {"street1": null, "street2": null, "fullAddress": "201 S Union St, Kennett Square, PA 19348-3330", "locale": "el"}, {"street1": null, "street2": null, "fullAddress": "201 S Union St, Kennett Square, PA 19348-3330", "locale": "de_AT"}, {"street1": null, "street2": null, "fullAddress": "201 S Union St, Kennett Square, PA 19348-3330", "locale": "nl"}, {"street1": null, "street2": null, "fullAddress": "201 S Union St, Kennett Square, PA 19348-3330", "locale": "fr_CH"}, {"street1": null, "street2": null, "fullAddress": "201 S Union St, Kennett Square, PA 19348-3330", "locale": "hu"}, {"street1": null, "street2": null, "fullAddress": "201 S Union St, Kennett Square, PA 19348-3330", "locale": "en_AU"}, {"street1": null, "street2": null, "fullAddress": "201 S Union St, Kennett Square, PA 19348-3330", "locale": "in"}, {"street1": null, "street2": null, "fullAddress": "201 S Union St, Kennett Square, PA 19348-3330", "locale": "vi"}, {"street1": null, "street2": null, "fullAddress": "201 S Union St, Kennett Square, PA 19348-3330", "locale": "fr_CA"}, {"street1": null, "street2": null, "fullAddress": "201 S Union St, Kennett Square, PA 19348-3330", "locale": "es_AR"}, {"street1": null, "street2": null, "fullAddress": "201 S Union St, \u202bKennett Square\u202c, \u0628\u0646\u0633\u064a\u0644\u0641\u0627\u0646\u064a\u0627 19348-3330", "locale": "ar_EG"}, {"street1": null, "street2": null, "fullAddress": "201 S Union St, Kennett Square, PA 19348-3330", "locale": "en_MY"}, {"street1": null, "street2": null, "fullAddress": "201 S Union St, Kennett Square, PA 19348-3330", "locale": "sr"}, {"street1": null, "street2": null, "fullAddress": "201 S Union St, Kennett Square, PA 19348-3330", "locale": "it_CH"}, {"street1": null, "street2": null, "fullAddress": "201 S Union St, Kennett Square, PA 19348-3330", "locale": "da"}, {"street1": null, "street2": null, "fullAddress": "201 S Union St, Kennett Square, PA 19348-3330", "locale": "es"}, {"street1": null, "street2": null, "fullAddress": "201 S Union St, Kennett Square, PA 19348-3330", "locale": "tr"}, {"street1": null, "street2": null, "fullAddress": "201 S Union St, Kennett Square, PA 19348-3330", "locale": "en_HK"}, {"street1": null, "street2": null, "fullAddress": "201 S Union St, Kennett Square, PA 19348-3330", "locale": "en_IE"}, {"street1": null, "street2": null, "fullAddress": "201 S Union St, Kennett Square, PA 19348-3330", "locale": "en_CA"}, {"street1": null, "street2": null, "fullAddress": "201 S Union St, Kennett Square, PA 19348-3330", "locale": "no"}, {"street1": null, "street2": null, "fullAddress": "201 S Union St, Kennett Square, PA 19348-3330", "locale": "pl"}, {"street1": null, "street2": null, "fullAddress": "201 S Union St, Kennett Square, PA 19348-3330", "locale": "nl_BE"}, {"street1": null, "street2": null, "fullAddress": "201 S Union St, \u80af\u5c3c\u7279\u65af\u594e\u5c14, PA", "locale": "zh_CN"}, {"street1": null, "street2": null, "fullAddress": "201 S Union St, Kennett Square, PA 19348-3330", "locale": "es_CO"}, {"street1": null, "street2": null, "fullAddress": "201 S Union St, Kennett Square, PA 19348-3330", "locale": "fr"}, {"street1": null, "street2": null, "fullAddress": "201 S Union St, \u30b1\u30cd\u30c3\u30c8 \u30b9\u30af\u30a8\u30a2, PA", "locale": "ja"}, {"street1": null, "street2": null, "fullAddress": "201 S Union St, \u05e7\u05e0\u05d8 \u05e1\u05e7\u05d5\u05d5\u05e8, PA 19348-3330", "locale": "iw"}, {"street1": null, "street2": null, "fullAddress": "201 S Union St, Kennett Square, PA 19348-3330", "locale": "en_IN"}, {"street1": null, "street2": null, "fullAddress": "201 S Union St, Kennett Square, PA 19348-3330", "locale": "de"}, {"street1": null, "street2": null, "fullAddress": "201 S Union St, \u80af\u5c3c\u7279\u65af\u594e\u5c14, PA", "locale": "zh"}, {"street1": null, "street2": null, "fullAddress": "201 S Union St, Kennett Square, PA 19348-3330", "locale": "es_PE"}, {"street1": null, "street2": null, "fullAddress": "201 S Union St, Kennett Square, PA 19348-3330", "locale": "en_PH"}], "parents": [{"placeType": "CITY", "locationId": 52926, "name": "Kennett Square"}, {"placeType": "STATE", "locationId": 28959, "name": "Pennsylvania:"}, {"placeType": "COUNTRY", "locationId": 191, "name": "Hoa K\u1ef3"}, {"placeType": "CONTINENT", "locationId": 19, "name": "B\u0103\u0301c My\u0303"}, {"placeType": null, "locationId": 1, "name": "Th\u00ea\u0301 gi\u01a1\u0301i"}], "thumbnail": {"title": "Authentic fresh Mexican food, carefully prepared.", "photoSizes": [{"height": 0, "isHorizontal": true, "width": 0, "url": "https://dynamic-media-cdn.tripadvisor.com/media/photo-o/07/e9/85/9a/authentic-fresh-mexican.jpg?w=100&h=100&s=1"}, {"height": 50, "isHorizontal": true, "width": 50, "url": "https://media-cdn.tripadvisor.com/media/photo-t/07/e9/85/9a/authentic-fresh-mexican.jpg"}, {"height": 150, "isHorizontal": true, "width": 150, "url": "https://media-cdn.tripadvisor.com/media/photo-l/07/e9/85/9a/authentic-fresh-mexican.jpg"}, {"height": 188, "isHorizontal": true, "width": 250, "url": "https://media-cdn.tripadvisor.com/media/photo-f/07/e9/85/9a/authentic-fresh-mexican.jpg"}, {"height": 413, "isHorizontal": true, "width": 550, "url": "https://media-cdn.tripadvisor.com/media/photo-s/07/e9/85/9a/authentic-fresh-mexican.jpg"}, {"height": 768, "isHorizontal": true, "width": 1024, "url": "https://media-cdn.tripadvisor.com/media/photo-w/07/e9/85/9a/authentic-fresh-mexican.jpg"}, {"height": 1536, "isHorizontal": true, "width": 2048, "url": "https://media-cdn.tripadvisor.com/media/photo-o/07/e9/85/9a/authentic-fresh-mexican.jpg"}]}}]}}]