[{"data": {"restaurantStyles": [], "restaurantDiningOptions": [], "restaurantPrice": [], "accommodationType": [], "restaurantTypes": [{"tag": {"categoryId": 230, "tagId": 10591, "tagName": "Restaurants", "tagNameLocalized": "Nha\u0300 ha\u0300ng", "translationKey": "tags_category_tag_restaurants"}}], "restaurantMealTypes": [{"tag": {"categoryId": 233, "tagId": 10599, "tagName": "Dinner", "tagNameLocalized": "B\u01b0\u0303a t\u00f4\u0301i", "translationKey": "tags_category_tag_dinner"}}], "restaurantCuisines": [{"tag": {"categoryId": 231, "tagId": 10648, "tagName": "International", "tagNameLocalized": "Qu\u00f4\u0301c t\u00ea\u0301", "translationKey": "tags_category_tag_international"}}, {"tag": {"categoryId": 231, "tagId": 10669, "tagName": "Contemporary", "tagNameLocalized": "\u0110\u01b0\u01a1ng \u0111a\u0323i", "translationKey": "tags_category_tag_contemporary"}}, {"tag": {"categoryId": 231, "tagId": 10670, "tagName": "Pub", "tagNameLocalized": "Qua\u0301n r\u01b0\u01a1\u0323u", "translationKey": "tags_category_tag_pub"}}, {"tag": {"categoryId": 231, "tagId": 10640, "tagName": "Bar", "tagNameLocalized": "Qu\u00e2\u0300y bar", "translationKey": "tags_category_tag_bar"}}], "locations": [{"accommodationType": "T_UNKNOWN", "countryId": 191, "hoursOfOperation": {"dailyTimeIntervals": [{"day": "MONDAY", "timeIntervals": []}, {"day": "TUESDAY", "timeIntervals": []}, {"day": "WEDNESDAY", "timeIntervals": [{"openingTime": {"hours": 17, "minutes": 0}, "closingTime": {"hours": 23, "minutes": 0}}]}, {"day": "THURSDAY", "timeIntervals": [{"openingTime": {"hours": 17, "minutes": 0}, "closingTime": {"hours": 23, "minutes": 0}}]}, {"day": "FRIDAY", "timeIntervals": [{"openingTime": {"hours": 17, "minutes": 0}, "closingTime": {"hours": 0, "minutes": 0}}]}, {"day": "SATURDAY", "timeIntervals": [{"openingTime": {"hours": 17, "minutes": 0}, "closingTime": {"hours": 0, "minutes": 0}}]}, {"day": "SUNDAY", "timeIntervals": []}]}, "isClosed": false, "isOwner": false, "latitude": 39.758465, "localizedDescriptions": [], "localizedNames": [], "locationId": 26712108, "locationV2": {"attractionTypes": []}, "longitude": -75.56273, "parentId": 34059, "placeType": "EATERY", "thumbnail": null, "absoluteOwnerManagementUrl": "https://www.tripadvisor.com.vn/RSManagementCenter-d26712108-Crow_Bar_Trolley_Square?cat=0&geo=34059", "email": null, "geoName": "Wilmington", "isoCountryCode": "US", "localizedName": "Crow Bar - Trolley Square", "name": "Crow Bar - Trolley Square", "locationDescription": null, "officialUrl": "https://www.crowbarwilmington.com/", "postPhotosUrl": "/PostPhotos-d26712108", "telephone": "+1 302-482-1241", "url": "/Restaurant_Review-g34059-d26712108-Reviews-Crow_Bar_Trolley_Square-Wilmington_Delaware.html", "writeUserReviewUrl": "/UserReview-g34059-d26712108-Crow_Bar_Trolley_Square-Wilmington_Delaware.html", "localizedStreetAddress": {"city": "Wilmington", "country": "Hoa K\u1ef3", "fullAddress": "1711 Delaware Ave, Wilmington, DE 19806-2329", "postalCode": "19806-2329", "state": "Delaware", "street1": "1711 Delaware Ave", "street2": ""}, "streetAddress": {"street1": "1711 Delaware Ave", "street2": "", "state": "Delaware", "city": "Wilmington", "postalCode": "19806-2329", "fullAddress": "1711 Delaware Ave, Wilmington, DE 19806-2329"}, "localizedStreetAddresses": [{"street1": null, "street2": null, "fullAddress": "1711 Delaware Ave, Wilmington, DE 19806-2329", "locale": "es_MX"}, {"street1": null, "street2": null, "fullAddress": "1711 Delaware Ave, Wilmington, DE 19806-2329", "locale": "fr_BE"}, {"street1": null, "street2": null, "fullAddress": "1711 Delaware Ave, Wilmington, DE 19806-2329", "locale": "es_VE"}, {"street1": null, "street2": null, "fullAddress": "1711 Delaware Ave, \u5a01\u723e\u660e\u9813, DE", "locale": "zh_HK"}, {"street1": null, "street2": null, "fullAddress": "1711 Delaware Ave, \u5a01\u723e\u660e\u9813, DE", "locale": "zh_TW"}, {"street1": null, "street2": null, "fullAddress": "1711 Delaware Ave, Wilmington, DE 19806-2329", "locale": "it"}, {"street1": null, "street2": null, "fullAddress": "1711 Delaware Ave, \uc70c\ubc0d\ud134, DE", "locale": "ko"}, {"street1": null, "street2": null, "fullAddress": "1711 Delaware Ave, Wilmington, DE 19806-2329", "locale": "es_CL"}, {"street1": null, "street2": null, "fullAddress": "1711 Delaware Ave, Wilmington, DE 19806-2329", "locale": "fi"}, {"street1": null, "street2": null, "fullAddress": "1711 Delaware Ave, Wilmington, DE 19806-2329", "locale": "pt_PT"}, {"street1": null, "street2": null, "fullAddress": "1711 Delaware Ave, Wilmington, DE 19806-2329", "locale": "en_US"}, {"street1": null, "street2": null, "fullAddress": "1711 Delaware Ave, \u0e27\u0e34\u0e25\u0e21\u0e34\u0e07\u0e15\u0e31\u0e19, DE 19806-2329", "locale": "th"}, {"street1": null, "street2": null, "fullAddress": "1711 Delaware Ave, Wilmington, DE 19806-2329", "locale": "en_SG"}, {"street1": null, "street2": null, "fullAddress": "1711 Delaware Ave, Wilmington, DE 19806-2329", "locale": "pt"}, {"street1": null, "street2": null, "fullAddress": "1711 Delaware Ave, Wilmington, DE 19806-2329", "locale": "en_UK"}, {"street1": null, "street2": null, "fullAddress": "1711 Delaware Ave, \u202bWilmington\u202c, \u202bDelaware\u202c 19806-2329", "locale": "ar"}, {"street1": null, "street2": null, "fullAddress": "1711 Delaware Ave, \u0423\u0438\u043b\u043c\u0438\u043d\u0433\u0442\u043e\u043d, DE 19806-2329", "locale": "ru"}, {"street1": null, "street2": null, "fullAddress": "1711 Delaware Ave, Wilmington, DE 19806-2329", "locale": "en_NZ"}, {"street1": null, "street2": null, "fullAddress": "1711 Delaware Ave, Wilmington, DE 19806-2329", "locale": "de_CH"}, {"street1": null, "street2": null, "fullAddress": "1711 Delaware Ave, Wilmington, DE 19806-2329", "locale": "sk"}, {"street1": null, "street2": null, "fullAddress": "1711 Delaware Ave, Wilmington, DE 19806-2329", "locale": "en_ZA"}, {"street1": null, "street2": null, "fullAddress": "1711 Delaware Ave, Wilmington, DE 19806-2329", "locale": "sv"}, {"street1": null, "street2": null, "fullAddress": "1711 Delaware Ave, Wilmington, DE 19806-2329", "locale": "cs"}, {"street1": null, "street2": null, "fullAddress": "1711 Delaware Ave, \u0393\u03bf\u03c5\u03af\u03bb\u03bc\u03b9\u03bd\u03b3\u03ba\u03c4\u03bf\u03bd, DE 19806-2329", "locale": "el"}, {"street1": null, "street2": null, "fullAddress": "1711 Delaware Ave, Wilmington, DE 19806-2329", "locale": "de_AT"}, {"street1": null, "street2": null, "fullAddress": "1711 Delaware Ave, Wilmington, DE 19806-2329", "locale": "nl"}, {"street1": null, "street2": null, "fullAddress": "1711 Delaware Ave, Wilmington, DE 19806-2329", "locale": "fr_CH"}, {"street1": null, "street2": null, "fullAddress": "1711 Delaware Ave, Wilmington, DE 19806-2329", "locale": "hu"}, {"street1": null, "street2": null, "fullAddress": "1711 Delaware Ave, Wilmington, DE 19806-2329", "locale": "en_AU"}, {"street1": null, "street2": null, "fullAddress": "1711 Delaware Ave, Wilmington, DE 19806-2329", "locale": "in"}, {"street1": null, "street2": null, "fullAddress": "1711 Delaware Ave, Wilmington, DE 19806-2329", "locale": "vi"}, {"street1": null, "street2": null, "fullAddress": "1711 Delaware Ave, Wilmington, DE 19806-2329", "locale": "fr_CA"}, {"street1": null, "street2": null, "fullAddress": "1711 Delaware Ave, Wilmington, DE 19806-2329", "locale": "es_AR"}, {"street1": null, "street2": null, "fullAddress": "1711 Delaware Ave, \u202bWilmington\u202c, \u202bDelaware\u202c 19806-2329", "locale": "ar_EG"}, {"street1": null, "street2": null, "fullAddress": "1711 Delaware Ave, Wilmington, DE 19806-2329", "locale": "en_MY"}, {"street1": null, "street2": null, "fullAddress": "1711 Delaware Ave, Wilmington, DE 19806-2329", "locale": "sr"}, {"street1": null, "street2": null, "fullAddress": "1711 Delaware Ave, Wilmington, DE 19806-2329", "locale": "it_CH"}, {"street1": null, "street2": null, "fullAddress": "1711 Delaware Ave, Wilmington, DE 19806-2329", "locale": "da"}, {"street1": null, "street2": null, "fullAddress": "1711 Delaware Ave, Wilmington, DE 19806-2329", "locale": "es"}, {"street1": null, "street2": null, "fullAddress": "1711 Delaware Ave, Wilmington, DE 19806-2329", "locale": "tr"}, {"street1": null, "street2": null, "fullAddress": "1711 Delaware Ave, Wilmington, DE 19806-2329", "locale": "en_HK"}, {"street1": null, "street2": null, "fullAddress": "1711 Delaware Ave, Wilmington, DE 19806-2329", "locale": "en_IE"}, {"street1": null, "street2": null, "fullAddress": "1711 Delaware Ave, Wilmington, DE 19806-2329", "locale": "en_CA"}, {"street1": null, "street2": null, "fullAddress": "1711 Delaware Ave, Wilmington, DE 19806-2329", "locale": "nl_BE"}, {"street1": null, "street2": null, "fullAddress": "1711 Delaware Ave, Wilmington, DE 19806-2329", "locale": "pl"}, {"street1": null, "street2": null, "fullAddress": "1711 Delaware Ave, Wilmington, DE 19806-2329", "locale": "no"}, {"street1": null, "street2": null, "fullAddress": "1711 Delaware Ave, \u5a01\u5c14\u660e\u987f, DE", "locale": "zh_CN"}, {"street1": null, "street2": null, "fullAddress": "1711 Delaware Ave, Wilmington, DE 19806-2329", "locale": "es_CO"}, {"street1": null, "street2": null, "fullAddress": "1711 Delaware Ave, Wilmington, DE 19806-2329", "locale": "fr"}, {"street1": null, "street2": null, "fullAddress": "1711 Delaware Ave, \u30a6\u30a3\u30eb\u30df\u30f3\u30c8\u30f3, DE", "locale": "ja"}, {"street1": null, "street2": null, "fullAddress": "1711 Delaware Ave, \u05d5\u05d5\u05d9\u05dc\u05de\u05d9\u05e0\u05d2\u05d8\u05d5\u05df, DE 19806-2329", "locale": "iw"}, {"street1": null, "street2": null, "fullAddress": "1711 Delaware Ave, Wilmington, DE 19806-2329", "locale": "en_IN"}, {"street1": null, "street2": null, "fullAddress": "1711 Delaware Ave, Wilmington, DE 19806-2329", "locale": "de"}, {"street1": null, "street2": null, "fullAddress": "1711 Delaware Ave, \u5a01\u5c14\u660e\u987f, DE", "locale": "zh"}, {"street1": null, "street2": null, "fullAddress": "1711 Delaware Ave, Wilmington, DE 19806-2329", "locale": "es_PE"}, {"street1": null, "street2": null, "fullAddress": "1711 Delaware Ave, Wilmington, DE 19806-2329", "locale": "en_PH"}], "parents": [{"placeType": "CITY", "locationId": 34059, "name": "Wilmington"}, {"placeType": "STATE", "locationId": 28929, "name": "Delaware"}, {"placeType": "COUNTRY", "locationId": 191, "name": "Hoa K\u1ef3"}, {"placeType": "CONTINENT", "locationId": 19, "name": "B\u0103\u0301c My\u0303"}, {"placeType": null, "locationId": 1, "name": "Th\u00ea\u0301 gi\u01a1\u0301i"}]}]}}]