[{"data": {"restaurantPrice": [], "accommodationType": [], "restaurantStyles": [{"tag": {"categoryId": 235, "tagId": 16550, "tagName": "Hidden Gems - Restaurant Styles", "tagNameLocalized": "Vi\u00ean ngo\u0323c \u00e2\u0309n", "translationKey": "tags_category_tag_hidden_gems_restaurant_styles"}}, {"tag": {"categoryId": 235, "tagId": 10613, "tagName": "Local cuisine", "tagNameLocalized": "Mo\u0301n \u0103n \u0111i\u0323a ph\u01b0\u01a1ng", "translationKey": "tags_category_tag_local_cuisine"}}, {"tag": {"categoryId": 235, "tagId": 12504, "tagName": "Hot New Restaurants", "tagNameLocalized": "Nh\u00e0 h\u00e0ng m\u1edbi n\u1ed5i b\u1eadt", "translationKey": "tags_category_tag_hot_new_restaurants"}}, {"tag": {"categoryId": 235, "tagId": 10604, "tagName": "Families with children", "tagNameLocalized": "Gia \u0111i\u0300nh co\u0301 tre\u0309 em", "translationKey": "tags_category_tag_families_with_children"}}], "restaurantTypes": [{"tag": {"categoryId": 230, "tagId": 10591, "tagName": "Restaurants", "tagNameLocalized": "Nha\u0300 ha\u0300ng", "translationKey": "tags_category_tag_restaurants"}}], "restaurantMealTypes": [{"tag": {"categoryId": 233, "tagId": 10704, "tagName": "Late Night", "tagNameLocalized": "\u0110\u00eam mu\u00f4\u0323n", "translationKey": "tags_category_tag_late_night"}}, {"tag": {"categoryId": 233, "tagId": 10599, "tagName": "Dinner", "tagNameLocalized": "B\u01b0\u0303a t\u00f4\u0301i", "translationKey": "tags_category_tag_dinner"}}], "restaurantDiningOptions": [{"tag": {"categoryId": 234, "tagId": 10855, "tagName": "Street Parking", "tagNameLocalized": "B\u00e3i \u0111\u1ed7 xe \u0111\u01b0\u1eddng ph\u1ed1", "translationKey": "tags_category_tag_street_parking"}}, {"tag": {"categoryId": 234, "tagId": 10601, "tagName": "Takeout", "tagNameLocalized": "C\u01b0\u0309a ha\u0300ng ba\u0301n th\u01b0\u0301c \u0103n mang v\u00ea\u0300", "translationKey": "tags_category_tag_takeout"}}, {"tag": {"categoryId": 234, "tagId": 11780, "tagName": "Accepts Credit Cards", "tagNameLocalized": "Ch\u1ea5p nh\u1eadn th\u1ebb t\u00edn d\u1ee5ng", "translationKey": "tags_category_tag_accepts_credit_cards"}}, {"tag": {"categoryId": 234, "tagId": 10852, "tagName": "Seating", "tagNameLocalized": "Ch\u1ed7 ng\u1ed3i", "translationKey": "tags_category_tag_seating"}}], "restaurantCuisines": [{"tag": {"categoryId": 231, "tagId": 10660, "tagName": "Thai", "tagNameLocalized": "Ki\u1ec3u Tha\u0301i", "translationKey": "tags_category_tag_thai"}}], "locations": [{"accommodationType": "T_UNKNOWN", "countryId": 191, "hoursOfOperation": {"dailyTimeIntervals": [{"day": "MONDAY", "timeIntervals": [{"openingTime": {"hours": 16, "minutes": 0}, "closingTime": {"hours": 2, "minutes": 0}}]}, {"day": "TUESDAY", "timeIntervals": [{"openingTime": {"hours": 16, "minutes": 0}, "closingTime": {"hours": 2, "minutes": 0}}]}, {"day": "WEDNESDAY", "timeIntervals": [{"openingTime": {"hours": 16, "minutes": 0}, "closingTime": {"hours": 2, "minutes": 0}}]}, {"day": "THURSDAY", "timeIntervals": [{"openingTime": {"hours": 16, "minutes": 0}, "closingTime": {"hours": 2, "minutes": 0}}]}, {"day": "FRIDAY", "timeIntervals": [{"openingTime": {"hours": 16, "minutes": 0}, "closingTime": {"hours": 2, "minutes": 0}}]}, {"day": "SATURDAY", "timeIntervals": [{"openingTime": {"hours": 16, "minutes": 0}, "closingTime": {"hours": 2, "minutes": 0}}]}, {"day": "SUNDAY", "timeIntervals": [{"openingTime": {"hours": 16, "minutes": 0}, "closingTime": {"hours": 2, "minutes": 0}}]}]}, "isClosed": false, "isOwner": false, "latitude": 39.920185, "localizedDescriptions": [], "localizedNames": [], "locationId": 26865395, "locationV2": {"attractionTypes": []}, "longitude": -75.16048, "parentId": 60795, "placeType": "EATERY", "thumbnail": null, "absoluteOwnerManagementUrl": "https://www.tripadvisor.com.vn/RSManagementCenter-d26865395-Every_Thai?cat=0&geo=60795", "email": "everythaiphilly@hotmail.com", "geoName": "Philadelphia", "isoCountryCode": "US", "localizedName": "Every Thai", "name": "Every Thai", "locationDescription": null, "officialUrl": "https://www.everythaiphilly.com", "postPhotosUrl": "/PostPhotos-d26865395", "telephone": "+1 215-315-8365", "url": "/Restaurant_Review-g60795-d26865395-Reviews-Every_Thai-Philadelphia_Pennsylvania.html", "writeUserReviewUrl": "/UserReview-g60795-d26865395-Every_Thai-Philadelphia_Pennsylvania.html", "localizedStreetAddress": {"city": "Philadelphia", "country": "Hoa K\u1ef3", "fullAddress": "800 West Moyamensing Avenue, Philadelphia, PA 19148", "postalCode": "19148", "state": "Pennsylvania:", "street1": "800 West Moyamensing Avenue", "street2": ""}, "streetAddress": {"street1": "800 West Moyamensing Avenue", "street2": "", "state": "Pennsylvania:", "city": "Philadelphia", "postalCode": "19148", "fullAddress": "800 West Moyamensing Avenue, Philadelphia, PA 19148"}, "localizedStreetAddresses": [{"street1": null, "street2": null, "fullAddress": "800 West Moyamensing Avenue, Filadelfia, PA 19148", "locale": "es_MX"}, {"street1": null, "street2": null, "fullAddress": "800 West Moyamensing Avenue, Philadelphie, PA 19148", "locale": "fr_BE"}, {"street1": null, "street2": null, "fullAddress": "800 West Moyamensing Avenue, Filadelfia, PA 19148", "locale": "es_VE"}, {"street1": null, "street2": null, "fullAddress": "800 West Moyamensing Avenue, \u8cbb\u57ce, PA", "locale": "zh_TW"}, {"street1": null, "street2": null, "fullAddress": "800 West Moyamensing Avenue, \u8cbb\u57ce, PA", "locale": "zh_HK"}, {"street1": null, "street2": null, "fullAddress": "800 West Moyamensing Avenue, Philadelphia, PA 19148", "locale": "it"}, {"street1": null, "street2": null, "fullAddress": "800 West Moyamensing Avenue, \ud544\ub77c\ub378\ud53c\uc544, PA", "locale": "ko"}, {"street1": null, "street2": null, "fullAddress": "800 West Moyamensing Avenue, Filadelfia, PA 19148", "locale": "es_CL"}, {"street1": null, "street2": null, "fullAddress": "800 West Moyamensing Avenue, Philadelphia, PA 19148", "locale": "fi"}, {"street1": null, "street2": null, "fullAddress": "800 West Moyamensing Avenue, Filad\u00e9lfia, PA 19148", "locale": "pt_PT"}, {"street1": null, "street2": null, "fullAddress": "800 West Moyamensing Avenue, Philadelphia, PA 19148", "locale": "en_US"}, {"street1": null, "street2": null, "fullAddress": "800 West Moyamensing Avenue, \u0e1f\u0e34\u0e25\u0e32\u0e40\u0e14\u0e25\u0e40\u0e1f\u0e35\u0e22, PA 19148", "locale": "th"}, {"street1": null, "street2": null, "fullAddress": "800 West Moyamensing Avenue, Philadelphia, PA 19148", "locale": "en_SG"}, {"street1": null, "street2": null, "fullAddress": "800 West Moyamensing Avenue, Philadelphia, PA 19148", "locale": "en_UK"}, {"street1": null, "street2": null, "fullAddress": "800 West Moyamensing Avenue, Filad\u00e9lfia, PA 19148", "locale": "pt"}, {"street1": null, "street2": null, "fullAddress": "800 West Moyamensing Avenue, \u0641\u064a\u0644\u0627\u062f\u0644\u0641\u064a\u0627, \u0628\u0646\u0633\u064a\u0644\u0641\u0627\u0646\u064a\u0627 19148", "locale": "ar"}, {"street1": null, "street2": null, "fullAddress": "800 West Moyamensing Avenue, \u0424\u0438\u043b\u0430\u0434\u0435\u043b\u044c\u0444\u0438\u044f, PA 19148", "locale": "ru"}, {"street1": null, "street2": null, "fullAddress": "800 West Moyamensing Avenue, Philadelphia, PA 19148", "locale": "en_NZ"}, {"street1": null, "street2": null, "fullAddress": "800 West Moyamensing Avenue, Philadelphia, PA 19148", "locale": "de_CH"}, {"street1": null, "street2": null, "fullAddress": "800 West Moyamensing Avenue, Philadelphia, PA 19148", "locale": "sk"}, {"street1": null, "street2": null, "fullAddress": "800 West Moyamensing Avenue, Philadelphia, PA 19148", "locale": "en_ZA"}, {"street1": null, "street2": null, "fullAddress": "800 West Moyamensing Avenue, Philadelphia, PA 19148", "locale": "sv"}, {"street1": null, "street2": null, "fullAddress": "800 West Moyamensing Avenue, Filadelfie, PA 19148", "locale": "cs"}, {"street1": null, "street2": null, "fullAddress": "800 West Moyamensing Avenue, \u03a6\u03b9\u03bb\u03b1\u03b4\u03ad\u03bb\u03c6\u03b5\u03b9\u03b1, PA 19148", "locale": "el"}, {"street1": null, "street2": null, "fullAddress": "800 West Moyamensing Avenue, Philadelphia, PA 19148", "locale": "de_AT"}, {"street1": null, "street2": null, "fullAddress": "800 West Moyamensing Avenue, Philadelphia, PA 19148", "locale": "nl"}, {"street1": null, "street2": null, "fullAddress": "800 West Moyamensing Avenue, Philadelphie, PA 19148", "locale": "fr_CH"}, {"street1": null, "street2": null, "fullAddress": "800 West Moyamensing Avenue, Philadelphia, PA 19148", "locale": "hu"}, {"street1": null, "street2": null, "fullAddress": "800 West Moyamensing Avenue, Philadelphia, PA 19148", "locale": "en_AU"}, {"street1": null, "street2": null, "fullAddress": "800 West Moyamensing Avenue, Philadelphia, PA 19148", "locale": "in"}, {"street1": null, "street2": null, "fullAddress": "800 West Moyamensing Avenue, Philadelphia, PA 19148", "locale": "vi"}, {"street1": null, "street2": null, "fullAddress": "800 West Moyamensing Avenue, Philadelphie, PA 19148", "locale": "fr_CA"}, {"street1": null, "street2": null, "fullAddress": "800 West Moyamensing Avenue, Filadelfia, PA 19148", "locale": "es_AR"}, {"street1": null, "street2": null, "fullAddress": "800 West Moyamensing Avenue, \u0641\u064a\u0644\u0627\u062f\u0644\u0641\u064a\u0627, \u0628\u0646\u0633\u064a\u0644\u0641\u0627\u0646\u064a\u0627 19148", "locale": "ar_EG"}, {"street1": null, "street2": null, "fullAddress": "800 West Moyamensing Avenue, Filadelfija, PA 19148", "locale": "sr"}, {"street1": null, "street2": null, "fullAddress": "800 West Moyamensing Avenue, Philadelphia, PA 19148", "locale": "en_MY"}, {"street1": null, "street2": null, "fullAddress": "800 West Moyamensing Avenue, Philadelphia, PA 19148", "locale": "it_CH"}, {"street1": null, "street2": null, "fullAddress": "800 West Moyamensing Avenue, Philadelphia, PA 19148", "locale": "da"}, {"street1": null, "street2": null, "fullAddress": "800 West Moyamensing Avenue, Filadelfia, PA 19148", "locale": "es"}, {"street1": null, "street2": null, "fullAddress": "800 West Moyamensing Avenue, Philadelphia, PA 19148", "locale": "tr"}, {"street1": null, "street2": null, "fullAddress": "800 West Moyamensing Avenue, Philadelphia, PA 19148", "locale": "en_HK"}, {"street1": null, "street2": null, "fullAddress": "800 West Moyamensing Avenue, Philadelphia, PA 19148", "locale": "en_IE"}, {"street1": null, "street2": null, "fullAddress": "800 West Moyamensing Avenue, Philadelphia, PA 19148", "locale": "en_CA"}, {"street1": null, "street2": null, "fullAddress": "800 West Moyamensing Avenue, Filadelfia, PA 19148", "locale": "pl"}, {"street1": null, "street2": null, "fullAddress": "800 West Moyamensing Avenue, Philadelphia, PA 19148", "locale": "nl_BE"}, {"street1": null, "street2": null, "fullAddress": "800 West Moyamensing Avenue, Philadelphia, PA 19148", "locale": "no"}, {"street1": null, "street2": null, "fullAddress": "800 West Moyamensing Avenue, \u8d39\u57ce, PA", "locale": "zh_CN"}, {"street1": null, "street2": null, "fullAddress": "800 West Moyamensing Avenue, Filadelfia, PA 19148", "locale": "es_CO"}, {"street1": null, "street2": null, "fullAddress": "800 West Moyamensing Avenue, Philadelphie, PA 19148", "locale": "fr"}, {"street1": null, "street2": null, "fullAddress": "800 West Moyamensing Avenue, \u30d5\u30a3\u30e9\u30c7\u30eb\u30d5\u30a3\u30a2, PA", "locale": "ja"}, {"street1": null, "street2": null, "fullAddress": "800 West Moyamensing Avenue, \u05e4\u05d9\u05dc\u05d3\u05dc\u05e4\u05d9\u05d4, PA 19148", "locale": "iw"}, {"street1": null, "street2": null, "fullAddress": "800 West Moyamensing Avenue, Philadelphia, PA 19148", "locale": "de"}, {"street1": null, "street2": null, "fullAddress": "800 West Moyamensing Avenue, Philadelphia, PA 19148", "locale": "en_IN"}, {"street1": null, "street2": null, "fullAddress": "800 West Moyamensing Avenue, \u8d39\u57ce, PA", "locale": "zh"}, {"street1": null, "street2": null, "fullAddress": "800 West Moyamensing Avenue, Filadelfia, PA 19148", "locale": "es_PE"}, {"street1": null, "street2": null, "fullAddress": "800 West Moyamensing Avenue, Philadelphia, PA 19148", "locale": "en_PH"}], "parents": [{"placeType": "CITY", "locationId": 60795, "name": "Philadelphia"}, {"placeType": "STATE", "locationId": 28959, "name": "Pennsylvania:"}, {"placeType": "COUNTRY", "locationId": 191, "name": "Hoa K\u1ef3"}, {"placeType": "CONTINENT", "locationId": 19, "name": "B\u0103\u0301c My\u0303"}, {"placeType": null, "locationId": 1, "name": "Th\u00ea\u0301 gi\u01a1\u0301i"}]}]}}]