[{"data": {"accommodationType": [], "restaurantStyles": [{"tag": {"categoryId": 235, "tagId": 10604, "tagName": "Families with children", "tagNameLocalized": "Gia \u0111i\u0300nh co\u0301 tre\u0309 em", "translationKey": "tags_category_tag_families_with_children"}}], "restaurantTypes": [{"tag": {"categoryId": 230, "tagId": 10591, "tagName": "Restaurants", "tagNameLocalized": "Nha\u0300 ha\u0300ng", "translationKey": "tags_category_tag_restaurants"}}], "restaurantMealTypes": [{"tag": {"categoryId": 233, "tagId": 10598, "tagName": "Lunch", "tagNameLocalized": "B\u01b0\u0303a tr\u01b0a", "translationKey": "tags_category_tag_lunch"}}, {"tag": {"categoryId": 233, "tagId": 10597, "tagName": "Breakfast", "tagNameLocalized": "B\u1eefa s\u00e1ng", "translationKey": "tags_category_tag_breakfast"}}, {"tag": {"categoryId": 233, "tagId": 10599, "tagName": "Dinner", "tagNameLocalized": "B\u01b0\u0303a t\u00f4\u0301i", "translationKey": "tags_category_tag_dinner"}}], "restaurantDiningOptions": [{"tag": {"categoryId": 234, "tagId": 10866, "tagName": "Accepts Mastercard", "tagNameLocalized": "Ch\u1ea5p nh\u1eadn th\u1ebb Mastercard", "translationKey": "tags_category_tag_accepts_mastercard"}}, {"tag": {"categoryId": 234, "tagId": 10601, "tagName": "Takeout", "tagNameLocalized": "C\u01b0\u0309a ha\u0300ng ba\u0301n th\u01b0\u0301c \u0103n mang v\u00ea\u0300", "translationKey": "tags_category_tag_takeout"}}, {"tag": {"categoryId": 234, "tagId": 10865, "tagName": "Accepts American Express", "tagNameLocalized": "Ch\u1ea5p nh\u1eadn th\u1ebb American Express", "translationKey": "tags_category_tag_accepts_american_express"}}, {"tag": {"categoryId": 234, "tagId": 10867, "tagName": "Accepts Visa", "tagNameLocalized": "Ch\u1ea5p nh\u1eadn th\u1ebb Visa", "translationKey": "tags_category_tag_accepts_visa"}}, {"tag": {"categoryId": 234, "tagId": 11780, "tagName": "Accepts Credit Cards", "tagNameLocalized": "Ch\u1ea5p nh\u1eadn th\u1ebb t\u00edn d\u1ee5ng", "translationKey": "tags_category_tag_accepts_credit_cards"}}, {"tag": {"categoryId": 234, "tagId": 10600, "tagName": "Delivery", "tagNameLocalized": "Giao ha\u0300ng", "translationKey": "tags_category_tag_delivery"}}], "restaurantPrice": [{"tag": {"categoryId": 240, "tagId": 10955, "tagName": "Mid Range", "tagNameLocalized": "H\u1ea1ng trung", "translationKey": "tags_category_tag_mid_range"}}], "restaurantCuisines": [{"tag": {"categoryId": 231, "tagId": 4617, "tagName": "Italian", "tagNameLocalized": "Ki\u00ea\u0309u Y\u0301", "translationKey": "tags_category_tag_italian"}}], "locations": [{"accommodationType": "T_UNKNOWN", "countryId": 191, "hoursOfOperation": {"dailyTimeIntervals": [{"day": "MONDAY", "timeIntervals": [{"openingTime": {"hours": 0, "minutes": 0}, "closingTime": {"hours": 23, "minutes": 59}}]}, {"day": "TUESDAY", "timeIntervals": [{"openingTime": {"hours": 0, "minutes": 0}, "closingTime": {"hours": 23, "minutes": 59}}]}, {"day": "WEDNESDAY", "timeIntervals": [{"openingTime": {"hours": 0, "minutes": 0}, "closingTime": {"hours": 23, "minutes": 59}}]}, {"day": "THURSDAY", "timeIntervals": [{"openingTime": {"hours": 0, "minutes": 0}, "closingTime": {"hours": 23, "minutes": 59}}]}, {"day": "FRIDAY", "timeIntervals": [{"openingTime": {"hours": 0, "minutes": 0}, "closingTime": {"hours": 23, "minutes": 59}}]}, {"day": "SATURDAY", "timeIntervals": [{"openingTime": {"hours": 0, "minutes": 0}, "closingTime": {"hours": 23, "minutes": 59}}]}, {"day": "SUNDAY", "timeIntervals": [{"openingTime": {"hours": 0, "minutes": 0}, "closingTime": {"hours": 23, "minutes": 59}}]}]}, "isClosed": false, "isOwner": false, "latitude": 39.98819, "localizedDescriptions": [], "localizedNames": [], "locationId": 3163404, "locationV2": {"attractionTypes": []}, "longitude": -75.39872, "parentId": 53339, "placeType": "EATERY", "thumbnail": null, "absoluteOwnerManagementUrl": "https://www.tripadvisor.com.vn/RSManagementCenter-d3163404-Luigi_and_giovanni?cat=0&geo=53339", "email": "lgfoods@gmail.com", "geoName": "Newtown Square", "isoCountryCode": "US", "localizedName": "luigi and giovanni", "name": "luigi and giovanni", "locationDescription": null, "officialUrl": "http://www.luigiandgiovannicaterers.com/", "postPhotosUrl": "/PostPhotos-d3163404", "telephone": "+1 610-353-4014", "url": "/Restaurant_Review-g53339-d3163404-Reviews-Luigi_and_giovanni-Newtown_Square_Pennsylvania.html", "writeUserReviewUrl": "/UserReview-g53339-d3163404-Luigi_and_giovanni-Newtown_Square_Pennsylvania.html", "localizedStreetAddress": {"city": "Newtown Square", "country": "Hoa K\u1ef3", "fullAddress": "St Albans Circle 3601 Chapel Road, Newtown Square, PA 19151", "postalCode": "19151", "state": "Pennsylvania:", "street1": "St Albans Circle", "street2": "3601 Chapel Road"}, "streetAddress": {"street1": "St Albans Circle", "street2": "3601 Chapel Road", "state": "Pennsylvania:", "city": "Newtown Square", "postalCode": "19151", "fullAddress": "St Albans Circle 3601 Chapel Road, Newtown Square, PA 19151"}, "localizedStreetAddresses": [{"street1": null, "street2": null, "fullAddress": "St Albans Circle 3601 Chapel Road, Newtown Square, PA 19151", "locale": "es_MX"}, {"street1": null, "street2": null, "fullAddress": "St Albans Circle 3601 Chapel Road, Newtown Square, PA 19151", "locale": "fr_BE"}, {"street1": null, "street2": null, "fullAddress": "St Albans Circle 3601 Chapel Road, Newtown Square, PA 19151", "locale": "es_VE"}, {"street1": null, "street2": null, "fullAddress": "St Albans Circle 3601 Chapel Road, \u7d10\u6566\u65af\u594e\u723e, PA", "locale": "zh_TW"}, {"street1": null, "street2": null, "fullAddress": "St Albans Circle 3601 Chapel Road, \u7d10\u6566\u65af\u594e\u723e, PA", "locale": "zh_HK"}, {"street1": null, "street2": null, "fullAddress": "St Albans Circle 3601 Chapel Road, Newtown Square, PA 19151", "locale": "it"}, {"street1": null, "street2": null, "fullAddress": "St Albans Circle 3601 Chapel Road, Newtown Square, PA", "locale": "ko"}, {"street1": null, "street2": null, "fullAddress": "St Albans Circle 3601 Chapel Road, Newtown Square, PA 19151", "locale": "es_CL"}, {"street1": null, "street2": null, "fullAddress": "St Albans Circle 3601 Chapel Road, Newtown Square, PA 19151", "locale": "fi"}, {"street1": null, "street2": null, "fullAddress": "St Albans Circle 3601 Chapel Road, Newtown Square, PA 19151", "locale": "pt_PT"}, {"street1": null, "street2": null, "fullAddress": "St Albans Circle 3601 Chapel Road, Newtown Square, PA 19151", "locale": "en_US"}, {"street1": null, "street2": null, "fullAddress": "St Albans Circle 3601 Chapel Road, Newtown Square, PA 19151", "locale": "th"}, {"street1": null, "street2": null, "fullAddress": "St Albans Circle 3601 Chapel Road, Newtown Square, PA 19151", "locale": "en_SG"}, {"street1": null, "street2": null, "fullAddress": "St Albans Circle 3601 Chapel Road, Newtown Square, PA 19151", "locale": "pt"}, {"street1": null, "street2": null, "fullAddress": "St Albans Circle 3601 Chapel Road, Newtown Square, PA 19151", "locale": "en_UK"}, {"street1": null, "street2": null, "fullAddress": "St Albans Circle 3601 Chapel Road, \u202bNewtown Square\u202c, \u0628\u0646\u0633\u064a\u0644\u0641\u0627\u0646\u064a\u0627 19151", "locale": "ar"}, {"street1": null, "street2": null, "fullAddress": "St Albans Circle 3601 Chapel Road, \u041d\u044c\u044e\u0442\u0430\u0443\u043d-\u0421\u043a\u0432\u0435\u0440, PA 19151", "locale": "ru"}, {"street1": null, "street2": null, "fullAddress": "St Albans Circle 3601 Chapel Road, Newtown Square, PA 19151", "locale": "en_NZ"}, {"street1": null, "street2": null, "fullAddress": "St Albans Circle 3601 Chapel Road, Newtown Square, PA 19151", "locale": "de_CH"}, {"street1": null, "street2": null, "fullAddress": "St Albans Circle 3601 Chapel Road, Newtown Square, PA 19151", "locale": "sk"}, {"street1": null, "street2": null, "fullAddress": "St Albans Circle 3601 Chapel Road, Newtown Square, PA 19151", "locale": "en_ZA"}, {"street1": null, "street2": null, "fullAddress": "St Albans Circle 3601 Chapel Road, Newtown Square, PA 19151", "locale": "sv"}, {"street1": null, "street2": null, "fullAddress": "St Albans Circle 3601 Chapel Road, Newtown Square, PA 19151", "locale": "cs"}, {"street1": null, "street2": null, "fullAddress": "St Albans Circle 3601 Chapel Road, Newtown Square, PA 19151", "locale": "el"}, {"street1": null, "street2": null, "fullAddress": "St Albans Circle 3601 Chapel Road, Newtown Square, PA 19151", "locale": "de_AT"}, {"street1": null, "street2": null, "fullAddress": "St Albans Circle 3601 Chapel Road, Newtown Square, PA 19151", "locale": "fr_CH"}, {"street1": null, "street2": null, "fullAddress": "St Albans Circle 3601 Chapel Road, Newtown Square, PA 19151", "locale": "nl"}, {"street1": null, "street2": null, "fullAddress": "St Albans Circle 3601 Chapel Road, Newtown Square, PA 19151", "locale": "hu"}, {"street1": null, "street2": null, "fullAddress": "St Albans Circle 3601 Chapel Road, Newtown Square, PA 19151", "locale": "en_AU"}, {"street1": null, "street2": null, "fullAddress": "St Albans Circle 3601 Chapel Road, Newtown Square, PA 19151", "locale": "in"}, {"street1": null, "street2": null, "fullAddress": "St Albans Circle 3601 Chapel Road, Newtown Square, PA 19151", "locale": "vi"}, {"street1": null, "street2": null, "fullAddress": "St Albans Circle 3601 Chapel Road, Newtown Square, PA 19151", "locale": "fr_CA"}, {"street1": null, "street2": null, "fullAddress": "St Albans Circle 3601 Chapel Road, Newtown Square, PA 19151", "locale": "es_AR"}, {"street1": null, "street2": null, "fullAddress": "St Albans Circle 3601 Chapel Road, \u202bNewtown Square\u202c, \u0628\u0646\u0633\u064a\u0644\u0641\u0627\u0646\u064a\u0627 19151", "locale": "ar_EG"}, {"street1": null, "street2": null, "fullAddress": "St Albans Circle 3601 Chapel Road, Newtown Square, PA 19151", "locale": "en_MY"}, {"street1": null, "street2": null, "fullAddress": "St Albans Circle 3601 Chapel Road, Newtown Square, PA 19151", "locale": "sr"}, {"street1": null, "street2": null, "fullAddress": "St Albans Circle 3601 Chapel Road, Newtown Square, PA 19151", "locale": "it_CH"}, {"street1": null, "street2": null, "fullAddress": "St Albans Circle 3601 Chapel Road, Newtown Square, PA 19151", "locale": "da"}, {"street1": null, "street2": null, "fullAddress": "St Albans Circle 3601 Chapel Road, Newtown Square, PA 19151", "locale": "es"}, {"street1": null, "street2": null, "fullAddress": "St Albans Circle 3601 Chapel Road, Newtown Square, PA 19151", "locale": "tr"}, {"street1": null, "street2": null, "fullAddress": "St Albans Circle 3601 Chapel Road, Newtown Square, PA 19151", "locale": "en_HK"}, {"street1": null, "street2": null, "fullAddress": "St Albans Circle 3601 Chapel Road, Newtown Square, PA 19151", "locale": "en_IE"}, {"street1": null, "street2": null, "fullAddress": "St Albans Circle 3601 Chapel Road, Newtown Square, PA 19151", "locale": "en_CA"}, {"street1": null, "street2": null, "fullAddress": "St Albans Circle 3601 Chapel Road, Newtown Square, PA 19151", "locale": "nl_BE"}, {"street1": null, "street2": null, "fullAddress": "St Albans Circle 3601 Chapel Road, Newtown Square, PA 19151", "locale": "pl"}, {"street1": null, "street2": null, "fullAddress": "St Albans Circle 3601 Chapel Road, Newtown Square, PA 19151", "locale": "no"}, {"street1": null, "street2": null, "fullAddress": "St Albans Circle 3601 Chapel Road, \u7ebd\u6566\u65af\u594e\u5c14, PA", "locale": "zh_CN"}, {"street1": null, "street2": null, "fullAddress": "St Albans Circle 3601 Chapel Road, Newtown Square, PA 19151", "locale": "es_CO"}, {"street1": null, "street2": null, "fullAddress": "St Albans Circle 3601 Chapel Road, Newtown Square, PA 19151", "locale": "fr"}, {"street1": null, "street2": null, "fullAddress": "St Albans Circle 3601 Chapel Road, \u30cb\u30e5\u30fc\u30bf\u30a6\u30f3\u30fb\u30b9\u30af\u30a8\u30a2, PA", "locale": "ja"}, {"street1": null, "street2": null, "fullAddress": "St Albans Circle 3601 Chapel Road, \u202bNewtown Square\u202c, PA 19151", "locale": "iw"}, {"street1": null, "street2": null, "fullAddress": "St Albans Circle 3601 Chapel Road, Newtown Square, PA 19151", "locale": "de"}, {"street1": null, "street2": null, "fullAddress": "St Albans Circle 3601 Chapel Road, Newtown Square, PA 19151", "locale": "en_IN"}, {"street1": null, "street2": null, "fullAddress": "St Albans Circle 3601 Chapel Road, \u7ebd\u6566\u65af\u594e\u5c14, PA", "locale": "zh"}, {"street1": null, "street2": null, "fullAddress": "St Albans Circle 3601 Chapel Road, Newtown Square, PA 19151", "locale": "es_PE"}, {"street1": null, "street2": null, "fullAddress": "St Albans Circle 3601 Chapel Road, Newtown Square, PA 19151", "locale": "en_PH"}], "parents": [{"placeType": "CITY", "locationId": 53339, "name": "Newtown Square"}, {"placeType": "STATE", "locationId": 28959, "name": "Pennsylvania:"}, {"placeType": "COUNTRY", "locationId": 191, "name": "Hoa K\u1ef3"}, {"placeType": "CONTINENT", "locationId": 19, "name": "B\u0103\u0301c My\u0303"}, {"placeType": null, "locationId": 1, "name": "Th\u00ea\u0301 gi\u01a1\u0301i"}]}]}}]