[{"data": {"restaurantStyles": [], "restaurantTypes": [], "restaurantMealTypes": [], "restaurantDiningOptions": [], "restaurantPrice": [], "restaurantCuisines": [], "accommodationType": [], "locations": [{"accommodationType": "T_HOTEL", "countryId": 191, "hoursOfOperation": {"dailyTimeIntervals": [{"day": "MONDAY", "timeIntervals": [{"openingTime": {"hours": 0, "minutes": 0}, "closingTime": {"hours": 0, "minutes": 0}}]}, {"day": "TUESDAY", "timeIntervals": [{"openingTime": {"hours": 0, "minutes": 0}, "closingTime": {"hours": 0, "minutes": 0}}]}, {"day": "WEDNESDAY", "timeIntervals": [{"openingTime": {"hours": 0, "minutes": 0}, "closingTime": {"hours": 0, "minutes": 0}}]}, {"day": "THURSDAY", "timeIntervals": [{"openingTime": {"hours": 0, "minutes": 0}, "closingTime": {"hours": 0, "minutes": 0}}]}, {"day": "FRIDAY", "timeIntervals": [{"openingTime": {"hours": 0, "minutes": 0}, "closingTime": {"hours": 0, "minutes": 0}}]}, {"day": "SATURDAY", "timeIntervals": [{"openingTime": {"hours": 0, "minutes": 0}, "closingTime": {"hours": 0, "minutes": 0}}]}, {"day": "SUNDAY", "timeIntervals": [{"openingTime": {"hours": 0, "minutes": 0}, "closingTime": {"hours": 0, "minutes": 0}}]}]}, "isClosed": false, "isOwner": false, "latitude": 38.73752, "localizedDescriptions": [], "locationId": 325062, "locationV2": {"attractionTypes": []}, "longitude": -75.145515, "parentId": 34028, "placeType": "ACCOMMODATION", "absoluteOwnerManagementUrl": "https://www.tripadvisor.com.vn/HotelsManagementCenter-d325062-Heritage_Inn_Suites_Rehoboth_Beach?cat=0&geo=34028", "email": "info@rehobothheritage.com", "geoName": "Lewes", "isoCountryCode": "US", "localizedName": "Heritage Inn & Suites Rehoboth Beach", "name": "Heritage Inn & Suites Rehoboth Beach", "locationDescription": "H\u00e3y t\u1ef1 h\u1ecfi t\u1ea1i sao kh\u00e1ch du l\u1ecbch \u0111\u00e3 l\u1ef1a ch\u1ecdn Heritage Inn khi \u0111\u1ebfn th\u0103m Lewes. Kh\u00e1ch s\u1ea1n l\u00e0 s\u1ef1 t\u1ed5ng h\u1ee3p c\u1ee7a nh\u1eefng gi\u00e1 tr\u1ecb l\u00fd t\u01b0\u1edfng, s\u1ef1 tho\u1ea3i m\u00e1i v\u00e0 thu\u1eadn ti\u1ec7n nh\u01b0 nh\u1eefng ti\u1ec7n nghi \u0111\u01b0\u1ee3c thi\u1ebft k\u1ebf cho nh\u1eefng du kh\u00e1ch nh\u01b0 b\u1ea1n.\nB\u1ea1n s\u1ebd t\u1eadn h\u01b0\u1edfng c\u0103n ph\u00f2ng v\u1edbi tv m\u00e0n h\u00ecnh ph\u1eb3ng, t\u1ee7 l\u1ea1nh v\u00e0 \u0111i\u1ec1u h\u00f2a nhi\u1ec7t \u0111\u1ed9, v\u00e0 b\u1ea1n ch\u1eafc ch\u1eafn s\u1ebd \u0111\u01b0\u1ee3c k\u1ebft n\u1ed1i internet trong th\u1eddi gian n\u00e0y b\u1edfi Heritage Inn cung c\u1ea5p cho du kh\u00e1ch wifi mi\u1ec5n ph\u00ed.\nKha\u0301ch sa\u0323n c\u00f2n cung c\u1ea5p b\u00e0n l\u1ec5 t\u00e2n 24 gi\u1edd. H\u01a1n n\u1eefa, Heritage Hotel v\u1edbi b\u1ec3 b\u01a1i v\u00e0 b\u1eefa s\u00e1ng, mang l\u1ea1i nh\u1eefng gi\u00e2y ph\u00fat th\u01b0 gi\u00e3n tr\u1ed1n kh\u1ecfi m\u1ed9t ng\u00e0y b\u1eadn r\u1ed9n. V\u1edbi kh\u00e1ch c\u00f3 xe c\u1ed9 \u0111\u1ed7 xe mi\u1ec5n ph\u00ed c\u00f3 s\u1eb5n.\nN\u1ebfu mu\u1ed1n \u1edf g\u1ea7n nh\u1eefng \u0111\u1ecba danh y\u00eau th\u00edch nh\u01b0 Fisher Martin House (4,0 km) v\u00e0 St. Peter's Episcopal Church (4,2 km), du kh\u00e1ch t\u1ea1i Heritage Inn c\u00f3 th\u1ec3 d\u1ec5 d\u00e0ng \u0111\u1ebfn th\u0103m nh\u1eefng \u0111\u1ecba \u0111i\u1ec3m n\u1ed5i ti\u1ebfng nh\u1ea5t n\u00e0y c\u1ee7a Lewes.\nKhi b\u1ea1n \u0111\u00f3i, h\u00e3y nh\u1edb th\u1eed Irish Eyes Pub & Restaurant, Gilligan's Waterfront Restaurant v\u00e0 Go Brit, l\u00e0 ha\u0309i sa\u0309n, \u0111\u01b0\u1ee3c \u01b0a chu\u1ed9ng b\u1edfi ng\u01b0\u1eddi d\u00e2n \u0111\u1ecba ph\u01b0\u01a1ng c\u0169ng nh\u01b0 du kh\u00e1ch.\nN\u1ebfu b\u1ea1n th\u00edch kh\u00e1m ph\u00e1 Lewes, kh\u00e1m ph\u00e1 m\u1ed9t trong nh\u1eefng vi\u00ea\u0323n ba\u0309o ta\u0300ng li\u0323ch s\u01b0\u0309, nh\u01b0 Lewes Historical Society v\u00e0 Zwaanendael Museum.\nCh\u00fang t\u00f4i tin r\u1eb1ng b\u1ea1n s\u1ebd h\u00e0i l\u00f2ng v\u1edbi Heritage Inn khi tr\u1ea3i nghi\u1ec7m t\u1ea5t c\u1ea3 nh\u1eefng g\u00ec m\u00e0 Lewes c\u00f3 th\u1ec3 \u0111\u01b0a l\u1ea1i.\n", "officialUrl": "https://www.rehobothheritage.com/", "postPhotosUrl": "/PostPhotos-d325062", "telephone": "+1 302-644-0600", "url": "/Hotel_Review-g34028-d325062-Reviews-Heritage_Inn_Suites_Rehoboth_Beach-Lewes_Delaware.html", "writeUserReviewUrl": "/UserReview-g34028-d325062-Heritage_Inn_Suites_Rehoboth_Beach-Lewes_Delaware.html", "localizedStreetAddress": {"city": "Lewes", "country": "Hoa K\u1ef3", "fullAddress": "34521 Old Postal Ln, Lewes, DE 19958", "postalCode": "19958", "state": "Delaware", "street1": "34521 Old Postal Ln", "street2": ""}, "streetAddress": {"street1": "34521 Old Postal Ln", "street2": "", "state": "Delaware", "city": "Lewes", "postalCode": "19958", "fullAddress": "34521 Old Postal Ln, Lewes, DE 19958"}, "localizedNames": [{"locale": "zh_TW", "value": "\u50b3\u627f\u98ef\u5e97"}, {"locale": "ko", "value": "\ud5e4\ub9ac\ud2f0\uc9c0 \uc778"}, {"locale": "ar", "value": "\u0647\u064a\u0631\u064a\u062a\u064a\u062f\u062c \u0625\u0646"}, {"locale": "ru", "value": "\u0425\u0435\u0440\u0438\u0442\u0435\u0434\u0436 \u0418\u043d\u043d & \u0413\u043e\u043b\u044c\u0444 \u041a\u043b\u0443\u0431"}, {"locale": "ja", "value": "\u30d8\u30ea\u30c6\u30fc\u30b8 \u30a4\u30f3"}], "localizedStreetAddresses": [{"street1": null, "street2": null, "fullAddress": "34521 Old Postal Ln, Lewes, DE 19958", "locale": "es_MX"}, {"street1": null, "street2": null, "fullAddress": "34521 Old Postal Ln, Lewes, DE 19958", "locale": "fr_BE"}, {"street1": null, "street2": null, "fullAddress": "34521 Old Postal Ln, Lewes, DE 19958", "locale": "es_VE"}, {"street1": null, "street2": null, "fullAddress": "34521 Old Postal Ln, \u5289\u6613\u65af, DE", "locale": "zh_TW"}, {"street1": null, "street2": null, "fullAddress": "34521 Old Postal Ln, \u5289\u6613\u65af, DE", "locale": "zh_HK"}, {"street1": null, "street2": null, "fullAddress": "34521 Old Postal Ln, Lewes, DE 19958", "locale": "it"}, {"street1": null, "street2": null, "fullAddress": "34521 Old Postal Ln, \ub8e8\uc774\uc2a4, DE", "locale": "ko"}, {"street1": null, "street2": null, "fullAddress": "34521 Old Postal Ln, Lewes, DE 19958", "locale": "es_CL"}, {"street1": null, "street2": null, "fullAddress": "34521 Old Postal Ln, Lewes, DE 19958", "locale": "fi"}, {"street1": null, "street2": null, "fullAddress": "34521 Old Postal Ln, Lewes, DE 19958", "locale": "pt_PT"}, {"street1": null, "street2": null, "fullAddress": "34521 Old Postal Ln, Lewes, DE 19958", "locale": "en_US"}, {"street1": null, "street2": null, "fullAddress": "34521 Old Postal Ln, \u0e25\u0e39\u0e2d\u0e34\u0e2a, DE 19958", "locale": "th"}, {"street1": null, "street2": null, "fullAddress": "34521 Old Postal Ln, Lewes, DE 19958", "locale": "en_SG"}, {"street1": null, "street2": null, "fullAddress": "34521 Old Postal Ln, Lewes, DE 19958", "locale": "en_UK"}, {"street1": null, "street2": null, "fullAddress": "34521 Old Postal Ln, Lewes, DE 19958", "locale": "pt"}, {"street1": null, "street2": null, "fullAddress": "34521 Old Postal Ln, \u202bLewes\u202c, \u202bDelaware\u202c 19958", "locale": "ar"}, {"street1": null, "street2": null, "fullAddress": "34521 Old Postal Ln, Lewes, DE 19958", "locale": "ru"}, {"street1": null, "street2": null, "fullAddress": "34521 Old Postal Ln, Lewes, DE 19958", "locale": "en_NZ"}, {"street1": null, "street2": null, "fullAddress": "34521 Old Postal Ln, Lewes, DE 19958", "locale": "de_CH"}, {"street1": null, "street2": null, "fullAddress": "34521 Old Postal Ln, Lewes, DE 19958", "locale": "sk"}, {"street1": null, "street2": null, "fullAddress": "34521 Old Postal Ln, Lewes, DE 19958", "locale": "en_ZA"}, {"street1": null, "street2": null, "fullAddress": "34521 Old Postal Ln, Lewes, DE 19958", "locale": "cs"}, {"street1": null, "street2": null, "fullAddress": "34521 Old Postal Ln, Lewes, DE 19958", "locale": "sv"}, {"street1": null, "street2": null, "fullAddress": "34521 Old Postal Ln, Lewes, DE 19958", "locale": "el"}, {"street1": null, "street2": null, "fullAddress": "34521 Old Postal Ln, Lewes, DE 19958", "locale": "de_AT"}, {"street1": null, "street2": null, "fullAddress": "34521 Old Postal Ln, Lewes, DE 19958", "locale": "fr_CH"}, {"street1": null, "street2": null, "fullAddress": "34521 Old Postal Ln, Lewes, DE 19958", "locale": "nl"}, {"street1": null, "street2": null, "fullAddress": "34521 Old Postal Ln, Lewes, DE 19958", "locale": "hu"}, {"street1": null, "street2": null, "fullAddress": "34521 Old Postal Ln, Lewes, DE 19958", "locale": "en_AU"}, {"street1": null, "street2": null, "fullAddress": "34521 Old Postal Ln, Lewes, DE 19958", "locale": "in"}, {"street1": null, "street2": null, "fullAddress": "34521 Old Postal Ln, Lewes, DE 19958", "locale": "vi"}, {"street1": null, "street2": null, "fullAddress": "34521 Old Postal Ln, Lewes, DE 19958", "locale": "fr_CA"}, {"street1": null, "street2": null, "fullAddress": "34521 Old Postal Ln, Lewes, DE 19958", "locale": "es_AR"}, {"street1": null, "street2": null, "fullAddress": "34521 Old Postal Ln, \u202bLewes\u202c, \u202bDelaware\u202c 19958", "locale": "ar_EG"}, {"street1": null, "street2": null, "fullAddress": "34521 Old Postal Ln, Lewes, DE 19958", "locale": "en_MY"}, {"street1": null, "street2": null, "fullAddress": "34521 Old Postal Ln, Lewes, DE 19958", "locale": "sr"}, {"street1": null, "street2": null, "fullAddress": "34521 Old Postal Ln, Lewes, DE 19958", "locale": "it_CH"}, {"street1": null, "street2": null, "fullAddress": "34521 Old Postal Ln, Lewes, DE 19958", "locale": "da"}, {"street1": null, "street2": null, "fullAddress": "34521 Old Postal Ln, Lewes, DE 19958", "locale": "es"}, {"street1": null, "street2": null, "fullAddress": "34521 Old Postal Ln, Lewes, DE 19958", "locale": "tr"}, {"street1": null, "street2": null, "fullAddress": "34521 Old Postal Ln, Lewes, DE 19958", "locale": "en_HK"}, {"street1": null, "street2": null, "fullAddress": "34521 Old Postal Ln, Lewes, DE 19958", "locale": "en_IE"}, {"street1": null, "street2": null, "fullAddress": "34521 Old Postal Ln, Lewes, DE 19958", "locale": "en_CA"}, {"street1": null, "street2": null, "fullAddress": "34521 Old Postal Ln, Lewes, DE 19958", "locale": "nl_BE"}, {"street1": null, "street2": null, "fullAddress": "34521 Old Postal Ln, Lewes, DE 19958", "locale": "pl"}, {"street1": null, "street2": null, "fullAddress": "34521 Old Postal Ln, Lewes, DE 19958", "locale": "no"}, {"street1": null, "street2": null, "fullAddress": "34521 Old Postal Ln, \u5218\u6613\u65af, DE", "locale": "zh_CN"}, {"street1": null, "street2": null, "fullAddress": "34521 Old Postal Ln, Lewes, DE 19958", "locale": "es_CO"}, {"street1": null, "street2": null, "fullAddress": "34521 Old Postal Ln, Lewes, DE 19958", "locale": "fr"}, {"street1": null, "street2": null, "fullAddress": "34521 Old Postal Ln, \u30eb\u30a4\u30b9, DE", "locale": "ja"}, {"street1": null, "street2": null, "fullAddress": "34521 Old Postal Ln, \u05dc\u05d5\u05d0\u05e1, DE 19958", "locale": "iw"}, {"street1": null, "street2": null, "fullAddress": "34521 Old Postal Ln, Lewes, DE 19958", "locale": "de"}, {"street1": null, "street2": null, "fullAddress": "34521 Old Postal Ln, Lewes, DE 19958", "locale": "en_IN"}, {"street1": null, "street2": null, "fullAddress": "34521 Old Postal Ln, \u5218\u6613\u65af, DE", "locale": "zh"}, {"street1": null, "street2": null, "fullAddress": "34521 Old Postal Ln, Lewes, DE 19958", "locale": "es_PE"}, {"street1": null, "street2": null, "fullAddress": "34521 Old Postal Ln, Lewes, DE 19958", "locale": "en_PH"}], "parents": [{"placeType": "CITY", "locationId": 34028, "name": "Lewes"}, {"placeType": "STATE", "locationId": 28929, "name": "Delaware"}, {"placeType": "COUNTRY", "locationId": 191, "name": "Hoa K\u1ef3"}, {"placeType": "CONTINENT", "locationId": 19, "name": "B\u0103\u0301c My\u0303"}, {"placeType": null, "locationId": 1, "name": "Th\u00ea\u0301 gi\u01a1\u0301i"}], "thumbnail": {"title": null, "photoSizes": [{"height": 0, "isHorizontal": true, "width": 0, "url": "https://dynamic-media-cdn.tripadvisor.com/media/photo-o/1b/a3/60/3e/heritage-inn-suites-rehoboth.jpg?w=100&h=100&s=1"}, {"height": 50, "isHorizontal": true, "width": 50, "url": "https://media-cdn.tripadvisor.com/media/photo-t/1b/a3/60/3e/heritage-inn-suites-rehoboth.jpg"}, {"height": 150, "isHorizontal": true, "width": 150, "url": "https://media-cdn.tripadvisor.com/media/photo-l/1b/a3/60/3e/heritage-inn-suites-rehoboth.jpg"}, {"height": 200, "isHorizontal": false, "width": 180, "url": "https://media-cdn.tripadvisor.com/media/photo-i/1b/a3/60/3e/heritage-inn-suites-rehoboth.jpg"}, {"height": 167, "isHorizontal": true, "width": 250, "url": "https://media-cdn.tripadvisor.com/media/photo-f/1b/a3/60/3e/heritage-inn-suites-rehoboth.jpg"}, {"height": 367, "isHorizontal": true, "width": 550, "url": "https://media-cdn.tripadvisor.com/media/photo-s/1b/a3/60/3e/heritage-inn-suites-rehoboth.jpg"}, {"height": 683, "isHorizontal": true, "width": 1024, "url": "https://media-cdn.tripadvisor.com/media/photo-w/1b/a3/60/3e/heritage-inn-suites-rehoboth.jpg"}, {"height": 853, "isHorizontal": true, "width": 1280, "url": "https://media-cdn.tripadvisor.com/media/photo-m/1280/1b/a3/60/3e/heritage-inn-suites-rehoboth.jpg"}]}}]}}]