[{"data": {"restaurantStyles": [], "restaurantTypes": [], "restaurantMealTypes": [], "restaurantDiningOptions": [], "restaurantPrice": [], "restaurantCuisines": [], "accommodationType": [], "locations": [{"accommodationType": "T_UNKNOWN", "countryId": 191, "hoursOfOperation": {"dailyTimeIntervals": [{"day": "MONDAY", "timeIntervals": [{"openingTime": {"hours": 8, "minutes": 0}, "closingTime": {"hours": 16, "minutes": 0}}]}, {"day": "TUESDAY", "timeIntervals": [{"openingTime": {"hours": 8, "minutes": 0}, "closingTime": {"hours": 16, "minutes": 0}}]}, {"day": "WEDNESDAY", "timeIntervals": [{"openingTime": {"hours": 8, "minutes": 0}, "closingTime": {"hours": 16, "minutes": 0}}]}, {"day": "THURSDAY", "timeIntervals": [{"openingTime": {"hours": 8, "minutes": 0}, "closingTime": {"hours": 16, "minutes": 0}}]}, {"day": "FRIDAY", "timeIntervals": [{"openingTime": {"hours": 8, "minutes": 0}, "closingTime": {"hours": 16, "minutes": 0}}]}, {"day": "SATURDAY", "timeIntervals": []}, {"day": "SUNDAY", "timeIntervals": []}]}, "isClosed": false, "isOwner": false, "latitude": 39.82041, "localizedDescriptions": [], "localizedNames": [], "locationId": 3316232, "locationV2": {"attractionTypes": [{"id": 81}]}, "longitude": -75.59882, "parentId": 34059, "placeType": "ATTRACTION", "absoluteOwnerManagementUrl": "https://www.tripadvisor.com.vn/ManagementCenter-g34059-d3316232-c0-Brandywine_Creek_State_Park-Wilmington_Delaware", "email": null, "geoName": "Wilmington", "isoCountryCode": "US", "localizedName": "Brandywine Creek State Park", "name": "Brandywine Creek State Park", "locationDescription": null, "officialUrl": "http://www.destateparks.com/park/brandywine-creek/index.asp", "postPhotosUrl": "/PostPhotos-d3316232", "telephone": "+1 302-577-3534", "url": "/Attraction_Review-g34059-d3316232-Reviews-Brandywine_Creek_State_Park-Wilmington_Delaware.html", "writeUserReviewUrl": "/UserReview-g34059-d3316232-Brandywine_Creek_State_Park-Wilmington_Delaware.html", "localizedStreetAddress": {"city": "Wilmington", "country": "Hoa K\u1ef3", "fullAddress": "41 Adams Dam Road, Wilmington, DE 19807", "postalCode": "19807", "state": "Delaware", "street1": "41 Adams Dam Road", "street2": ""}, "streetAddress": {"street1": "41 Adams Dam Road", "street2": "", "state": "Delaware", "city": "Wilmington", "postalCode": "19807", "fullAddress": "41 Adams Dam Road, Wilmington, DE 19807"}, "localizedStreetAddresses": [{"street1": null, "street2": null, "fullAddress": "41 Adams Dam Road, Wilmington, DE 19807", "locale": "fr_BE"}, {"street1": null, "street2": null, "fullAddress": "41 Adams Dam Road, Wilmington, DE 19807", "locale": "es_MX"}, {"street1": null, "street2": null, "fullAddress": "41 Adams Dam Road, Wilmington, DE 19807", "locale": "es_VE"}, {"street1": null, "street2": null, "fullAddress": "41 Adams Dam Road, \u5a01\u723e\u660e\u9813, DE", "locale": "zh_HK"}, {"street1": null, "street2": null, "fullAddress": "41 Adams Dam Road, \u5a01\u723e\u660e\u9813, DE", "locale": "zh_TW"}, {"street1": null, "street2": null, "fullAddress": "41 Adams Dam Road, Wilmington, DE 19807", "locale": "it"}, {"street1": null, "street2": null, "fullAddress": "41 Adams Dam Road, \uc70c\ubc0d\ud134, DE", "locale": "ko"}, {"street1": null, "street2": null, "fullAddress": "41 Adams Dam Road, Wilmington, DE 19807", "locale": "es_CL"}, {"street1": null, "street2": null, "fullAddress": "41 Adams Dam Road, Wilmington, DE 19807", "locale": "fi"}, {"street1": null, "street2": null, "fullAddress": "41 Adams Dam Road, Wilmington, DE 19807", "locale": "pt_PT"}, {"street1": null, "street2": null, "fullAddress": "41 Adams Dam Road, Wilmington, DE 19807", "locale": "en_US"}, {"street1": null, "street2": null, "fullAddress": "41 Adams Dam Road, \u0e27\u0e34\u0e25\u0e21\u0e34\u0e07\u0e15\u0e31\u0e19, DE 19807", "locale": "th"}, {"street1": null, "street2": null, "fullAddress": "41 Adams Dam Road, Wilmington, DE 19807", "locale": "en_SG"}, {"street1": null, "street2": null, "fullAddress": "41 Adams Dam Road, Wilmington, DE 19807", "locale": "en_UK"}, {"street1": null, "street2": null, "fullAddress": "41 Adams Dam Road, Wilmington, DE 19807", "locale": "pt"}, {"street1": null, "street2": null, "fullAddress": "41 Adams Dam Road, \u202bWilmington\u202c, \u202bDelaware\u202c 19807", "locale": "ar"}, {"street1": null, "street2": null, "fullAddress": "41 Adams Dam Road, \u0423\u0438\u043b\u043c\u0438\u043d\u0433\u0442\u043e\u043d, DE 19807", "locale": "ru"}, {"street1": null, "street2": null, "fullAddress": "41 Adams Dam Road, Wilmington, DE 19807", "locale": "en_NZ"}, {"street1": null, "street2": null, "fullAddress": "41 Adams Dam Road, Wilmington, DE 19807", "locale": "de_CH"}, {"street1": null, "street2": null, "fullAddress": "41 Adams Dam Road, Wilmington, DE 19807", "locale": "sk"}, {"street1": null, "street2": null, "fullAddress": "41 Adams Dam Road, Wilmington, DE 19807", "locale": "en_ZA"}, {"street1": null, "street2": null, "fullAddress": "41 Adams Dam Road, Wilmington, DE 19807", "locale": "cs"}, {"street1": null, "street2": null, "fullAddress": "41 Adams Dam Road, Wilmington, DE 19807", "locale": "sv"}, {"street1": null, "street2": null, "fullAddress": "41 Adams Dam Road, \u0393\u03bf\u03c5\u03af\u03bb\u03bc\u03b9\u03bd\u03b3\u03ba\u03c4\u03bf\u03bd, DE 19807", "locale": "el"}, {"street1": null, "street2": null, "fullAddress": "41 Adams Dam Road, Wilmington, DE 19807", "locale": "de_AT"}, {"street1": null, "street2": null, "fullAddress": "41 Adams Dam Road, Wilmington, DE 19807", "locale": "fr_CH"}, {"street1": null, "street2": null, "fullAddress": "41 Adams Dam Road, Wilmington, DE 19807", "locale": "nl"}, {"street1": null, "street2": null, "fullAddress": "41 Adams Dam Road, Wilmington, DE 19807", "locale": "hu"}, {"street1": null, "street2": null, "fullAddress": "41 Adams Dam Road, Wilmington, DE 19807", "locale": "en_AU"}, {"street1": null, "street2": null, "fullAddress": "41 Adams Dam Road, Wilmington, DE 19807", "locale": "in"}, {"street1": null, "street2": null, "fullAddress": "41 Adams Dam Road, Wilmington, DE 19807", "locale": "vi"}, {"street1": null, "street2": null, "fullAddress": "41 Adams Dam Road, Wilmington, DE 19807", "locale": "fr_CA"}, {"street1": null, "street2": null, "fullAddress": "41 Adams Dam Road, Wilmington, DE 19807", "locale": "es_AR"}, {"street1": null, "street2": null, "fullAddress": "41 Adams Dam Road, \u202bWilmington\u202c, \u202bDelaware\u202c 19807", "locale": "ar_EG"}, {"street1": null, "street2": null, "fullAddress": "41 Adams Dam Road, Wilmington, DE 19807", "locale": "en_MY"}, {"street1": null, "street2": null, "fullAddress": "41 Adams Dam Road, Wilmington, DE 19807", "locale": "sr"}, {"street1": null, "street2": null, "fullAddress": "41 Adams Dam Road, Wilmington, DE 19807", "locale": "it_CH"}, {"street1": null, "street2": null, "fullAddress": "41 Adams Dam Road, Wilmington, DE 19807", "locale": "da"}, {"street1": null, "street2": null, "fullAddress": "41 Adams Dam Road, Wilmington, DE 19807", "locale": "es"}, {"street1": null, "street2": null, "fullAddress": "41 Adams Dam Road, Wilmington, DE 19807", "locale": "tr"}, {"street1": null, "street2": null, "fullAddress": "41 Adams Dam Road, Wilmington, DE 19807", "locale": "en_HK"}, {"street1": null, "street2": null, "fullAddress": "41 Adams Dam Road, Wilmington, DE 19807", "locale": "en_IE"}, {"street1": null, "street2": null, "fullAddress": "41 Adams Dam Road, Wilmington, DE 19807", "locale": "en_CA"}, {"street1": null, "street2": null, "fullAddress": "41 Adams Dam Road, Wilmington, DE 19807", "locale": "nl_BE"}, {"street1": null, "street2": null, "fullAddress": "41 Adams Dam Road, Wilmington, DE 19807", "locale": "no"}, {"street1": null, "street2": null, "fullAddress": "41 Adams Dam Road, Wilmington, DE 19807", "locale": "pl"}, {"street1": null, "street2": null, "fullAddress": "41 Adams Dam Road, \u5a01\u5c14\u660e\u987f, DE", "locale": "zh_CN"}, {"street1": null, "street2": null, "fullAddress": "41 Adams Dam Road, Wilmington, DE 19807", "locale": "es_CO"}, {"street1": null, "street2": null, "fullAddress": "41 Adams Dam Road, Wilmington, DE 19807", "locale": "fr"}, {"street1": null, "street2": null, "fullAddress": "41 Adams Dam Road, \u30a6\u30a3\u30eb\u30df\u30f3\u30c8\u30f3, DE", "locale": "ja"}, {"street1": null, "street2": null, "fullAddress": "41 Adams Dam Road, \u05d5\u05d5\u05d9\u05dc\u05de\u05d9\u05e0\u05d2\u05d8\u05d5\u05df, DE 19807", "locale": "iw"}, {"street1": null, "street2": null, "fullAddress": "41 Adams Dam Road, Wilmington, DE 19807", "locale": "de"}, {"street1": null, "street2": null, "fullAddress": "41 Adams Dam Road, Wilmington, DE 19807", "locale": "en_IN"}, {"street1": null, "street2": null, "fullAddress": "41 Adams Dam Road, \u5a01\u5c14\u660e\u987f, DE", "locale": "zh"}, {"street1": null, "street2": null, "fullAddress": "41 Adams Dam Road, Wilmington, DE 19807", "locale": "es_PE"}, {"street1": null, "street2": null, "fullAddress": "41 Adams Dam Road, Wilmington, DE 19807", "locale": "en_PH"}], "parents": [{"placeType": "CITY", "locationId": 34059, "name": "Wilmington"}, {"placeType": "STATE", "locationId": 28929, "name": "Delaware"}, {"placeType": "COUNTRY", "locationId": 191, "name": "Hoa K\u1ef3"}, {"placeType": "CONTINENT", "locationId": 19, "name": "B\u0103\u0301c My\u0303"}, {"placeType": null, "locationId": 1, "name": "Th\u00ea\u0301 gi\u01a1\u0301i"}], "thumbnail": {"title": "Many of these in the park", "photoSizes": [{"height": 0, "isHorizontal": true, "width": 0, "url": "https://dynamic-media-cdn.tripadvisor.com/media/photo-o/05/cf/19/70/brandywine-creek-state.jpg?w=100&h=100&s=1"}, {"height": 50, "isHorizontal": true, "width": 50, "url": "https://media-cdn.tripadvisor.com/media/photo-t/05/cf/19/70/brandywine-creek-state.jpg"}, {"height": 150, "isHorizontal": true, "width": 150, "url": "https://media-cdn.tripadvisor.com/media/photo-l/05/cf/19/70/brandywine-creek-state.jpg"}, {"height": 187, "isHorizontal": true, "width": 250, "url": "https://media-cdn.tripadvisor.com/media/photo-f/05/cf/19/70/brandywine-creek-state.jpg"}, {"height": 412, "isHorizontal": true, "width": 550, "url": "https://media-cdn.tripadvisor.com/media/photo-s/05/cf/19/70/brandywine-creek-state.jpg"}, {"height": 768, "isHorizontal": true, "width": 1024, "url": "https://media-cdn.tripadvisor.com/media/photo-w/05/cf/19/70/brandywine-creek-state.jpg"}, {"height": 1500, "isHorizontal": true, "width": 2000, "url": "https://media-cdn.tripadvisor.com/media/photo-o/05/cf/19/70/brandywine-creek-state.jpg"}]}}]}}]