[{"data": {"accommodationType": [], "restaurantStyles": [{"tag": {"categoryId": 235, "tagId": 10613, "tagName": "Local cuisine", "tagNameLocalized": "Mo\u0301n \u0103n \u0111i\u0323a ph\u01b0\u01a1ng", "translationKey": "tags_category_tag_local_cuisine"}}, {"tag": {"categoryId": 235, "tagId": 10607, "tagName": "Special occasions", "tagNameLocalized": "Ca\u0301c di\u0323p \u0111\u0103\u0323c bi\u00ea\u0323t", "translationKey": "tags_category_tag_special_occasions"}}], "restaurantTypes": [{"tag": {"categoryId": 230, "tagId": 10591, "tagName": "Restaurants", "tagNameLocalized": "Nha\u0300 ha\u0300ng", "translationKey": "tags_category_tag_restaurants"}}], "restaurantMealTypes": [{"tag": {"categoryId": 233, "tagId": 10599, "tagName": "Dinner", "tagNameLocalized": "B\u01b0\u0303a t\u00f4\u0301i", "translationKey": "tags_category_tag_dinner"}}], "restaurantDiningOptions": [{"tag": {"categoryId": 234, "tagId": 10602, "tagName": "Reservations", "tagNameLocalized": "\u0110\u0103\u0323t ch\u00f4\u0303", "translationKey": "tags_category_tag_reservations"}}, {"tag": {"categoryId": 234, "tagId": 10854, "tagName": "Parking Available", "tagNameLocalized": "C\u00f3 b\u00e3i \u0111\u1ed7 xe", "translationKey": "tags_category_tag_parking_available"}}, {"tag": {"categoryId": 234, "tagId": 16547, "tagName": "Table Service", "tagNameLocalized": "D\u1ecbch v\u1ee5 b\u00e0n", "translationKey": "tags_category_tag_table_service"}}, {"tag": {"categoryId": 234, "tagId": 10862, "tagName": "Serves Alcohol", "tagNameLocalized": "Ph\u1ee5c v\u1ee5 \u0111\u1ed3 u\u1ed1ng c\u00f3 c\u1ed3n", "translationKey": "tags_category_tag_serves_alcohol"}}, {"tag": {"categoryId": 234, "tagId": 10861, "tagName": "Wheelchair Accessible", "tagNameLocalized": "L\u1ed1i v\u00e0o ra cho xe l\u0103n", "translationKey": "tags_category_tag_wheelchair_accessible"}}, {"tag": {"categoryId": 234, "tagId": 10852, "tagName": "Seating", "tagNameLocalized": "Ch\u1ed7 ng\u1ed3i", "translationKey": "tags_category_tag_seating"}}], "restaurantPrice": [{"tag": {"categoryId": 240, "tagId": 10954, "tagName": "Fine Dining", "tagNameLocalized": "\u0102n u\u00f4\u0301ng \u01a1\u0309 nha\u0300 ha\u0300ng sang tro\u0323ng", "translationKey": "tags_category_tag_fine_dining"}}], "restaurantCuisines": [{"tag": {"categoryId": 231, "tagId": 9908, "tagName": "American", "tagNameLocalized": "Ki\u1ec3u My\u0303", "translationKey": "tags_category_tag_american"}}, {"tag": {"categoryId": 231, "tagId": 10643, "tagName": "Seafood", "tagNameLocalized": "Ha\u0309i sa\u0309n", "translationKey": "tags_category_tag_seafood"}}], "locations": [{"accommodationType": "T_UNKNOWN", "countryId": 191, "hoursOfOperation": {"dailyTimeIntervals": [{"day": "MONDAY", "timeIntervals": [{"openingTime": {"hours": 17, "minutes": 0}, "closingTime": {"hours": 21, "minutes": 0}}]}, {"day": "TUESDAY", "timeIntervals": []}, {"day": "WEDNESDAY", "timeIntervals": []}, {"day": "THURSDAY", "timeIntervals": [{"openingTime": {"hours": 17, "minutes": 0}, "closingTime": {"hours": 21, "minutes": 0}}]}, {"day": "FRIDAY", "timeIntervals": [{"openingTime": {"hours": 17, "minutes": 0}, "closingTime": {"hours": 21, "minutes": 0}}]}, {"day": "SATURDAY", "timeIntervals": [{"openingTime": {"hours": 17, "minutes": 0}, "closingTime": {"hours": 21, "minutes": 0}}]}, {"day": "SUNDAY", "timeIntervals": [{"openingTime": {"hours": 17, "minutes": 0}, "closingTime": {"hours": 21, "minutes": 0}}]}]}, "isClosed": false, "isOwner": false, "latitude": 38.415283, "localizedDescriptions": [], "localizedNames": [], "locationId": 391257, "locationV2": {"attractionTypes": []}, "longitude": -75.12074, "parentId": 41007, "placeType": "EATERY", "absoluteOwnerManagementUrl": "https://www.tripadvisor.com.vn/RSManagementCenter-d391257-Grove_Market?cat=0&geo=41007", "email": "", "geoName": "Bishopville", "isoCountryCode": "US", "localizedName": "Grove Market", "name": "Grove Market", "locationDescription": null, "officialUrl": "http://www.facebook.com/pages/The-Grove-Market-Smokehouse-Restaurant/183187955065402", "postPhotosUrl": "/PostPhotos-d391257", "telephone": "+1 410-352-5055", "url": "/Restaurant_Review-g41007-d391257-Reviews-Grove_Market-Bishopville_Maryland.html", "writeUserReviewUrl": "/UserReview-g41007-d391257-Grove_Market-Bishopville_Maryland.html", "localizedStreetAddress": {"city": "Bishopville", "country": "Hoa K\u1ef3", "fullAddress": "12402 Saint Martins Neck Rd, Bishopville, MD 21813-1671", "postalCode": "21813-1671", "state": "Maryland", "street1": "12402 Saint Martins Neck Rd", "street2": ""}, "streetAddress": {"street1": "12402 Saint Martins Neck Rd", "street2": "", "state": "Maryland", "city": "Bishopville", "postalCode": "21813-1671", "fullAddress": "12402 Saint Martins Neck Rd, Bishopville, MD 21813-1671"}, "localizedStreetAddresses": [{"street1": null, "street2": null, "fullAddress": "12402 Saint Martins Neck Rd, Bishopville, MD 21813-1671", "locale": "fr_BE"}, {"street1": null, "street2": null, "fullAddress": "12402 Saint Martins Neck Rd, Bishopville, MD 21813-1671", "locale": "es_MX"}, {"street1": null, "street2": null, "fullAddress": "12402 Saint Martins Neck Rd, Bishopville, MD 21813-1671", "locale": "es_VE"}, {"street1": null, "street2": null, "fullAddress": "12402 Saint Martins Neck Rd, Bishopville, MD", "locale": "zh_HK"}, {"street1": null, "street2": null, "fullAddress": "12402 Saint Martins Neck Rd, Bishopville, MD", "locale": "zh_TW"}, {"street1": null, "street2": null, "fullAddress": "12402 Saint Martins Neck Rd, Bishopville, MD 21813-1671", "locale": "it"}, {"street1": null, "street2": null, "fullAddress": "12402 Saint Martins Neck Rd, \ube44\uc20d\ube4c, MD", "locale": "ko"}, {"street1": null, "street2": null, "fullAddress": "12402 Saint Martins Neck Rd, Bishopville, MD 21813-1671", "locale": "es_CL"}, {"street1": null, "street2": null, "fullAddress": "12402 Saint Martins Neck Rd, Bishopville, MD 21813-1671", "locale": "fi"}, {"street1": null, "street2": null, "fullAddress": "12402 Saint Martins Neck Rd, Bishopville, MD 21813-1671", "locale": "pt_PT"}, {"street1": null, "street2": null, "fullAddress": "12402 Saint Martins Neck Rd, Bishopville, MD 21813-1671", "locale": "en_US"}, {"street1": null, "street2": null, "fullAddress": "12402 Saint Martins Neck Rd, Bishopville, MD 21813-1671", "locale": "th"}, {"street1": null, "street2": null, "fullAddress": "12402 Saint Martins Neck Rd, Bishopville, MD 21813-1671", "locale": "en_SG"}, {"street1": null, "street2": null, "fullAddress": "12402 Saint Martins Neck Rd, Bishopville, MD 21813-1671", "locale": "pt"}, {"street1": null, "street2": null, "fullAddress": "12402 Saint Martins Neck Rd, Bishopville, MD 21813-1671", "locale": "en_UK"}, {"street1": null, "street2": null, "fullAddress": "12402 Saint Martins Neck Rd, \u202bBishopville\u202c, \u202bMaryland\u202c 21813-1671", "locale": "ar"}, {"street1": null, "street2": null, "fullAddress": "12402 Saint Martins Neck Rd, Bishopville, MD 21813-1671", "locale": "ru"}, {"street1": null, "street2": null, "fullAddress": "12402 Saint Martins Neck Rd, Bishopville, MD 21813-1671", "locale": "en_NZ"}, {"street1": null, "street2": null, "fullAddress": "12402 Saint Martins Neck Rd, Bishopville, MD 21813-1671", "locale": "de_CH"}, {"street1": null, "street2": null, "fullAddress": "12402 Saint Martins Neck Rd, Bishopville, MD 21813-1671", "locale": "sk"}, {"street1": null, "street2": null, "fullAddress": "12402 Saint Martins Neck Rd, Bishopville, MD 21813-1671", "locale": "en_ZA"}, {"street1": null, "street2": null, "fullAddress": "12402 Saint Martins Neck Rd, Bishopville, MD 21813-1671", "locale": "sv"}, {"street1": null, "street2": null, "fullAddress": "12402 Saint Martins Neck Rd, Bishopville, MD 21813-1671", "locale": "cs"}, {"street1": null, "street2": null, "fullAddress": "12402 Saint Martins Neck Rd, Bishopville, MD 21813-1671", "locale": "el"}, {"street1": null, "street2": null, "fullAddress": "12402 Saint Martins Neck Rd, Bishopville, MD 21813-1671", "locale": "de_AT"}, {"street1": null, "street2": null, "fullAddress": "12402 Saint Martins Neck Rd, Bishopville, MD 21813-1671", "locale": "nl"}, {"street1": null, "street2": null, "fullAddress": "12402 Saint Martins Neck Rd, Bishopville, MD 21813-1671", "locale": "fr_CH"}, {"street1": null, "street2": null, "fullAddress": "12402 Saint Martins Neck Rd, Bishopville, MD 21813-1671", "locale": "hu"}, {"street1": null, "street2": null, "fullAddress": "12402 Saint Martins Neck Rd, Bishopville, MD 21813-1671", "locale": "en_AU"}, {"street1": null, "street2": null, "fullAddress": "12402 Saint Martins Neck Rd, Bishopville, MD 21813-1671", "locale": "in"}, {"street1": null, "street2": null, "fullAddress": "12402 Saint Martins Neck Rd, Bishopville, MD 21813-1671", "locale": "vi"}, {"street1": null, "street2": null, "fullAddress": "12402 Saint Martins Neck Rd, Bishopville, MD 21813-1671", "locale": "fr_CA"}, {"street1": null, "street2": null, "fullAddress": "12402 Saint Martins Neck Rd, Bishopville, MD 21813-1671", "locale": "es_AR"}, {"street1": null, "street2": null, "fullAddress": "12402 Saint Martins Neck Rd, \u202bBishopville\u202c, \u202bMaryland\u202c 21813-1671", "locale": "ar_EG"}, {"street1": null, "street2": null, "fullAddress": "12402 Saint Martins Neck Rd, Bishopville, MD 21813-1671", "locale": "en_MY"}, {"street1": null, "street2": null, "fullAddress": "12402 Saint Martins Neck Rd, Bishopville, MD 21813-1671", "locale": "sr"}, {"street1": null, "street2": null, "fullAddress": "12402 Saint Martins Neck Rd, Bishopville, MD 21813-1671", "locale": "it_CH"}, {"street1": null, "street2": null, "fullAddress": "12402 Saint Martins Neck Rd, Bishopville, MD 21813-1671", "locale": "da"}, {"street1": null, "street2": null, "fullAddress": "12402 Saint Martins Neck Rd, Bishopville, MD 21813-1671", "locale": "es"}, {"street1": null, "street2": null, "fullAddress": "12402 Saint Martins Neck Rd, Bishopville, MD 21813-1671", "locale": "tr"}, {"street1": null, "street2": null, "fullAddress": "12402 Saint Martins Neck Rd, Bishopville, MD 21813-1671", "locale": "en_HK"}, {"street1": null, "street2": null, "fullAddress": "12402 Saint Martins Neck Rd, Bishopville, MD 21813-1671", "locale": "en_IE"}, {"street1": null, "street2": null, "fullAddress": "12402 Saint Martins Neck Rd, Bishopville, MD 21813-1671", "locale": "en_CA"}, {"street1": null, "street2": null, "fullAddress": "12402 Saint Martins Neck Rd, Bishopville, MD 21813-1671", "locale": "no"}, {"street1": null, "street2": null, "fullAddress": "12402 Saint Martins Neck Rd, Bishopville, MD 21813-1671", "locale": "pl"}, {"street1": null, "street2": null, "fullAddress": "12402 Saint Martins Neck Rd, Bishopville, MD 21813-1671", "locale": "nl_BE"}, {"street1": null, "street2": null, "fullAddress": "12402 Saint Martins Neck Rd, Bishopville, MD", "locale": "zh_CN"}, {"street1": null, "street2": null, "fullAddress": "12402 Saint Martins Neck Rd, Bishopville, MD 21813-1671", "locale": "es_CO"}, {"street1": null, "street2": null, "fullAddress": "12402 Saint Martins Neck Rd, Bishopville, MD 21813-1671", "locale": "fr"}, {"street1": null, "street2": null, "fullAddress": "12402 Saint Martins Neck Rd, \u30d3\u30b7\u30e7\u30c3\u30d7\u30d3\u30eb, MD", "locale": "ja"}, {"street1": null, "street2": null, "fullAddress": "12402 Saint Martins Neck Rd, \u202bBishopville\u202c, MD 21813-1671", "locale": "iw"}, {"street1": null, "street2": null, "fullAddress": "12402 Saint Martins Neck Rd, Bishopville, MD 21813-1671", "locale": "de"}, {"street1": null, "street2": null, "fullAddress": "12402 Saint Martins Neck Rd, Bishopville, MD 21813-1671", "locale": "en_IN"}, {"street1": null, "street2": null, "fullAddress": "12402 Saint Martins Neck Rd, Bishopville, MD", "locale": "zh"}, {"street1": null, "street2": null, "fullAddress": "12402 Saint Martins Neck Rd, Bishopville, MD 21813-1671", "locale": "es_PE"}, {"street1": null, "street2": null, "fullAddress": "12402 Saint Martins Neck Rd, Bishopville, MD 21813-1671", "locale": "en_PH"}], "parents": [{"placeType": "CITY", "locationId": 41007, "name": "Bishopville"}, {"placeType": "STATE", "locationId": 28941, "name": "Maryland"}, {"placeType": "COUNTRY", "locationId": 191, "name": "Hoa K\u1ef3"}, {"placeType": "CONTINENT", "locationId": 19, "name": "B\u0103\u0301c My\u0303"}, {"placeType": null, "locationId": 1, "name": "Th\u00ea\u0301 gi\u01a1\u0301i"}], "thumbnail": {"title": null, "photoSizes": [{"height": 0, "isHorizontal": true, "width": 0, "url": "https://dynamic-media-cdn.tripadvisor.com/media/photo-o/1d/97/91/e1/grove-market.jpg?w=100&h=100&s=1"}, {"height": 50, "isHorizontal": true, "width": 50, "url": "https://media-cdn.tripadvisor.com/media/photo-t/1d/97/91/e1/grove-market.jpg"}, {"height": 150, "isHorizontal": true, "width": 150, "url": "https://media-cdn.tripadvisor.com/media/photo-l/1d/97/91/e1/grove-market.jpg"}, {"height": 200, "isHorizontal": false, "width": 180, "url": "https://media-cdn.tripadvisor.com/media/photo-i/1d/97/91/e1/grove-market.jpg"}, {"height": 188, "isHorizontal": true, "width": 250, "url": "https://media-cdn.tripadvisor.com/media/photo-f/1d/97/91/e1/grove-market.jpg"}, {"height": 412, "isHorizontal": true, "width": 550, "url": "https://media-cdn.tripadvisor.com/media/photo-s/1d/97/91/e1/grove-market.jpg"}, {"height": 768, "isHorizontal": true, "width": 1024, "url": "https://media-cdn.tripadvisor.com/media/photo-w/1d/97/91/e1/grove-market.jpg"}, {"height": 960, "isHorizontal": true, "width": 1280, "url": "https://media-cdn.tripadvisor.com/media/photo-m/1280/1d/97/91/e1/grove-market.jpg"}]}}]}}]