[{"data": {"restaurantStyles": [], "restaurantDiningOptions": [], "accommodationType": [], "restaurantTypes": [{"tag": {"categoryId": 230, "tagId": 10591, "tagName": "Restaurants", "tagNameLocalized": "Nha\u0300 ha\u0300ng", "translationKey": "tags_category_tag_restaurants"}}], "restaurantMealTypes": [{"tag": {"categoryId": 233, "tagId": 10598, "tagName": "Lunch", "tagNameLocalized": "B\u01b0\u0303a tr\u01b0a", "translationKey": "tags_category_tag_lunch"}}, {"tag": {"categoryId": 233, "tagId": 10597, "tagName": "Breakfast", "tagNameLocalized": "B\u1eefa s\u00e1ng", "translationKey": "tags_category_tag_breakfast"}}, {"tag": {"categoryId": 233, "tagId": 10599, "tagName": "Dinner", "tagNameLocalized": "B\u01b0\u0303a t\u00f4\u0301i", "translationKey": "tags_category_tag_dinner"}}], "restaurantPrice": [{"tag": {"categoryId": 240, "tagId": 10953, "tagName": "Cheap Eats", "tagNameLocalized": "\u0110\u00f4\u0300 \u0103n gia\u0301 re\u0309", "translationKey": "tags_category_tag_cheap_eats"}}], "restaurantCuisines": [{"tag": {"categoryId": 231, "tagId": 10666, "tagName": "Delicatessen", "tagNameLocalized": "C\u1eeda h\u00e0ng th\u1ee9c \u0103n ngon", "translationKey": "tags_category_tag_delicatessen_1"}}], "locations": [{"accommodationType": "T_UNKNOWN", "countryId": 191, "hoursOfOperation": {"dailyTimeIntervals": [{"day": "MONDAY", "timeIntervals": [{"openingTime": {"hours": 8, "minutes": 0}, "closingTime": {"hours": 18, "minutes": 0}}]}, {"day": "TUESDAY", "timeIntervals": [{"openingTime": {"hours": 8, "minutes": 0}, "closingTime": {"hours": 18, "minutes": 0}}]}, {"day": "WEDNESDAY", "timeIntervals": [{"openingTime": {"hours": 8, "minutes": 0}, "closingTime": {"hours": 18, "minutes": 0}}]}, {"day": "THURSDAY", "timeIntervals": [{"openingTime": {"hours": 8, "minutes": 0}, "closingTime": {"hours": 18, "minutes": 0}}]}, {"day": "FRIDAY", "timeIntervals": [{"openingTime": {"hours": 8, "minutes": 0}, "closingTime": {"hours": 20, "minutes": 0}}]}, {"day": "SATURDAY", "timeIntervals": [{"openingTime": {"hours": 10, "minutes": 0}, "closingTime": {"hours": 19, "minutes": 0}}]}, {"day": "SUNDAY", "timeIntervals": [{"openingTime": {"hours": 10, "minutes": 0}, "closingTime": {"hours": 16, "minutes": 0}}]}]}, "isClosed": false, "isOwner": false, "latitude": 38.32391, "localizedDescriptions": [], "localizedNames": [], "locationId": 3952059, "locationV2": {"attractionTypes": []}, "longitude": -75.21898, "parentId": 60727, "placeType": "EATERY", "absoluteOwnerManagementUrl": "https://www.tripadvisor.com.vn/RSManagementCenter-d3952059-Main_Street_Deli?cat=0&geo=60727", "email": null, "geoName": "Berlin", "isoCountryCode": "US", "localizedName": "Main Street Deli", "name": "Main Street Deli", "locationDescription": null, "officialUrl": "https://www.facebook.com/mainstreetdeliberlin", "postPhotosUrl": "/PostPhotos-d3952059", "telephone": "+1 443-736-2879", "url": "/Restaurant_Review-g60727-d3952059-Reviews-Main_Street_Deli-Berlin_Maryland.html", "writeUserReviewUrl": "/UserReview-g60727-d3952059-Main_Street_Deli-Berlin_Maryland.html", "localizedStreetAddress": {"city": "Berlin", "country": "Hoa K\u1ef3", "fullAddress": "10 S Main St, Berlin, MD 21811-1472", "postalCode": "21811-1472", "state": "Maryland", "street1": "10 S Main St", "street2": ""}, "streetAddress": {"street1": "10 S Main St", "street2": "", "state": "Maryland", "city": "Berlin", "postalCode": "21811-1472", "fullAddress": "10 S Main St, Berlin, MD 21811-1472"}, "localizedStreetAddresses": [{"street1": null, "street2": null, "fullAddress": "10 S Main St, Berlin, MD 21811-1472", "locale": "fr_BE"}, {"street1": null, "street2": null, "fullAddress": "10 S Main St, Berlin, MD 21811-1472", "locale": "es_MX"}, {"street1": null, "street2": null, "fullAddress": "10 S Main St, Berlin, MD 21811-1472", "locale": "es_VE"}, {"street1": null, "street2": null, "fullAddress": "10 S Main St, Berlin, MD", "locale": "zh_HK"}, {"street1": null, "street2": null, "fullAddress": "10 S Main St, Berlin, MD", "locale": "zh_TW"}, {"street1": null, "street2": null, "fullAddress": "10 S Main St, Berlin, MD 21811-1472", "locale": "it"}, {"street1": null, "street2": null, "fullAddress": "10 S Main St, \ubca0\ub97c\ub9b0, MD", "locale": "ko"}, {"street1": null, "street2": null, "fullAddress": "10 S Main St, Berlin, MD 21811-1472", "locale": "es_CL"}, {"street1": null, "street2": null, "fullAddress": "10 S Main St, Berlin, MD 21811-1472", "locale": "fi"}, {"street1": null, "street2": null, "fullAddress": "10 S Main St, Berlin, MD 21811-1472", "locale": "pt_PT"}, {"street1": null, "street2": null, "fullAddress": "10 S Main St, Berlin, MD 21811-1472", "locale": "en_US"}, {"street1": null, "street2": null, "fullAddress": "10 S Main St, \u0e40\u0e1a\u0e2d\u0e23\u0e4c\u0e25\u0e34\u0e19, MD 21811-1472", "locale": "th"}, {"street1": null, "street2": null, "fullAddress": "10 S Main St, Berlin, MD 21811-1472", "locale": "en_SG"}, {"street1": null, "street2": null, "fullAddress": "10 S Main St, Berlin, MD 21811-1472", "locale": "pt"}, {"street1": null, "street2": null, "fullAddress": "10 S Main St, Berlin, MD 21811-1472", "locale": "en_UK"}, {"street1": null, "street2": null, "fullAddress": "10 S Main St, \u202bBerlin\u202c, \u202bMaryland\u202c 21811-1472", "locale": "ar"}, {"street1": null, "street2": null, "fullAddress": "10 S Main St, Berlin, MD 21811-1472", "locale": "ru"}, {"street1": null, "street2": null, "fullAddress": "10 S Main St, Berlin, MD 21811-1472", "locale": "en_NZ"}, {"street1": null, "street2": null, "fullAddress": "10 S Main St, Berlin, MD 21811-1472", "locale": "de_CH"}, {"street1": null, "street2": null, "fullAddress": "10 S Main St, Berlin, MD 21811-1472", "locale": "sk"}, {"street1": null, "street2": null, "fullAddress": "10 S Main St, Berlin, MD 21811-1472", "locale": "en_ZA"}, {"street1": null, "street2": null, "fullAddress": "10 S Main St, Berlin, MD 21811-1472", "locale": "cs"}, {"street1": null, "street2": null, "fullAddress": "10 S Main St, Berlin, MD 21811-1472", "locale": "sv"}, {"street1": null, "street2": null, "fullAddress": "10 S Main St, Berlin, MD 21811-1472", "locale": "el"}, {"street1": null, "street2": null, "fullAddress": "10 S Main St, Berlin, MD 21811-1472", "locale": "de_AT"}, {"street1": null, "street2": null, "fullAddress": "10 S Main St, Berlin, MD 21811-1472", "locale": "hu"}, {"street1": null, "street2": null, "fullAddress": "10 S Main St, Berlin, MD 21811-1472", "locale": "nl"}, {"street1": null, "street2": null, "fullAddress": "10 S Main St, Berlin, MD 21811-1472", "locale": "fr_CH"}, {"street1": null, "street2": null, "fullAddress": "10 S Main St, Berlin, MD 21811-1472", "locale": "en_AU"}, {"street1": null, "street2": null, "fullAddress": "10 S Main St, Berlin, MD 21811-1472", "locale": "in"}, {"street1": null, "street2": null, "fullAddress": "10 S Main St, Berlin, MD 21811-1472", "locale": "vi"}, {"street1": null, "street2": null, "fullAddress": "10 S Main St, Berlin, MD 21811-1472", "locale": "fr_CA"}, {"street1": null, "street2": null, "fullAddress": "10 S Main St, Berlin, MD 21811-1472", "locale": "es_AR"}, {"street1": null, "street2": null, "fullAddress": "10 S Main St, \u202bBerlin\u202c, \u202bMaryland\u202c 21811-1472", "locale": "ar_EG"}, {"street1": null, "street2": null, "fullAddress": "10 S Main St, Berlin, MD 21811-1472", "locale": "sr"}, {"street1": null, "street2": null, "fullAddress": "10 S Main St, Berlin, MD 21811-1472", "locale": "en_MY"}, {"street1": null, "street2": null, "fullAddress": "10 S Main St, Berlin, MD 21811-1472", "locale": "it_CH"}, {"street1": null, "street2": null, "fullAddress": "10 S Main St, Berlin, MD 21811-1472", "locale": "da"}, {"street1": null, "street2": null, "fullAddress": "10 S Main St, Berlin, MD 21811-1472", "locale": "es"}, {"street1": null, "street2": null, "fullAddress": "10 S Main St, Berlin, MD 21811-1472", "locale": "tr"}, {"street1": null, "street2": null, "fullAddress": "10 S Main St, Berlin, MD 21811-1472", "locale": "en_HK"}, {"street1": null, "street2": null, "fullAddress": "10 S Main St, Berlin, MD 21811-1472", "locale": "en_IE"}, {"street1": null, "street2": null, "fullAddress": "10 S Main St, Berlin, MD 21811-1472", "locale": "en_CA"}, {"street1": null, "street2": null, "fullAddress": "10 S Main St, Berlin, MD 21811-1472", "locale": "nl_BE"}, {"street1": null, "street2": null, "fullAddress": "10 S Main St, Berlin, MD 21811-1472", "locale": "pl"}, {"street1": null, "street2": null, "fullAddress": "10 S Main St, Berlin, MD 21811-1472", "locale": "no"}, {"street1": null, "street2": null, "fullAddress": "10 S Main St, Berlin, MD", "locale": "zh_CN"}, {"street1": null, "street2": null, "fullAddress": "10 S Main St, Berlin, MD 21811-1472", "locale": "es_CO"}, {"street1": null, "street2": null, "fullAddress": "10 S Main St, Berlin, MD 21811-1472", "locale": "fr"}, {"street1": null, "street2": null, "fullAddress": "10 S Main St, \u30d9\u30fc\u30ea\u30f3, MD", "locale": "ja"}, {"street1": null, "street2": null, "fullAddress": "10 S Main St, \u05d1\u05e8\u05dc\u05d9\u05df, MD 21811-1472", "locale": "iw"}, {"street1": null, "street2": null, "fullAddress": "10 S Main St, Berlin, MD 21811-1472", "locale": "en_IN"}, {"street1": null, "street2": null, "fullAddress": "10 S Main St, Berlin, MD 21811-1472", "locale": "de"}, {"street1": null, "street2": null, "fullAddress": "10 S Main St, Berlin, MD", "locale": "zh"}, {"street1": null, "street2": null, "fullAddress": "10 S Main St, Berlin, MD 21811-1472", "locale": "es_PE"}, {"street1": null, "street2": null, "fullAddress": "10 S Main St, Berlin, MD 21811-1472", "locale": "en_PH"}], "parents": [{"placeType": "CITY", "locationId": 60727, "name": "Berlin"}, {"placeType": "STATE", "locationId": 28941, "name": "Maryland"}, {"placeType": "COUNTRY", "locationId": 191, "name": "Hoa K\u1ef3"}, {"placeType": "CONTINENT", "locationId": 19, "name": "B\u0103\u0301c My\u0303"}, {"placeType": null, "locationId": 1, "name": "Th\u00ea\u0301 gi\u01a1\u0301i"}], "thumbnail": {"title": null, "photoSizes": [{"height": 0, "isHorizontal": false, "width": 0, "url": "https://dynamic-media-cdn.tripadvisor.com/media/photo-o/1c/1e/12/8f/the-best-sandwich-for.jpg?w=100&h=100&s=1"}, {"height": 50, "isHorizontal": true, "width": 50, "url": "https://media-cdn.tripadvisor.com/media/photo-t/1c/1e/12/8f/the-best-sandwich-for.jpg"}, {"height": 150, "isHorizontal": true, "width": 150, "url": "https://media-cdn.tripadvisor.com/media/photo-l/1c/1e/12/8f/the-best-sandwich-for.jpg"}, {"height": 205, "isHorizontal": false, "width": 154, "url": "https://media-cdn.tripadvisor.com/media/photo-f/1c/1e/12/8f/the-best-sandwich-for.jpg"}, {"height": 200, "isHorizontal": false, "width": 180, "url": "https://media-cdn.tripadvisor.com/media/photo-i/1c/1e/12/8f/the-best-sandwich-for.jpg"}, {"height": 450, "isHorizontal": false, "width": 338, "url": "https://media-cdn.tripadvisor.com/media/photo-s/1c/1e/12/8f/the-best-sandwich-for.jpg"}, {"height": 733, "isHorizontal": false, "width": 550, "url": "https://media-cdn.tripadvisor.com/media/photo-p/1c/1e/12/8f/the-best-sandwich-for.jpg"}, {"height": 1280, "isHorizontal": false, "width": 960, "url": "https://media-cdn.tripadvisor.com/media/photo-m/1280/1c/1e/12/8f/the-best-sandwich-for.jpg"}, {"height": 1365, "isHorizontal": false, "width": 1024, "url": "https://media-cdn.tripadvisor.com/media/photo-w/1c/1e/12/8f/the-best-sandwich-for.jpg"}]}}]}}]