[{"data": {"restaurantStyles": [], "restaurantDiningOptions": [], "accommodationType": [], "restaurantTypes": [{"tag": {"categoryId": 230, "tagId": 10591, "tagName": "Restaurants", "tagNameLocalized": "Nha\u0300 ha\u0300ng", "translationKey": "tags_category_tag_restaurants"}}], "restaurantMealTypes": [{"tag": {"categoryId": 233, "tagId": 10598, "tagName": "Lunch", "tagNameLocalized": "B\u01b0\u0303a tr\u01b0a", "translationKey": "tags_category_tag_lunch"}}, {"tag": {"categoryId": 233, "tagId": 10599, "tagName": "Dinner", "tagNameLocalized": "B\u01b0\u0303a t\u00f4\u0301i", "translationKey": "tags_category_tag_dinner"}}], "restaurantPrice": [{"tag": {"categoryId": 240, "tagId": 10955, "tagName": "Mid Range", "tagNameLocalized": "H\u1ea1ng trung", "translationKey": "tags_category_tag_mid_range"}}], "restaurantCuisines": [{"tag": {"categoryId": 231, "tagId": 10659, "tagName": "Asian", "tagNameLocalized": "Ki\u00ea\u0309u A\u0301", "translationKey": "tags_category_tag_asian"}}, {"tag": {"categoryId": 231, "tagId": 5379, "tagName": "Chinese", "tagNameLocalized": "Ki\u1ec3u Trung Qu\u1ed1c", "translationKey": "tags_category_tag_chinese"}}], "locations": [{"accommodationType": "T_UNKNOWN", "countryId": 191, "hoursOfOperation": {"dailyTimeIntervals": [{"day": "MONDAY", "timeIntervals": [{"openingTime": {"hours": 10, "minutes": 30}, "closingTime": {"hours": 22, "minutes": 0}}]}, {"day": "TUESDAY", "timeIntervals": [{"openingTime": {"hours": 10, "minutes": 30}, "closingTime": {"hours": 22, "minutes": 0}}]}, {"day": "WEDNESDAY", "timeIntervals": [{"openingTime": {"hours": 10, "minutes": 30}, "closingTime": {"hours": 22, "minutes": 0}}]}, {"day": "THURSDAY", "timeIntervals": [{"openingTime": {"hours": 10, "minutes": 30}, "closingTime": {"hours": 22, "minutes": 0}}]}, {"day": "FRIDAY", "timeIntervals": [{"openingTime": {"hours": 10, "minutes": 30}, "closingTime": {"hours": 22, "minutes": 30}}]}, {"day": "SATURDAY", "timeIntervals": [{"openingTime": {"hours": 10, "minutes": 30}, "closingTime": {"hours": 22, "minutes": 30}}]}, {"day": "SUNDAY", "timeIntervals": [{"openingTime": {"hours": 10, "minutes": 30}, "closingTime": {"hours": 22, "minutes": 0}}]}]}, "isClosed": false, "isOwner": false, "latitude": 39.86044, "localizedDescriptions": [], "localizedNames": [], "locationId": 4400038, "locationV2": {"attractionTypes": []}, "longitude": -75.68317, "parentId": 52926, "placeType": "EATERY", "thumbnail": null, "absoluteOwnerManagementUrl": "https://www.tripadvisor.com.vn/RSManagementCenter-d4400038-China_Garden?cat=0&geo=52926", "email": null, "geoName": "Kennett Square", "isoCountryCode": "US", "localizedName": "China Garden", "name": "China Garden", "locationDescription": null, "officialUrl": "http://www.chinagardenpa.com", "postPhotosUrl": "/PostPhotos-d4400038", "telephone": "+1 610-444-5989", "url": "/Restaurant_Review-g52926-d4400038-Reviews-China_Garden-Kennett_Square_Pennsylvania.html", "writeUserReviewUrl": "/UserReview-g52926-d4400038-China_Garden-Kennett_Square_Pennsylvania.html", "localizedStreetAddress": {"city": "Kennett Square", "country": "Hoa K\u1ef3", "fullAddress": "826 E Baltimore Pike Unit 3, Kennett Square, PA 19348-1870", "postalCode": "19348-1870", "state": "Pennsylvania:", "street1": "826 E Baltimore Pike", "street2": "Unit 3"}, "streetAddress": {"street1": "826 E Baltimore Pike", "street2": "Unit 3", "state": "Pennsylvania:", "city": "Kennett Square", "postalCode": "19348-1870", "fullAddress": "826 E Baltimore Pike Unit 3, Kennett Square, PA 19348-1870"}, "localizedStreetAddresses": [{"street1": null, "street2": null, "fullAddress": "826 E Baltimore Pike Unit 3, Kennett Square, PA 19348-1870", "locale": "fr_BE"}, {"street1": null, "street2": null, "fullAddress": "826 E Baltimore Pike Unit 3, Kennett Square, PA 19348-1870", "locale": "es_MX"}, {"street1": null, "street2": null, "fullAddress": "826 E Baltimore Pike Unit 3, Kennett Square, PA 19348-1870", "locale": "es_VE"}, {"street1": null, "street2": null, "fullAddress": "826 E Baltimore Pike Unit 3, \u80af\u5c3c\u7279\u65af\u594e\u723e, PA", "locale": "zh_TW"}, {"street1": null, "street2": null, "fullAddress": "826 E Baltimore Pike Unit 3, \u80af\u5c3c\u7279\u65af\u594e\u723e, PA", "locale": "zh_HK"}, {"street1": null, "street2": null, "fullAddress": "826 E Baltimore Pike Unit 3, Kennett Square, PA 19348-1870", "locale": "it"}, {"street1": null, "street2": null, "fullAddress": "826 E Baltimore Pike Unit 3, \ucf00\ub137\ud2b8 \uc2a4\ud018\uc5b4, PA", "locale": "ko"}, {"street1": null, "street2": null, "fullAddress": "826 E Baltimore Pike Unit 3, Kennett Square, PA 19348-1870", "locale": "es_CL"}, {"street1": null, "street2": null, "fullAddress": "826 E Baltimore Pike Unit 3, Kennett Square, PA 19348-1870", "locale": "fi"}, {"street1": null, "street2": null, "fullAddress": "826 E Baltimore Pike Unit 3, Kennett Square, PA 19348-1870", "locale": "pt_PT"}, {"street1": null, "street2": null, "fullAddress": "826 E Baltimore Pike Unit 3, Kennett Square, PA 19348-1870", "locale": "en_US"}, {"street1": null, "street2": null, "fullAddress": "826 E Baltimore Pike Unit 3, \u0e40\u0e04\u0e19\u0e40\u0e19\u0e15\u0e15\u0e4c\u0e2a\u0e41\u0e04\u0e27\u0e23\u0e4c, PA 19348-1870", "locale": "th"}, {"street1": null, "street2": null, "fullAddress": "826 E Baltimore Pike Unit 3, Kennett Square, PA 19348-1870", "locale": "en_SG"}, {"street1": null, "street2": null, "fullAddress": "826 E Baltimore Pike Unit 3, Kennett Square, PA 19348-1870", "locale": "pt"}, {"street1": null, "street2": null, "fullAddress": "826 E Baltimore Pike Unit 3, Kennett Square, PA 19348-1870", "locale": "en_UK"}, {"street1": null, "street2": null, "fullAddress": "826 E Baltimore Pike Unit 3, \u202bKennett Square\u202c, \u0628\u0646\u0633\u064a\u0644\u0641\u0627\u0646\u064a\u0627 19348-1870", "locale": "ar"}, {"street1": null, "street2": null, "fullAddress": "826 E Baltimore Pike Unit 3, \u041a\u0435\u043d\u043d\u0435\u0442-\u0421\u043a\u0432\u0435\u0440, PA 19348-1870", "locale": "ru"}, {"street1": null, "street2": null, "fullAddress": "826 E Baltimore Pike Unit 3, Kennett Square, PA 19348-1870", "locale": "en_NZ"}, {"street1": null, "street2": null, "fullAddress": "826 E Baltimore Pike Unit 3, Kennett Square, PA 19348-1870", "locale": "de_CH"}, {"street1": null, "street2": null, "fullAddress": "826 E Baltimore Pike Unit 3, Kennett Square, PA 19348-1870", "locale": "sk"}, {"street1": null, "street2": null, "fullAddress": "826 E Baltimore Pike Unit 3, Kennett Square, PA 19348-1870", "locale": "en_ZA"}, {"street1": null, "street2": null, "fullAddress": "826 E Baltimore Pike Unit 3, Kennett Square, PA 19348-1870", "locale": "sv"}, {"street1": null, "street2": null, "fullAddress": "826 E Baltimore Pike Unit 3, Kennett Square, PA 19348-1870", "locale": "cs"}, {"street1": null, "street2": null, "fullAddress": "826 E Baltimore Pike Unit 3, Kennett Square, PA 19348-1870", "locale": "el"}, {"street1": null, "street2": null, "fullAddress": "826 E Baltimore Pike Unit 3, Kennett Square, PA 19348-1870", "locale": "de_AT"}, {"street1": null, "street2": null, "fullAddress": "826 E Baltimore Pike Unit 3, Kennett Square, PA 19348-1870", "locale": "nl"}, {"street1": null, "street2": null, "fullAddress": "826 E Baltimore Pike Unit 3, Kennett Square, PA 19348-1870", "locale": "fr_CH"}, {"street1": null, "street2": null, "fullAddress": "826 E Baltimore Pike Unit 3, Kennett Square, PA 19348-1870", "locale": "hu"}, {"street1": null, "street2": null, "fullAddress": "826 E Baltimore Pike Unit 3, Kennett Square, PA 19348-1870", "locale": "en_AU"}, {"street1": null, "street2": null, "fullAddress": "826 E Baltimore Pike Unit 3, Kennett Square, PA 19348-1870", "locale": "in"}, {"street1": null, "street2": null, "fullAddress": "826 E Baltimore Pike Unit 3, Kennett Square, PA 19348-1870", "locale": "vi"}, {"street1": null, "street2": null, "fullAddress": "826 E Baltimore Pike Unit 3, Kennett Square, PA 19348-1870", "locale": "fr_CA"}, {"street1": null, "street2": null, "fullAddress": "826 E Baltimore Pike Unit 3, Kennett Square, PA 19348-1870", "locale": "es_AR"}, {"street1": null, "street2": null, "fullAddress": "826 E Baltimore Pike Unit 3, \u202bKennett Square\u202c, \u0628\u0646\u0633\u064a\u0644\u0641\u0627\u0646\u064a\u0627 19348-1870", "locale": "ar_EG"}, {"street1": null, "street2": null, "fullAddress": "826 E Baltimore Pike Unit 3, Kennett Square, PA 19348-1870", "locale": "sr"}, {"street1": null, "street2": null, "fullAddress": "826 E Baltimore Pike Unit 3, Kennett Square, PA 19348-1870", "locale": "en_MY"}, {"street1": null, "street2": null, "fullAddress": "826 E Baltimore Pike Unit 3, Kennett Square, PA 19348-1870", "locale": "it_CH"}, {"street1": null, "street2": null, "fullAddress": "826 E Baltimore Pike Unit 3, Kennett Square, PA 19348-1870", "locale": "da"}, {"street1": null, "street2": null, "fullAddress": "826 E Baltimore Pike Unit 3, Kennett Square, PA 19348-1870", "locale": "es"}, {"street1": null, "street2": null, "fullAddress": "826 E Baltimore Pike Unit 3, Kennett Square, PA 19348-1870", "locale": "tr"}, {"street1": null, "street2": null, "fullAddress": "826 E Baltimore Pike Unit 3, Kennett Square, PA 19348-1870", "locale": "en_HK"}, {"street1": null, "street2": null, "fullAddress": "826 E Baltimore Pike Unit 3, Kennett Square, PA 19348-1870", "locale": "en_IE"}, {"street1": null, "street2": null, "fullAddress": "826 E Baltimore Pike Unit 3, Kennett Square, PA 19348-1870", "locale": "en_CA"}, {"street1": null, "street2": null, "fullAddress": "826 E Baltimore Pike Unit 3, Kennett Square, PA 19348-1870", "locale": "nl_BE"}, {"street1": null, "street2": null, "fullAddress": "826 E Baltimore Pike Unit 3, Kennett Square, PA 19348-1870", "locale": "pl"}, {"street1": null, "street2": null, "fullAddress": "826 E Baltimore Pike Unit 3, Kennett Square, PA 19348-1870", "locale": "no"}, {"street1": null, "street2": null, "fullAddress": "826 E Baltimore Pike Unit 3, \u80af\u5c3c\u7279\u65af\u594e\u5c14, PA", "locale": "zh_CN"}, {"street1": null, "street2": null, "fullAddress": "826 E Baltimore Pike Unit 3, Kennett Square, PA 19348-1870", "locale": "es_CO"}, {"street1": null, "street2": null, "fullAddress": "826 E Baltimore Pike Unit 3, Kennett Square, PA 19348-1870", "locale": "fr"}, {"street1": null, "street2": null, "fullAddress": "826 E Baltimore Pike Unit 3, \u30b1\u30cd\u30c3\u30c8 \u30b9\u30af\u30a8\u30a2, PA", "locale": "ja"}, {"street1": null, "street2": null, "fullAddress": "826 E Baltimore Pike Unit 3, \u05e7\u05e0\u05d8 \u05e1\u05e7\u05d5\u05d5\u05e8, PA 19348-1870", "locale": "iw"}, {"street1": null, "street2": null, "fullAddress": "826 E Baltimore Pike Unit 3, Kennett Square, PA 19348-1870", "locale": "en_IN"}, {"street1": null, "street2": null, "fullAddress": "826 E Baltimore Pike Unit 3, Kennett Square, PA 19348-1870", "locale": "de"}, {"street1": null, "street2": null, "fullAddress": "826 E Baltimore Pike Unit 3, \u80af\u5c3c\u7279\u65af\u594e\u5c14, PA", "locale": "zh"}, {"street1": null, "street2": null, "fullAddress": "826 E Baltimore Pike Unit 3, Kennett Square, PA 19348-1870", "locale": "es_PE"}, {"street1": null, "street2": null, "fullAddress": "826 E Baltimore Pike Unit 3, Kennett Square, PA 19348-1870", "locale": "en_PH"}], "parents": [{"placeType": "CITY", "locationId": 52926, "name": "Kennett Square"}, {"placeType": "STATE", "locationId": 28959, "name": "Pennsylvania:"}, {"placeType": "COUNTRY", "locationId": 191, "name": "Hoa K\u1ef3"}, {"placeType": "CONTINENT", "locationId": 19, "name": "B\u0103\u0301c My\u0303"}, {"placeType": null, "locationId": 1, "name": "Th\u00ea\u0301 gi\u01a1\u0301i"}]}]}}]