[{"data": {"restaurantStyles": [], "accommodationType": [], "restaurantTypes": [{"tag": {"categoryId": 230, "tagId": 10591, "tagName": "Restaurants", "tagNameLocalized": "Nha\u0300 ha\u0300ng", "translationKey": "tags_category_tag_restaurants"}}], "restaurantMealTypes": [{"tag": {"categoryId": 233, "tagId": 10598, "tagName": "Lunch", "tagNameLocalized": "B\u01b0\u0303a tr\u01b0a", "translationKey": "tags_category_tag_lunch"}}, {"tag": {"categoryId": 233, "tagId": 10599, "tagName": "Dinner", "tagNameLocalized": "B\u01b0\u0303a t\u00f4\u0301i", "translationKey": "tags_category_tag_dinner"}}], "restaurantDiningOptions": [{"tag": {"categoryId": 234, "tagId": 10601, "tagName": "Takeout", "tagNameLocalized": "C\u01b0\u0309a ha\u0300ng ba\u0301n th\u01b0\u0301c \u0103n mang v\u00ea\u0300", "translationKey": "tags_category_tag_takeout"}}, {"tag": {"categoryId": 234, "tagId": 10861, "tagName": "Wheelchair Accessible", "tagNameLocalized": "L\u1ed1i v\u00e0o ra cho xe l\u0103n", "translationKey": "tags_category_tag_wheelchair_accessible"}}, {"tag": {"categoryId": 234, "tagId": 10600, "tagName": "Delivery", "tagNameLocalized": "Giao ha\u0300ng", "translationKey": "tags_category_tag_delivery"}}], "restaurantPrice": [{"tag": {"categoryId": 240, "tagId": 10955, "tagName": "Mid Range", "tagNameLocalized": "H\u1ea1ng trung", "translationKey": "tags_category_tag_mid_range"}}], "restaurantCuisines": [{"tag": {"categoryId": 231, "tagId": 10641, "tagName": "Pizza", "tagNameLocalized": "Pizza", "translationKey": "tags_category_tag_pizza"}}], "locations": [{"accommodationType": "T_UNKNOWN", "countryId": 191, "hoursOfOperation": {"dailyTimeIntervals": [{"day": "MONDAY", "timeIntervals": [{"openingTime": {"hours": 11, "minutes": 0}, "closingTime": {"hours": 22, "minutes": 0}}]}, {"day": "TUESDAY", "timeIntervals": [{"openingTime": {"hours": 11, "minutes": 0}, "closingTime": {"hours": 22, "minutes": 0}}]}, {"day": "WEDNESDAY", "timeIntervals": [{"openingTime": {"hours": 11, "minutes": 0}, "closingTime": {"hours": 22, "minutes": 0}}]}, {"day": "THURSDAY", "timeIntervals": [{"openingTime": {"hours": 11, "minutes": 0}, "closingTime": {"hours": 22, "minutes": 0}}]}, {"day": "FRIDAY", "timeIntervals": [{"openingTime": {"hours": 11, "minutes": 0}, "closingTime": {"hours": 23, "minutes": 0}}]}, {"day": "SATURDAY", "timeIntervals": [{"openingTime": {"hours": 11, "minutes": 0}, "closingTime": {"hours": 23, "minutes": 0}}]}, {"day": "SUNDAY", "timeIntervals": [{"openingTime": {"hours": 12, "minutes": 0}, "closingTime": {"hours": 21, "minutes": 0}}]}]}, "isClosed": false, "isOwner": false, "latitude": 39.870705, "localizedDescriptions": [], "localizedNames": [], "locationId": 5018540, "locationV2": {"attractionTypes": []}, "longitude": -75.28817, "parentId": 52610, "placeType": "EATERY", "absoluteOwnerManagementUrl": "https://www.tripadvisor.com.vn/RSManagementCenter-d5018540-Femi_s_Pizzeria?cat=0&geo=52610", "email": "ilbakadem@outlook.com", "geoName": "Essington", "isoCountryCode": "US", "localizedName": "Femi's Pizzeria", "name": "Femi's Pizzeria", "locationDescription": null, "officialUrl": "http://femispizzeria.com", "postPhotosUrl": "/PostPhotos-d5018540", "telephone": "+1 610-595-3364", "url": "/Restaurant_Review-g52610-d5018540-Reviews-Femi_s_Pizzeria-Essington_Pennsylvania.html", "writeUserReviewUrl": "/UserReview-g52610-d5018540-Femi_s_Pizzeria-Essington_Pennsylvania.html", "localizedStreetAddress": {"city": "Essington", "country": "Hoa K\u1ef3", "fullAddress": "146 Seneca St, Essington, PA 19029", "postalCode": "19029", "state": "Pennsylvania:", "street1": "146 Seneca St", "street2": ""}, "streetAddress": {"street1": "146 Seneca St", "street2": "", "state": "Pennsylvania:", "city": "Essington", "postalCode": "19029", "fullAddress": "146 Seneca St, Essington, PA 19029"}, "localizedStreetAddresses": [{"street1": null, "street2": null, "fullAddress": "146 Seneca St, Essington, PA 19029", "locale": "es_MX"}, {"street1": null, "street2": null, "fullAddress": "146 Seneca St, Essington, PA 19029", "locale": "fr_BE"}, {"street1": null, "street2": null, "fullAddress": "146 Seneca St, Essington, PA 19029", "locale": "es_VE"}, {"street1": null, "street2": null, "fullAddress": "146 Seneca St, Essington, PA", "locale": "zh_HK"}, {"street1": null, "street2": null, "fullAddress": "146 Seneca St, Essington, PA", "locale": "zh_TW"}, {"street1": null, "street2": null, "fullAddress": "146 Seneca St, Essington, PA 19029", "locale": "it"}, {"street1": null, "street2": null, "fullAddress": "146 Seneca St, \uc5d0\uc2f1\ud134, PA", "locale": "ko"}, {"street1": null, "street2": null, "fullAddress": "146 Seneca St, Essington, PA 19029", "locale": "es_CL"}, {"street1": null, "street2": null, "fullAddress": "146 Seneca St, Essington, PA 19029", "locale": "fi"}, {"street1": null, "street2": null, "fullAddress": "146 Seneca St, Essington, PA 19029", "locale": "pt_PT"}, {"street1": null, "street2": null, "fullAddress": "146 Seneca St, Essington, PA 19029", "locale": "en_US"}, {"street1": null, "street2": null, "fullAddress": "146 Seneca St, \u0e40\u0e2d\u0e2a\u0e0b\u0e34\u0e07\u0e15\u0e31\u0e19, PA 19029", "locale": "th"}, {"street1": null, "street2": null, "fullAddress": "146 Seneca St, Essington, PA 19029", "locale": "en_SG"}, {"street1": null, "street2": null, "fullAddress": "146 Seneca St, Essington, PA 19029", "locale": "en_UK"}, {"street1": null, "street2": null, "fullAddress": "146 Seneca St, Essington, PA 19029", "locale": "pt"}, {"street1": null, "street2": null, "fullAddress": "146 Seneca St, \u202bEssington\u202c, \u0628\u0646\u0633\u064a\u0644\u0641\u0627\u0646\u064a\u0627 19029", "locale": "ar"}, {"street1": null, "street2": null, "fullAddress": "146 Seneca St, Essington, PA 19029", "locale": "ru"}, {"street1": null, "street2": null, "fullAddress": "146 Seneca St, Essington, PA 19029", "locale": "en_NZ"}, {"street1": null, "street2": null, "fullAddress": "146 Seneca St, Essington, PA 19029", "locale": "de_CH"}, {"street1": null, "street2": null, "fullAddress": "146 Seneca St, Essington, PA 19029", "locale": "sk"}, {"street1": null, "street2": null, "fullAddress": "146 Seneca St, Essington, PA 19029", "locale": "en_ZA"}, {"street1": null, "street2": null, "fullAddress": "146 Seneca St, Essington, PA 19029", "locale": "sv"}, {"street1": null, "street2": null, "fullAddress": "146 Seneca St, Essington, PA 19029", "locale": "cs"}, {"street1": null, "street2": null, "fullAddress": "146 Seneca St, Essington, PA 19029", "locale": "el"}, {"street1": null, "street2": null, "fullAddress": "146 Seneca St, Essington, PA 19029", "locale": "de_AT"}, {"street1": null, "street2": null, "fullAddress": "146 Seneca St, Essington, PA 19029", "locale": "nl"}, {"street1": null, "street2": null, "fullAddress": "146 Seneca St, Essington, PA 19029", "locale": "hu"}, {"street1": null, "street2": null, "fullAddress": "146 Seneca St, Essington, PA 19029", "locale": "fr_CH"}, {"street1": null, "street2": null, "fullAddress": "146 Seneca St, Essington, PA 19029", "locale": "en_AU"}, {"street1": null, "street2": null, "fullAddress": "146 Seneca St, Essington, PA 19029", "locale": "in"}, {"street1": null, "street2": null, "fullAddress": "146 Seneca St, Essington, PA 19029", "locale": "vi"}, {"street1": null, "street2": null, "fullAddress": "146 Seneca St, Essington, PA 19029", "locale": "fr_CA"}, {"street1": null, "street2": null, "fullAddress": "146 Seneca St, Essington, PA 19029", "locale": "es_AR"}, {"street1": null, "street2": null, "fullAddress": "146 Seneca St, \u202bEssington\u202c, \u0628\u0646\u0633\u064a\u0644\u0641\u0627\u0646\u064a\u0627 19029", "locale": "ar_EG"}, {"street1": null, "street2": null, "fullAddress": "146 Seneca St, Essington, PA 19029", "locale": "en_MY"}, {"street1": null, "street2": null, "fullAddress": "146 Seneca St, Essington, PA 19029", "locale": "sr"}, {"street1": null, "street2": null, "fullAddress": "146 Seneca St, Essington, PA 19029", "locale": "it_CH"}, {"street1": null, "street2": null, "fullAddress": "146 Seneca St, Essington, PA 19029", "locale": "da"}, {"street1": null, "street2": null, "fullAddress": "146 Seneca St, Essington, PA 19029", "locale": "es"}, {"street1": null, "street2": null, "fullAddress": "146 Seneca St, Essington, PA 19029", "locale": "tr"}, {"street1": null, "street2": null, "fullAddress": "146 Seneca St, Essington, PA 19029", "locale": "en_HK"}, {"street1": null, "street2": null, "fullAddress": "146 Seneca St, Essington, PA 19029", "locale": "en_IE"}, {"street1": null, "street2": null, "fullAddress": "146 Seneca St, Essington, PA 19029", "locale": "en_CA"}, {"street1": null, "street2": null, "fullAddress": "146 Seneca St, Essington, PA 19029", "locale": "no"}, {"street1": null, "street2": null, "fullAddress": "146 Seneca St, Essington, PA 19029", "locale": "pl"}, {"street1": null, "street2": null, "fullAddress": "146 Seneca St, Essington, PA 19029", "locale": "nl_BE"}, {"street1": null, "street2": null, "fullAddress": "146 Seneca St, Essington, PA", "locale": "zh_CN"}, {"street1": null, "street2": null, "fullAddress": "146 Seneca St, Essington, PA 19029", "locale": "es_CO"}, {"street1": null, "street2": null, "fullAddress": "146 Seneca St, Essington, PA 19029", "locale": "fr"}, {"street1": null, "street2": null, "fullAddress": "146 Seneca St, \u30a8\u30b7\u30f3\u30b0\u30c8\u30f3, PA", "locale": "ja"}, {"street1": null, "street2": null, "fullAddress": "146 Seneca St, \u202bEssington\u202c, PA 19029", "locale": "iw"}, {"street1": null, "street2": null, "fullAddress": "146 Seneca St, Essington, PA 19029", "locale": "de"}, {"street1": null, "street2": null, "fullAddress": "146 Seneca St, Essington, PA 19029", "locale": "en_IN"}, {"street1": null, "street2": null, "fullAddress": "146 Seneca St, Essington, PA", "locale": "zh"}, {"street1": null, "street2": null, "fullAddress": "146 Seneca St, Essington, PA 19029", "locale": "es_PE"}, {"street1": null, "street2": null, "fullAddress": "146 Seneca St, Essington, PA 19029", "locale": "en_PH"}], "parents": [{"placeType": "CITY", "locationId": 52610, "name": "Essington"}, {"placeType": "STATE", "locationId": 28959, "name": "Pennsylvania:"}, {"placeType": "COUNTRY", "locationId": 191, "name": "Hoa K\u1ef3"}, {"placeType": "CONTINENT", "locationId": 19, "name": "B\u0103\u0301c My\u0303"}, {"placeType": null, "locationId": 1, "name": "Th\u00ea\u0301 gi\u01a1\u0301i"}], "thumbnail": {"title": "", "photoSizes": [{"height": 0, "isHorizontal": false, "width": 0, "url": "https://dynamic-media-cdn.tripadvisor.com/media/photo-o/13/8b/0c/1f/femi-s-pizzeria.jpg?w=100&h=100&s=1"}, {"height": 50, "isHorizontal": true, "width": 50, "url": "https://media-cdn.tripadvisor.com/media/photo-t/13/8b/0c/1f/femi-s-pizzeria.jpg"}, {"height": 150, "isHorizontal": true, "width": 150, "url": "https://media-cdn.tripadvisor.com/media/photo-l/13/8b/0c/1f/femi-s-pizzeria.jpg"}, {"height": 205, "isHorizontal": false, "width": 154, "url": "https://media-cdn.tripadvisor.com/media/photo-f/13/8b/0c/1f/femi-s-pizzeria.jpg"}, {"height": 200, "isHorizontal": false, "width": 180, "url": "https://media-cdn.tripadvisor.com/media/photo-i/13/8b/0c/1f/femi-s-pizzeria.jpg"}, {"height": 450, "isHorizontal": false, "width": 338, "url": "https://media-cdn.tripadvisor.com/media/photo-s/13/8b/0c/1f/femi-s-pizzeria.jpg"}, {"height": 733, "isHorizontal": false, "width": 550, "url": "https://media-cdn.tripadvisor.com/media/photo-p/13/8b/0c/1f/femi-s-pizzeria.jpg"}, {"height": 1280, "isHorizontal": false, "width": 960, "url": "https://media-cdn.tripadvisor.com/media/photo-m/1280/13/8b/0c/1f/femi-s-pizzeria.jpg"}, {"height": 1365, "isHorizontal": false, "width": 1024, "url": "https://media-cdn.tripadvisor.com/media/photo-w/13/8b/0c/1f/femi-s-pizzeria.jpg"}]}}]}}]