[{"data": {"accommodationType": [], "restaurantStyles": [{"tag": {"categoryId": 235, "tagId": 16550, "tagName": "Hidden Gems - Restaurant Styles", "tagNameLocalized": "Vi\u00ean ngo\u0323c \u00e2\u0309n", "translationKey": "tags_category_tag_hidden_gems_restaurant_styles"}}, {"tag": {"categoryId": 235, "tagId": 10613, "tagName": "Local cuisine", "tagNameLocalized": "Mo\u0301n \u0103n \u0111i\u0323a ph\u01b0\u01a1ng", "translationKey": "tags_category_tag_local_cuisine"}}, {"tag": {"categoryId": 235, "tagId": 10604, "tagName": "Families with children", "tagNameLocalized": "Gia \u0111i\u0300nh co\u0301 tre\u0309 em", "translationKey": "tags_category_tag_families_with_children"}}], "restaurantTypes": [{"tag": {"categoryId": 230, "tagId": 10591, "tagName": "Restaurants", "tagNameLocalized": "Nha\u0300 ha\u0300ng", "translationKey": "tags_category_tag_restaurants"}}], "restaurantMealTypes": [{"tag": {"categoryId": 233, "tagId": 10598, "tagName": "Lunch", "tagNameLocalized": "B\u01b0\u0303a tr\u01b0a", "translationKey": "tags_category_tag_lunch"}}, {"tag": {"categoryId": 233, "tagId": 10599, "tagName": "Dinner", "tagNameLocalized": "B\u01b0\u0303a t\u00f4\u0301i", "translationKey": "tags_category_tag_dinner"}}], "restaurantDiningOptions": [{"tag": {"categoryId": 234, "tagId": 10601, "tagName": "Takeout", "tagNameLocalized": "C\u01b0\u0309a ha\u0300ng ba\u0301n th\u01b0\u0301c \u0103n mang v\u00ea\u0300", "translationKey": "tags_category_tag_takeout"}}, {"tag": {"categoryId": 234, "tagId": 11780, "tagName": "Accepts Credit Cards", "tagNameLocalized": "Ch\u1ea5p nh\u1eadn th\u1ebb t\u00edn d\u1ee5ng", "translationKey": "tags_category_tag_accepts_credit_cards"}}, {"tag": {"categoryId": 234, "tagId": 16547, "tagName": "Table Service", "tagNameLocalized": "D\u1ecbch v\u1ee5 b\u00e0n", "translationKey": "tags_category_tag_table_service"}}, {"tag": {"categoryId": 234, "tagId": 10600, "tagName": "Delivery", "tagNameLocalized": "Giao ha\u0300ng", "translationKey": "tags_category_tag_delivery"}}, {"tag": {"categoryId": 234, "tagId": 10852, "tagName": "Seating", "tagNameLocalized": "Ch\u1ed7 ng\u1ed3i", "translationKey": "tags_category_tag_seating"}}], "restaurantPrice": [{"tag": {"categoryId": 240, "tagId": 10953, "tagName": "Cheap Eats", "tagNameLocalized": "\u0110\u00f4\u0300 \u0103n gia\u0301 re\u0309", "translationKey": "tags_category_tag_cheap_eats"}}], "restaurantCuisines": [{"tag": {"categoryId": 231, "tagId": 4617, "tagName": "Italian", "tagNameLocalized": "Ki\u00ea\u0309u Y\u0301", "translationKey": "tags_category_tag_italian"}}, {"tag": {"categoryId": 231, "tagId": 20068, "tagName": "Lazio", "tagNameLocalized": "Lazio", "translationKey": "tags_category_tag_lazio"}}, {"tag": {"categoryId": 231, "tagId": 20067, "tagName": "Roman", "tagNameLocalized": "Rome", "translationKey": "tags_category_tag_roman_1"}}, {"tag": {"categoryId": 231, "tagId": 20075, "tagName": "Central-Italian", "tagNameLocalized": "Mi\u1ec1n Trung n\u01b0\u1edbc \u00dd", "translationKey": "tags_category_tag_central_italian"}}, {"tag": {"categoryId": 231, "tagId": 10641, "tagName": "Pizza", "tagNameLocalized": "Pizza", "translationKey": "tags_category_tag_pizza"}}], "locations": [{"accommodationType": "T_UNKNOWN", "countryId": 191, "hoursOfOperation": {"dailyTimeIntervals": [{"day": "MONDAY", "timeIntervals": [{"openingTime": {"hours": 11, "minutes": 0}, "closingTime": {"hours": 0, "minutes": 0}}]}, {"day": "TUESDAY", "timeIntervals": [{"openingTime": {"hours": 11, "minutes": 0}, "closingTime": {"hours": 0, "minutes": 0}}]}, {"day": "WEDNESDAY", "timeIntervals": [{"openingTime": {"hours": 11, "minutes": 0}, "closingTime": {"hours": 0, "minutes": 0}}]}, {"day": "THURSDAY", "timeIntervals": [{"openingTime": {"hours": 11, "minutes": 0}, "closingTime": {"hours": 0, "minutes": 0}}]}, {"day": "FRIDAY", "timeIntervals": [{"openingTime": {"hours": 11, "minutes": 0}, "closingTime": {"hours": 1, "minutes": 0}}]}, {"day": "SATURDAY", "timeIntervals": [{"openingTime": {"hours": 11, "minutes": 0}, "closingTime": {"hours": 1, "minutes": 0}}]}, {"day": "SUNDAY", "timeIntervals": [{"openingTime": {"hours": 12, "minutes": 0}, "closingTime": {"hours": 0, "minutes": 0}}]}]}, "isClosed": false, "isOwner": false, "latitude": 39.14181, "localizedDescriptions": [], "localizedNames": [], "locationId": 5083086, "locationV2": {"attractionTypes": []}, "longitude": -75.52184, "parentId": 34009, "placeType": "EATERY", "thumbnail": null, "absoluteOwnerManagementUrl": "https://www.tripadvisor.com.vn/RSManagementCenter-d5083086-Pizza_Time_Dover?cat=0&geo=34009", "email": null, "geoName": "Dover", "isoCountryCode": "US", "localizedName": "Pizza Time Dover", "name": "Pizza Time Dover", "locationDescription": null, "officialUrl": "http://www.doverpizzatime.com/", "postPhotosUrl": "/PostPhotos-d5083086", "telephone": "+1 302-735-4600", "url": "/Restaurant_Review-g34009-d5083086-Reviews-Pizza_Time_Dover-Dover_Delaware.html", "writeUserReviewUrl": "/UserReview-g34009-d5083086-Pizza_Time_Dover-Dover_Delaware.html", "localizedStreetAddress": {"city": "Dover", "country": "Hoa K\u1ef3", "fullAddress": "1255 S State St Ste 14, Dover, DE 19901-6932", "postalCode": "19901-6932", "state": "Delaware", "street1": "1255 S State St", "street2": "Ste 14"}, "streetAddress": {"street1": "1255 S State St", "street2": "Ste 14", "state": "Delaware", "city": "Dover", "postalCode": "19901-6932", "fullAddress": "1255 S State St Ste 14, Dover, DE 19901-6932"}, "localizedStreetAddresses": [{"street1": null, "street2": null, "fullAddress": "1255 S State St Ste 14, Dover, DE 19901-6932", "locale": "es_MX"}, {"street1": null, "street2": null, "fullAddress": "1255 S State St Ste 14, Dover, DE 19901-6932", "locale": "fr_BE"}, {"street1": null, "street2": null, "fullAddress": "1255 S State St Ste 14, Dover, DE 19901-6932", "locale": "es_VE"}, {"street1": null, "street2": null, "fullAddress": "1255 S State St Ste 14, \u591a\u4f5b\u3000, DE", "locale": "zh_TW"}, {"street1": null, "street2": null, "fullAddress": "1255 S State St Ste 14, \u591a\u4f5b\u3000, DE", "locale": "zh_HK"}, {"street1": null, "street2": null, "fullAddress": "1255 S State St Ste 14, Dover, DE 19901-6932", "locale": "it"}, {"street1": null, "street2": null, "fullAddress": "1255 S State St Ste 14, \ub3c4\ubc84, DE", "locale": "ko"}, {"street1": null, "street2": null, "fullAddress": "1255 S State St Ste 14, Dover, DE 19901-6932", "locale": "es_CL"}, {"street1": null, "street2": null, "fullAddress": "1255 S State St Ste 14, Dover, DE 19901-6932", "locale": "fi"}, {"street1": null, "street2": null, "fullAddress": "1255 S State St Ste 14, Dover, DE 19901-6932", "locale": "pt_PT"}, {"street1": null, "street2": null, "fullAddress": "1255 S State St Ste 14, Dover, DE 19901-6932", "locale": "en_US"}, {"street1": null, "street2": null, "fullAddress": "1255 S State St Ste 14, \u0e42\u0e14\u0e40\u0e27\u0e2d\u0e23\u0e4c, DE 19901-6932", "locale": "th"}, {"street1": null, "street2": null, "fullAddress": "1255 S State St Ste 14, Dover, DE 19901-6932", "locale": "en_SG"}, {"street1": null, "street2": null, "fullAddress": "1255 S State St Ste 14, Dover, DE 19901-6932", "locale": "en_UK"}, {"street1": null, "street2": null, "fullAddress": "1255 S State St Ste 14, Dover, DE 19901-6932", "locale": "pt"}, {"street1": null, "street2": null, "fullAddress": "1255 S State St Ste 14, \u202bDover\u202c, \u202bDelaware\u202c 19901-6932", "locale": "ar"}, {"street1": null, "street2": null, "fullAddress": "1255 S State St Ste 14, \u0414\u0443\u0432\u0440, DE 19901-6932", "locale": "ru"}, {"street1": null, "street2": null, "fullAddress": "1255 S State St Ste 14, Dover, DE 19901-6932", "locale": "en_NZ"}, {"street1": null, "street2": null, "fullAddress": "1255 S State St Ste 14, Dover, DE 19901-6932", "locale": "de_CH"}, {"street1": null, "street2": null, "fullAddress": "1255 S State St Ste 14, Dover, DE 19901-6932", "locale": "sk"}, {"street1": null, "street2": null, "fullAddress": "1255 S State St Ste 14, Dover, DE 19901-6932", "locale": "en_ZA"}, {"street1": null, "street2": null, "fullAddress": "1255 S State St Ste 14, Dover, DE 19901-6932", "locale": "cs"}, {"street1": null, "street2": null, "fullAddress": "1255 S State St Ste 14, Dover, DE 19901-6932", "locale": "sv"}, {"street1": null, "street2": null, "fullAddress": "1255 S State St Ste 14, Dover, DE 19901-6932", "locale": "el"}, {"street1": null, "street2": null, "fullAddress": "1255 S State St Ste 14, Dover, DE 19901-6932", "locale": "de_AT"}, {"street1": null, "street2": null, "fullAddress": "1255 S State St Ste 14, Dover, DE 19901-6932", "locale": "nl"}, {"street1": null, "street2": null, "fullAddress": "1255 S State St Ste 14, Dover, DE 19901-6932", "locale": "hu"}, {"street1": null, "street2": null, "fullAddress": "1255 S State St Ste 14, Dover, DE 19901-6932", "locale": "fr_CH"}, {"street1": null, "street2": null, "fullAddress": "1255 S State St Ste 14, Dover, DE 19901-6932", "locale": "en_AU"}, {"street1": null, "street2": null, "fullAddress": "1255 S State St Ste 14, Dover, DE 19901-6932", "locale": "in"}, {"street1": null, "street2": null, "fullAddress": "1255 S State St Ste 14, Dover, DE 19901-6932", "locale": "vi"}, {"street1": null, "street2": null, "fullAddress": "1255 S State St Ste 14, Dover, DE 19901-6932", "locale": "fr_CA"}, {"street1": null, "street2": null, "fullAddress": "1255 S State St Ste 14, Dover, DE 19901-6932", "locale": "es_AR"}, {"street1": null, "street2": null, "fullAddress": "1255 S State St Ste 14, \u202bDover\u202c, \u202bDelaware\u202c 19901-6932", "locale": "ar_EG"}, {"street1": null, "street2": null, "fullAddress": "1255 S State St Ste 14, Dover, DE 19901-6932", "locale": "en_MY"}, {"street1": null, "street2": null, "fullAddress": "1255 S State St Ste 14, Dover, DE 19901-6932", "locale": "sr"}, {"street1": null, "street2": null, "fullAddress": "1255 S State St Ste 14, Dover, DE 19901-6932", "locale": "it_CH"}, {"street1": null, "street2": null, "fullAddress": "1255 S State St Ste 14, Dover, DE 19901-6932", "locale": "da"}, {"street1": null, "street2": null, "fullAddress": "1255 S State St Ste 14, Dover, DE 19901-6932", "locale": "es"}, {"street1": null, "street2": null, "fullAddress": "1255 S State St Ste 14, Dover, DE 19901-6932", "locale": "tr"}, {"street1": null, "street2": null, "fullAddress": "1255 S State St Ste 14, Dover, DE 19901-6932", "locale": "en_HK"}, {"street1": null, "street2": null, "fullAddress": "1255 S State St Ste 14, Dover, DE 19901-6932", "locale": "en_IE"}, {"street1": null, "street2": null, "fullAddress": "1255 S State St Ste 14, Dover, DE 19901-6932", "locale": "en_CA"}, {"street1": null, "street2": null, "fullAddress": "1255 S State St Ste 14, Dover, DE 19901-6932", "locale": "nl_BE"}, {"street1": null, "street2": null, "fullAddress": "1255 S State St Ste 14, Dover, DE 19901-6932", "locale": "pl"}, {"street1": null, "street2": null, "fullAddress": "1255 S State St Ste 14, Dover, DE 19901-6932", "locale": "no"}, {"street1": null, "street2": null, "fullAddress": "1255 S State St Ste 14, \u591a\u4f5b, DE", "locale": "zh_CN"}, {"street1": null, "street2": null, "fullAddress": "1255 S State St Ste 14, Dover, DE 19901-6932", "locale": "es_CO"}, {"street1": null, "street2": null, "fullAddress": "1255 S State St Ste 14, Dover, DE 19901-6932", "locale": "fr"}, {"street1": null, "street2": null, "fullAddress": "1255 S State St Ste 14, \u30c9\u30fc\u30d0\u30fc, DE", "locale": "ja"}, {"street1": null, "street2": null, "fullAddress": "1255 S State St Ste 14, \u05d3\u05d5\u05d1\u05e8, DE 19901-6932", "locale": "iw"}, {"street1": null, "street2": null, "fullAddress": "1255 S State St Ste 14, Dover, DE 19901-6932", "locale": "en_IN"}, {"street1": null, "street2": null, "fullAddress": "1255 S State St Ste 14, Dover, DE 19901-6932", "locale": "de"}, {"street1": null, "street2": null, "fullAddress": "1255 S State St Ste 14, \u591a\u4f5b, DE", "locale": "zh"}, {"street1": null, "street2": null, "fullAddress": "1255 S State St Ste 14, Dover, DE 19901-6932", "locale": "es_PE"}, {"street1": null, "street2": null, "fullAddress": "1255 S State St Ste 14, Dover, DE 19901-6932", "locale": "en_PH"}], "parents": [{"placeType": "CITY", "locationId": 34009, "name": "Dover"}, {"placeType": "STATE", "locationId": 28929, "name": "Delaware"}, {"placeType": "COUNTRY", "locationId": 191, "name": "Hoa K\u1ef3"}, {"placeType": "CONTINENT", "locationId": 19, "name": "B\u0103\u0301c My\u0303"}, {"placeType": null, "locationId": 1, "name": "Th\u00ea\u0301 gi\u01a1\u0301i"}]}]}}]