[{"data": {"accommodationType": [], "restaurantStyles": [{"tag": {"categoryId": 235, "tagId": 10604, "tagName": "Families with children", "tagNameLocalized": "Gia \u0111i\u0300nh co\u0301 tre\u0309 em", "translationKey": "tags_category_tag_families_with_children"}}], "restaurantTypes": [{"tag": {"categoryId": 230, "tagId": 10591, "tagName": "Restaurants", "tagNameLocalized": "Nha\u0300 ha\u0300ng", "translationKey": "tags_category_tag_restaurants"}}], "restaurantMealTypes": [{"tag": {"categoryId": 233, "tagId": 10598, "tagName": "Lunch", "tagNameLocalized": "B\u01b0\u0303a tr\u01b0a", "translationKey": "tags_category_tag_lunch"}}, {"tag": {"categoryId": 233, "tagId": 10599, "tagName": "Dinner", "tagNameLocalized": "B\u01b0\u0303a t\u00f4\u0301i", "translationKey": "tags_category_tag_dinner"}}], "restaurantDiningOptions": [{"tag": {"categoryId": 234, "tagId": 11780, "tagName": "Accepts Credit Cards", "tagNameLocalized": "Ch\u1ea5p nh\u1eadn th\u1ebb t\u00edn d\u1ee5ng", "translationKey": "tags_category_tag_accepts_credit_cards"}}, {"tag": {"categoryId": 234, "tagId": 10855, "tagName": "Street Parking", "tagNameLocalized": "B\u00e3i \u0111\u1ed7 xe \u0111\u01b0\u1eddng ph\u1ed1", "translationKey": "tags_category_tag_street_parking"}}, {"tag": {"categoryId": 234, "tagId": 10866, "tagName": "Accepts Mastercard", "tagNameLocalized": "Ch\u1ea5p nh\u1eadn th\u1ebb Mastercard", "translationKey": "tags_category_tag_accepts_mastercard"}}, {"tag": {"categoryId": 234, "tagId": 10854, "tagName": "Parking Available", "tagNameLocalized": "C\u00f3 b\u00e3i \u0111\u1ed7 xe", "translationKey": "tags_category_tag_parking_available"}}, {"tag": {"categoryId": 234, "tagId": 10601, "tagName": "Takeout", "tagNameLocalized": "C\u01b0\u0309a ha\u0300ng ba\u0301n th\u01b0\u0301c \u0103n mang v\u00ea\u0300", "translationKey": "tags_category_tag_takeout"}}, {"tag": {"categoryId": 234, "tagId": 10865, "tagName": "Accepts American Express", "tagNameLocalized": "Ch\u1ea5p nh\u1eadn th\u1ebb American Express", "translationKey": "tags_category_tag_accepts_american_express"}}, {"tag": {"categoryId": 234, "tagId": 10867, "tagName": "Accepts Visa", "tagNameLocalized": "Ch\u1ea5p nh\u1eadn th\u1ebb Visa", "translationKey": "tags_category_tag_accepts_visa"}}, {"tag": {"categoryId": 234, "tagId": 10859, "tagName": "Television", "tagNameLocalized": "Tivi", "translationKey": "tags_category_tag_television"}}, {"tag": {"categoryId": 234, "tagId": 10869, "tagName": "Cash Only", "tagNameLocalized": "Ch\u1ec9 ch\u1ea5p nh\u1eadn ti\u1ec1n m\u1eb7t", "translationKey": "tags_category_tag_cash_only"}}, {"tag": {"categoryId": 234, "tagId": 10858, "tagName": "Free Off-Street Parking", "tagNameLocalized": "B\u00e3i \u0111\u1ed7 xe t\u1eadp trung mi\u1ec5n ph\u00ed", "translationKey": "tags_category_tag_free_off_street_parking"}}, {"tag": {"categoryId": 234, "tagId": 10871, "tagName": "Accepts Discover", "tagNameLocalized": "Ch\u1ea5p nh\u1eadn th\u1ebb Discover", "translationKey": "tags_category_tag_accepts_discover"}}, {"tag": {"categoryId": 234, "tagId": 10870, "tagName": "Free Wifi", "tagNameLocalized": "Wifi mi\u1ec5n ph\u00ed", "translationKey": "tags_category_tag_free_wifi_restaurant_dining_options"}}, {"tag": {"categoryId": 234, "tagId": 10861, "tagName": "Wheelchair Accessible", "tagNameLocalized": "L\u1ed1i v\u00e0o ra cho xe l\u0103n", "translationKey": "tags_category_tag_wheelchair_accessible"}}, {"tag": {"categoryId": 234, "tagId": 10600, "tagName": "Delivery", "tagNameLocalized": "Giao ha\u0300ng", "translationKey": "tags_category_tag_delivery"}}, {"tag": {"categoryId": 234, "tagId": 10852, "tagName": "Seating", "tagNameLocalized": "Ch\u1ed7 ng\u1ed3i", "translationKey": "tags_category_tag_seating"}}], "restaurantPrice": [{"tag": {"categoryId": 240, "tagId": 10953, "tagName": "Cheap Eats", "tagNameLocalized": "\u0110\u00f4\u0300 \u0103n gia\u0301 re\u0309", "translationKey": "tags_category_tag_cheap_eats"}}], "restaurantCuisines": [{"tag": {"categoryId": 231, "tagId": 10641, "tagName": "Pizza", "tagNameLocalized": "Pizza", "translationKey": "tags_category_tag_pizza"}}], "locations": [{"accommodationType": "T_UNKNOWN", "countryId": 191, "hoursOfOperation": {"dailyTimeIntervals": [{"day": "MONDAY", "timeIntervals": [{"openingTime": {"hours": 11, "minutes": 0}, "closingTime": {"hours": 18, "minutes": 0}}]}, {"day": "TUESDAY", "timeIntervals": [{"openingTime": {"hours": 11, "minutes": 0}, "closingTime": {"hours": 18, "minutes": 0}}]}, {"day": "WEDNESDAY", "timeIntervals": [{"openingTime": {"hours": 11, "minutes": 0}, "closingTime": {"hours": 18, "minutes": 0}}]}, {"day": "THURSDAY", "timeIntervals": [{"openingTime": {"hours": 11, "minutes": 0}, "closingTime": {"hours": 18, "minutes": 0}}]}, {"day": "FRIDAY", "timeIntervals": [{"openingTime": {"hours": 11, "minutes": 0}, "closingTime": {"hours": 20, "minutes": 0}}]}, {"day": "SATURDAY", "timeIntervals": [{"openingTime": {"hours": 11, "minutes": 0}, "closingTime": {"hours": 18, "minutes": 0}}]}, {"day": "SUNDAY", "timeIntervals": []}]}, "isClosed": false, "isOwner": false, "latitude": 38.36495, "localizedDescriptions": [], "localizedNames": [], "locationId": 5452225, "locationV2": {"attractionTypes": []}, "longitude": -75.60215, "parentId": 41365, "placeType": "EATERY", "absoluteOwnerManagementUrl": "https://www.tripadvisor.com.vn/RSManagementCenter-d5452225-Maya_Bella_s_Cafe_Pizzeria?cat=0&geo=41365", "email": "mayabellasllc@gmail.com", "geoName": "Salisbury", "isoCountryCode": "US", "localizedName": "Maya Bella's Cafe & Pizzeria", "name": "Maya Bella's Cafe & Pizzeria", "locationDescription": null, "officialUrl": "http://mayabellas.com/", "postPhotosUrl": "/PostPhotos-d5452225", "telephone": "+1 443-944-8276", "url": "/Restaurant_Review-g41365-d5452225-Reviews-Maya_Bella_s_Cafe_Pizzeria-Salisbury_Maryland.html", "writeUserReviewUrl": "/UserReview-g41365-d5452225-Maya_Bella_s_Cafe_Pizzeria-Salisbury_Maryland.html", "localizedStreetAddress": {"city": "Salisbury", "country": "Hoa K\u1ef3", "fullAddress": "212 W Main St, Salisbury, MD 21801-5006", "postalCode": "21801-5006", "state": "Maryland", "street1": "212 W Main St", "street2": ""}, "streetAddress": {"street1": "212 W Main St", "street2": "", "state": "Maryland", "city": "Salisbury", "postalCode": "21801-5006", "fullAddress": "212 W Main St, Salisbury, MD 21801-5006"}, "localizedStreetAddresses": [{"street1": null, "street2": null, "fullAddress": "212 W Main St, Salisbury, MD 21801-5006", "locale": "es_MX"}, {"street1": null, "street2": null, "fullAddress": "212 W Main St, Salisbury, MD 21801-5006", "locale": "fr_BE"}, {"street1": null, "street2": null, "fullAddress": "212 W Main St, Salisbury, MD 21801-5006", "locale": "es_VE"}, {"street1": null, "street2": null, "fullAddress": "212 W Main St, \u7d22\u723e\u8332\u4f2f\u91cc, MD", "locale": "zh_HK"}, {"street1": null, "street2": null, "fullAddress": "212 W Main St, \u7d22\u723e\u8332\u4f2f\u91cc, MD", "locale": "zh_TW"}, {"street1": null, "street2": null, "fullAddress": "212 W Main St, Salisbury, MD 21801-5006", "locale": "it"}, {"street1": null, "street2": null, "fullAddress": "212 W Main St, \uc194\uc988\ubca0\ub9ac, MD", "locale": "ko"}, {"street1": null, "street2": null, "fullAddress": "212 W Main St, Salisbury, MD 21801-5006", "locale": "es_CL"}, {"street1": null, "street2": null, "fullAddress": "212 W Main St, Salisbury, MD 21801-5006", "locale": "fi"}, {"street1": null, "street2": null, "fullAddress": "212 W Main St, Salisbury, MD 21801-5006", "locale": "pt_PT"}, {"street1": null, "street2": null, "fullAddress": "212 W Main St, Salisbury, MD 21801-5006", "locale": "en_US"}, {"street1": null, "street2": null, "fullAddress": "212 W Main St, \u0e0b\u0e32\u0e25\u0e34\u0e2a\u0e1a\u0e34\u0e27\u0e23\u0e35, MD 21801-5006", "locale": "th"}, {"street1": null, "street2": null, "fullAddress": "212 W Main St, Salisbury, MD 21801-5006", "locale": "en_SG"}, {"street1": null, "street2": null, "fullAddress": "212 W Main St, Salisbury, MD 21801-5006", "locale": "pt"}, {"street1": null, "street2": null, "fullAddress": "212 W Main St, Salisbury, MD 21801-5006", "locale": "en_UK"}, {"street1": null, "street2": null, "fullAddress": "212 W Main St, \u202bSalisbury\u202c, \u202bMaryland\u202c 21801-5006", "locale": "ar"}, {"street1": null, "street2": null, "fullAddress": "212 W Main St, Salisbury, MD 21801-5006", "locale": "ru"}, {"street1": null, "street2": null, "fullAddress": "212 W Main St, Salisbury, MD 21801-5006", "locale": "en_NZ"}, {"street1": null, "street2": null, "fullAddress": "212 W Main St, Salisbury, MD 21801-5006", "locale": "de_CH"}, {"street1": null, "street2": null, "fullAddress": "212 W Main St, Salisbury, MD 21801-5006", "locale": "sk"}, {"street1": null, "street2": null, "fullAddress": "212 W Main St, Salisbury, MD 21801-5006", "locale": "en_ZA"}, {"street1": null, "street2": null, "fullAddress": "212 W Main St, Salisbury, MD 21801-5006", "locale": "sv"}, {"street1": null, "street2": null, "fullAddress": "212 W Main St, Salisbury, MD 21801-5006", "locale": "cs"}, {"street1": null, "street2": null, "fullAddress": "212 W Main St, \u03a3\u03ac\u03bb\u03b9\u03c3\u03bc\u03c0\u03b5\u03c1\u03b9, MD 21801-5006", "locale": "el"}, {"street1": null, "street2": null, "fullAddress": "212 W Main St, Salisbury, MD 21801-5006", "locale": "de_AT"}, {"street1": null, "street2": null, "fullAddress": "212 W Main St, Salisbury, MD 21801-5006", "locale": "nl"}, {"street1": null, "street2": null, "fullAddress": "212 W Main St, Salisbury, MD 21801-5006", "locale": "fr_CH"}, {"street1": null, "street2": null, "fullAddress": "212 W Main St, Salisbury, MD 21801-5006", "locale": "hu"}, {"street1": null, "street2": null, "fullAddress": "212 W Main St, Salisbury, MD 21801-5006", "locale": "en_AU"}, {"street1": null, "street2": null, "fullAddress": "212 W Main St, Salisbury, MD 21801-5006", "locale": "in"}, {"street1": null, "street2": null, "fullAddress": "212 W Main St, Salisbury, MD 21801-5006", "locale": "vi"}, {"street1": null, "street2": null, "fullAddress": "212 W Main St, Salisbury, MD 21801-5006", "locale": "fr_CA"}, {"street1": null, "street2": null, "fullAddress": "212 W Main St, Salisbury, MD 21801-5006", "locale": "es_AR"}, {"street1": null, "street2": null, "fullAddress": "212 W Main St, \u202bSalisbury\u202c, \u202bMaryland\u202c 21801-5006", "locale": "ar_EG"}, {"street1": null, "street2": null, "fullAddress": "212 W Main St, Salisbury, MD 21801-5006", "locale": "en_MY"}, {"street1": null, "street2": null, "fullAddress": "212 W Main St, Salisbury, MD 21801-5006", "locale": "sr"}, {"street1": null, "street2": null, "fullAddress": "212 W Main St, Salisbury, MD 21801-5006", "locale": "it_CH"}, {"street1": null, "street2": null, "fullAddress": "212 W Main St, Salisbury, MD 21801-5006", "locale": "da"}, {"street1": null, "street2": null, "fullAddress": "212 W Main St, Salisbury, MD 21801-5006", "locale": "es"}, {"street1": null, "street2": null, "fullAddress": "212 W Main St, Salisbury, MD 21801-5006", "locale": "tr"}, {"street1": null, "street2": null, "fullAddress": "212 W Main St, Salisbury, MD 21801-5006", "locale": "en_HK"}, {"street1": null, "street2": null, "fullAddress": "212 W Main St, Salisbury, MD 21801-5006", "locale": "en_IE"}, {"street1": null, "street2": null, "fullAddress": "212 W Main St, Salisbury, MD 21801-5006", "locale": "en_CA"}, {"street1": null, "street2": null, "fullAddress": "212 W Main St, Salisbury, MD 21801-5006", "locale": "no"}, {"street1": null, "street2": null, "fullAddress": "212 W Main St, Salisbury, MD 21801-5006", "locale": "pl"}, {"street1": null, "street2": null, "fullAddress": "212 W Main St, Salisbury, MD 21801-5006", "locale": "nl_BE"}, {"street1": null, "street2": null, "fullAddress": "212 W Main St, \u7d22\u5c14\u5179\u4f2f\u91cc, MD", "locale": "zh_CN"}, {"street1": null, "street2": null, "fullAddress": "212 W Main St, Salisbury, MD 21801-5006", "locale": "es_CO"}, {"street1": null, "street2": null, "fullAddress": "212 W Main St, Salisbury, MD 21801-5006", "locale": "fr"}, {"street1": null, "street2": null, "fullAddress": "212 W Main St, \u30bd\u30fc\u30eb\u30ba\u30d9\u30ea\u30fc, MD", "locale": "ja"}, {"street1": null, "street2": null, "fullAddress": "212 W Main St, \u05e1\u05dc\u05d9\u05e1\u05d1\u05e8\u05d9, MD 21801-5006", "locale": "iw"}, {"street1": null, "street2": null, "fullAddress": "212 W Main St, Salisbury, MD 21801-5006", "locale": "en_IN"}, {"street1": null, "street2": null, "fullAddress": "212 W Main St, Salisbury, MD 21801-5006", "locale": "de"}, {"street1": null, "street2": null, "fullAddress": "212 W Main St, \u7d22\u5c14\u5179\u4f2f\u91cc, MD", "locale": "zh"}, {"street1": null, "street2": null, "fullAddress": "212 W Main St, Salisbury, MD 21801-5006", "locale": "es_PE"}, {"street1": null, "street2": null, "fullAddress": "212 W Main St, Salisbury, MD 21801-5006", "locale": "en_PH"}], "parents": [{"placeType": "CITY", "locationId": 41365, "name": "Salisbury"}, {"placeType": "STATE", "locationId": 28941, "name": "Maryland"}, {"placeType": "COUNTRY", "locationId": 191, "name": "Hoa K\u1ef3"}, {"placeType": "CONTINENT", "locationId": 19, "name": "B\u0103\u0301c My\u0303"}, {"placeType": null, "locationId": 1, "name": "Th\u00ea\u0301 gi\u01a1\u0301i"}], "thumbnail": {"title": "Garlic Knots", "photoSizes": [{"height": 0, "isHorizontal": true, "width": 0, "url": "https://dynamic-media-cdn.tripadvisor.com/media/photo-o/0c/95/0d/e2/garlic-knots.jpg?w=100&h=100&s=1"}, {"height": 50, "isHorizontal": true, "width": 50, "url": "https://media-cdn.tripadvisor.com/media/photo-t/0c/95/0d/e2/garlic-knots.jpg"}, {"height": 150, "isHorizontal": true, "width": 150, "url": "https://media-cdn.tripadvisor.com/media/photo-l/0c/95/0d/e2/garlic-knots.jpg"}, {"height": 200, "isHorizontal": false, "width": 180, "url": "https://media-cdn.tripadvisor.com/media/photo-i/0c/95/0d/e2/garlic-knots.jpg"}, {"height": 141, "isHorizontal": true, "width": 250, "url": "https://media-cdn.tripadvisor.com/media/photo-f/0c/95/0d/e2/garlic-knots.jpg"}, {"height": 309, "isHorizontal": true, "width": 550, "url": "https://media-cdn.tripadvisor.com/media/photo-s/0c/95/0d/e2/garlic-knots.jpg"}, {"height": 576, "isHorizontal": true, "width": 1024, "url": "https://media-cdn.tripadvisor.com/media/photo-w/0c/95/0d/e2/garlic-knots.jpg"}, {"height": 720, "isHorizontal": true, "width": 1280, "url": "https://media-cdn.tripadvisor.com/media/photo-o/0c/95/0d/e2/garlic-knots.jpg"}]}}]}}]