[{"data": {"restaurantStyles": [], "restaurantTypes": [], "restaurantMealTypes": [], "restaurantDiningOptions": [], "restaurantPrice": [], "restaurantCuisines": [], "accommodationType": [], "locations": [{"accommodationType": "T_HOTEL", "countryId": 191, "hoursOfOperation": {"dailyTimeIntervals": [{"day": "MONDAY", "timeIntervals": [{"openingTime": {"hours": 0, "minutes": 0}, "closingTime": {"hours": 0, "minutes": 0}}]}, {"day": "TUESDAY", "timeIntervals": [{"openingTime": {"hours": 0, "minutes": 0}, "closingTime": {"hours": 0, "minutes": 0}}]}, {"day": "WEDNESDAY", "timeIntervals": [{"openingTime": {"hours": 0, "minutes": 0}, "closingTime": {"hours": 0, "minutes": 0}}]}, {"day": "THURSDAY", "timeIntervals": [{"openingTime": {"hours": 0, "minutes": 0}, "closingTime": {"hours": 0, "minutes": 0}}]}, {"day": "FRIDAY", "timeIntervals": [{"openingTime": {"hours": 0, "minutes": 0}, "closingTime": {"hours": 0, "minutes": 0}}]}, {"day": "SATURDAY", "timeIntervals": [{"openingTime": {"hours": 0, "minutes": 0}, "closingTime": {"hours": 0, "minutes": 0}}]}, {"day": "SUNDAY", "timeIntervals": [{"openingTime": {"hours": 0, "minutes": 0}, "closingTime": {"hours": 0, "minutes": 0}}]}]}, "isClosed": false, "isOwner": false, "latitude": 39.17864, "localizedDescriptions": [], "locationId": 659369, "locationV2": {"attractionTypes": []}, "longitude": -75.52409, "parentId": 34009, "placeType": "ACCOMMODATION", "absoluteOwnerManagementUrl": "https://www.tripadvisor.com.vn/HotelsManagementCenter-d659369-Residence_Inn_by_Marriott_Dover?cat=0&geo=34009", "email": "residenceinndover@gmail.com", "geoName": "Dover", "isoCountryCode": "US", "localizedName": "Residence Inn by Marriott Dover", "name": "Residence Inn by Marriott Dover", "locationDescription": "T\u00ecm ki\u1ebfm m\u1ed9t kha\u0301ch sa\u0323n d\u00e0nh cho gia \u0111\u00ecnh l\u00fd t\u01b0\u1edfng \u1edf Dover kh\u00f4ng ph\u1ea3i l\u00e0 qu\u00e1 kh\u00f3. Ch\u00e0o \u0111\u00f3n b\u1ea1n \u0111\u1ebfn v\u1edbi Residence Inn Dover, m\u1ed9t l\u1ef1a ch\u1ecdn \u0111\u00fang \u0111\u1eafn cho nh\u1eefng du kh\u00e1ch nh\u01b0 b\u1ea1n.\nN\u1ebfu mu\u1ed1n \u1edf g\u1ea7n nh\u1eefng \u0111\u1ecba danh y\u00eau th\u00edch nh\u01b0 Christ Episcopal Church (2,7 km), du kh\u00e1ch t\u1ea1i Residence Inn Dover c\u00f3 th\u1ec3 d\u1ec5 d\u00e0ng \u0111\u1ebfn th\u0103m m\u1ed9t trong nh\u1eefng \u0111\u1ecba \u0111i\u1ec3m n\u1ed5i ti\u1ebfng nh\u1ea5t n\u00e0y c\u1ee7a Dover.\nL\u00e0 \u201cng\u00f4i nh\u00e0 xa x\u1ee9,\u201d c\u00e1c ph\u00f2ng kha\u0301ch sa\u0323n cung c\u1ea5p tv m\u00e0n h\u00ecnh ph\u1eb3ng, b\u1ebfp nh\u1ecf v\u00e0 t\u1ee7 l\u1ea1nh, v\u00e0 k\u1ebft n\u1ed1i m\u1ea1ng th\u1eadt d\u1ec5 d\u00e0ng, v\u1edbi wifi mi\u1ec5n ph\u00ed s\u1eb5n c\u00f3.\nKh\u00e1ch c\u00f3 th\u1ec3 d\u00f9ng b\u00e0n l\u1ec5 t\u00e2n 24 gi\u1edd, nh\u1eadn ph\u00f2ng / tr\u1ea3 ph\u00f2ng nhanh v\u00e0 b\u1ea3o qu\u1ea3n h\u00e0nh l\u00fd khi ngh\u1ec9 t\u1ea1i Dover Residence Inn. Ngo\u00e0i ra, Residence Inn Dover c\u00f2n c\u00f3 b\u1ec3 b\u01a1i v\u00e0 b\u1eefa s\u00e1ng, s\u1ebd l\u00e0m cho k\u00ec ngh\u1ec9 c\u1ee7a b\u1ea1n \u1edf Dover tr\u1edf n\u00ean tuy\u1ec7t v\u1eddi h\u01a1n n\u1eefa. Thu\u1eadn ti\u1ec7n h\u01a1n n\u1eefa, c\u00f2n c\u00f3 \u0111\u1ed7 xe mi\u1ec5n ph\u00ed c\u00f3 s\u1eb5n cho kh\u00e1ch.\nKhi \u1edf Dover, b\u1ea1n c\u00f3 th\u1ec3 mu\u1ed1n th\u1eed m\u1ed9t s\u1ed1 nh\u00e0 h\u00e0ng c\u00e1ch ch\u1ec9 v\u00e0i b\u01b0\u1edbc ch\u00e2n t\u1eeb Dover Residence Inn, bao g\u1ed3m Festival Buffet at Dover Downs (1,4 km), Michele's (1,5 km) v\u00e0 Flavor of India (0,9 km).\nTrong k\u1ef3 ngh\u1ec9 c\u1ee7a b\u1ea1n, nh\u1edb gh\u00e9 th\u0103m nh\u1eefng \u0111i\u1ec3m \u0111\u1ebfn y\u00eau th\u00edch nh\u01b0 Dover International Speedway (1,5 km), Delaware Agricultural Museum and Village (0,7 km) v\u00e0 Delaware Governor's Mansion (Woodburn) (1,9 km), \u0111\u1ec1u n\u1eb1m trong v\u00f2ng \u0111i b\u1ed9 t\u1eeb kha\u0301ch sa\u0323n.\nResidence Inn Dover mong mu\u1ed1n \u0111\u01b0\u1ee3c ch\u00e0o \u0111\u00f3n b\u1ea1n trong chuy\u1ebfn \u0111i \u0111\u1ebfn Dover c\u1ee7a b\u1ea1n.\n", "officialUrl": "https://www.marriott.com/en-us/hotels/dovri-residence-inn-dover/overview/?scid=45f93f1b-bd77-45c9-8dab-83b6a417f6fe&y_source=1_MjgxODk1Ni03NjktbG9jYXRpb24ud2Vic2l0ZQ%3D%3D", "postPhotosUrl": "/PostPhotos-d659369", "telephone": "+1 302-677-0777", "url": "/Hotel_Review-g34009-d659369-Reviews-Residence_Inn_by_Marriott_Dover-Dover_Delaware.html", "writeUserReviewUrl": "/UserReview-g34009-d659369-Residence_Inn_by_Marriott_Dover-Dover_Delaware.html", "localizedStreetAddress": {"city": "Dover", "country": "Hoa K\u1ef3", "fullAddress": "600 Jefferic Blvd, Dover, DE 19901-2019", "postalCode": "19901-2019", "state": "Delaware", "street1": "600 Jefferic Blvd", "street2": ""}, "streetAddress": {"street1": "600 Jefferic Blvd", "street2": "", "state": "Delaware", "city": "Dover", "postalCode": "19901-2019", "fullAddress": "600 Jefferic Blvd, Dover, DE 19901-2019"}, "localizedNames": [{"locale": "zh_TW", "value": "\u591a\u4f5b\u842c\u8c6a\u9577\u4f4f\u98ef\u5e97"}, {"locale": "ko", "value": "\ub808\uc9c0\ub358\uc2a4 \uc778 \uba54\ub9ac\uc5b4\ud2b8 \ub3c4\ubc84"}, {"locale": "ar", "value": "\u0631\u064a\u0632\u064a\u062f\u0646\u0633 \u0625\u0646 \u0645\u0627\u0631\u064a\u0648\u062a \u062f\u0648\u0641\u0631"}, {"locale": "ru", "value": "\u041c\u0430\u0440\u0440\u0438\u043e\u0442\u0442 \u0420\u0435\u0437\u0438\u0434\u0435\u043d\u0441 \u0418\u043d\u043d \u0414\u0443\u0432\u0440"}, {"locale": "ja", "value": "\u30ec\u30b8\u30c7\u30f3\u30b9\u30a4\u30f3 \u30d0\u30a4 \u30de\u30ea\u30aa\u30c3\u30c8 \u30c9\u30fc\u30d0\u30fc"}], "localizedStreetAddresses": [{"street1": null, "street2": null, "fullAddress": "600 Jefferic Blvd, Dover, DE 19901-2019", "locale": "fr_BE"}, {"street1": null, "street2": null, "fullAddress": "600 Jefferic Blvd, Dover, DE 19901-2019", "locale": "es_MX"}, {"street1": null, "street2": null, "fullAddress": "600 Jefferic Blvd, Dover, DE 19901-2019", "locale": "es_VE"}, {"street1": null, "street2": null, "fullAddress": "600 Jefferic Blvd, \u591a\u4f5b\u3000, DE", "locale": "zh_TW"}, {"street1": null, "street2": null, "fullAddress": "600 Jefferic Blvd, \u591a\u4f5b\u3000, DE", "locale": "zh_HK"}, {"street1": null, "street2": null, "fullAddress": "600 Jefferic Blvd, Dover, DE 19901-2019", "locale": "it"}, {"street1": null, "street2": null, "fullAddress": "600 Jefferic Blvd, \ub3c4\ubc84, DE", "locale": "ko"}, {"street1": null, "street2": null, "fullAddress": "600 Jefferic Blvd, Dover, DE 19901-2019", "locale": "es_CL"}, {"street1": null, "street2": null, "fullAddress": "600 Jefferic Blvd, Dover, DE 19901-2019", "locale": "fi"}, {"street1": null, "street2": null, "fullAddress": "600 Jefferic Blvd, Dover, DE 19901-2019", "locale": "pt_PT"}, {"street1": null, "street2": null, "fullAddress": "600 Jefferic Blvd, Dover, DE 19901-2019", "locale": "en_US"}, {"street1": null, "street2": null, "fullAddress": "600 Jefferic Blvd, \u0e42\u0e14\u0e40\u0e27\u0e2d\u0e23\u0e4c, DE 19901-2019", "locale": "th"}, {"street1": null, "street2": null, "fullAddress": "600 Jefferic Blvd, Dover, DE 19901-2019", "locale": "en_SG"}, {"street1": null, "street2": null, "fullAddress": "600 Jefferic Blvd, Dover, DE 19901-2019", "locale": "en_UK"}, {"street1": null, "street2": null, "fullAddress": "600 Jefferic Blvd, Dover, DE 19901-2019", "locale": "pt"}, {"street1": null, "street2": null, "fullAddress": "600 Jefferic Blvd, \u202bDover\u202c, \u202bDelaware\u202c 19901-2019", "locale": "ar"}, {"street1": null, "street2": null, "fullAddress": "600 Jefferic Blvd, \u0414\u0443\u0432\u0440, DE 19901-2019", "locale": "ru"}, {"street1": null, "street2": null, "fullAddress": "600 Jefferic Blvd, Dover, DE 19901-2019", "locale": "en_NZ"}, {"street1": null, "street2": null, "fullAddress": "600 Jefferic Blvd, Dover, DE 19901-2019", "locale": "de_CH"}, {"street1": null, "street2": null, "fullAddress": "600 Jefferic Blvd, Dover, DE 19901-2019", "locale": "sk"}, {"street1": null, "street2": null, "fullAddress": "600 Jefferic Blvd, Dover, DE 19901-2019", "locale": "en_ZA"}, {"street1": null, "street2": null, "fullAddress": "600 Jefferic Blvd, Dover, DE 19901-2019", "locale": "cs"}, {"street1": null, "street2": null, "fullAddress": "600 Jefferic Blvd, Dover, DE 19901-2019", "locale": "sv"}, {"street1": null, "street2": null, "fullAddress": "600 Jefferic Blvd, Dover, DE 19901-2019", "locale": "el"}, {"street1": null, "street2": null, "fullAddress": "600 Jefferic Blvd, Dover, DE 19901-2019", "locale": "de_AT"}, {"street1": null, "street2": null, "fullAddress": "600 Jefferic Blvd, Dover, DE 19901-2019", "locale": "hu"}, {"street1": null, "street2": null, "fullAddress": "600 Jefferic Blvd, Dover, DE 19901-2019", "locale": "fr_CH"}, {"street1": null, "street2": null, "fullAddress": "600 Jefferic Blvd, Dover, DE 19901-2019", "locale": "nl"}, {"street1": null, "street2": null, "fullAddress": "600 Jefferic Blvd, Dover, DE 19901-2019", "locale": "en_AU"}, {"street1": null, "street2": null, "fullAddress": "600 Jefferic Blvd, Dover, DE 19901-2019", "locale": "in"}, {"street1": null, "street2": null, "fullAddress": "600 Jefferic Blvd, Dover, DE 19901-2019", "locale": "vi"}, {"street1": null, "street2": null, "fullAddress": "600 Jefferic Blvd, Dover, DE 19901-2019", "locale": "fr_CA"}, {"street1": null, "street2": null, "fullAddress": "600 Jefferic Blvd, Dover, DE 19901-2019", "locale": "es_AR"}, {"street1": null, "street2": null, "fullAddress": "600 Jefferic Blvd, \u202bDover\u202c, \u202bDelaware\u202c 19901-2019", "locale": "ar_EG"}, {"street1": null, "street2": null, "fullAddress": "600 Jefferic Blvd, Dover, DE 19901-2019", "locale": "sr"}, {"street1": null, "street2": null, "fullAddress": "600 Jefferic Blvd, Dover, DE 19901-2019", "locale": "en_MY"}, {"street1": null, "street2": null, "fullAddress": "600 Jefferic Blvd, Dover, DE 19901-2019", "locale": "it_CH"}, {"street1": null, "street2": null, "fullAddress": "600 Jefferic Blvd, Dover, DE 19901-2019", "locale": "da"}, {"street1": null, "street2": null, "fullAddress": "600 Jefferic Blvd, Dover, DE 19901-2019", "locale": "es"}, {"street1": null, "street2": null, "fullAddress": "600 Jefferic Blvd, Dover, DE 19901-2019", "locale": "tr"}, {"street1": null, "street2": null, "fullAddress": "600 Jefferic Blvd, Dover, DE 19901-2019", "locale": "en_HK"}, {"street1": null, "street2": null, "fullAddress": "600 Jefferic Blvd, Dover, DE 19901-2019", "locale": "en_IE"}, {"street1": null, "street2": null, "fullAddress": "600 Jefferic Blvd, Dover, DE 19901-2019", "locale": "en_CA"}, {"street1": null, "street2": null, "fullAddress": "600 Jefferic Blvd, Dover, DE 19901-2019", "locale": "no"}, {"street1": null, "street2": null, "fullAddress": "600 Jefferic Blvd, Dover, DE 19901-2019", "locale": "nl_BE"}, {"street1": null, "street2": null, "fullAddress": "600 Jefferic Blvd, Dover, DE 19901-2019", "locale": "pl"}, {"street1": null, "street2": null, "fullAddress": "600 Jefferic Blvd, \u591a\u4f5b, DE", "locale": "zh_CN"}, {"street1": null, "street2": null, "fullAddress": "600 Jefferic Blvd, Dover, DE 19901-2019", "locale": "es_CO"}, {"street1": null, "street2": null, "fullAddress": "600 Jefferic Blvd, Dover, DE 19901-2019", "locale": "fr"}, {"street1": null, "street2": null, "fullAddress": "600 Jefferic Blvd, \u30c9\u30fc\u30d0\u30fc, DE", "locale": "ja"}, {"street1": null, "street2": null, "fullAddress": "600 Jefferic Blvd, \u05d3\u05d5\u05d1\u05e8, DE 19901-2019", "locale": "iw"}, {"street1": null, "street2": null, "fullAddress": "600 Jefferic Blvd, Dover, DE 19901-2019", "locale": "en_IN"}, {"street1": null, "street2": null, "fullAddress": "600 Jefferic Blvd, Dover, DE 19901-2019", "locale": "de"}, {"street1": null, "street2": null, "fullAddress": "600 Jefferic Blvd, \u591a\u4f5b, DE", "locale": "zh"}, {"street1": null, "street2": null, "fullAddress": "600 Jefferic Blvd, Dover, DE 19901-2019", "locale": "es_PE"}, {"street1": null, "street2": null, "fullAddress": "600 Jefferic Blvd, Dover, DE 19901-2019", "locale": "en_PH"}], "parents": [{"placeType": "CITY", "locationId": 34009, "name": "Dover"}, {"placeType": "STATE", "locationId": 28929, "name": "Delaware"}, {"placeType": "COUNTRY", "locationId": 191, "name": "Hoa K\u1ef3"}, {"placeType": "CONTINENT", "locationId": 19, "name": "B\u0103\u0301c My\u0303"}, {"placeType": null, "locationId": 1, "name": "Th\u00ea\u0301 gi\u01a1\u0301i"}], "thumbnail": {"title": null, "photoSizes": [{"height": 0, "isHorizontal": true, "width": 0, "url": "https://dynamic-media-cdn.tripadvisor.com/media/photo-o/29/0b/bf/5d/exterior.jpg?w=100&h=100&s=1"}, {"height": 50, "isHorizontal": true, "width": 50, "url": "https://media-cdn.tripadvisor.com/media/photo-t/29/0b/bf/5d/exterior.jpg"}, {"height": 150, "isHorizontal": true, "width": 150, "url": "https://media-cdn.tripadvisor.com/media/photo-l/29/0b/bf/5d/exterior.jpg"}, {"height": 200, "isHorizontal": false, "width": 180, "url": "https://media-cdn.tripadvisor.com/media/photo-i/29/0b/bf/5d/exterior.jpg"}, {"height": 167, "isHorizontal": true, "width": 250, "url": "https://media-cdn.tripadvisor.com/media/photo-f/29/0b/bf/5d/exterior.jpg"}, {"height": 367, "isHorizontal": true, "width": 550, "url": "https://media-cdn.tripadvisor.com/media/photo-s/29/0b/bf/5d/exterior.jpg"}, {"height": 683, "isHorizontal": true, "width": 1024, "url": "https://media-cdn.tripadvisor.com/media/photo-w/29/0b/bf/5d/exterior.jpg"}, {"height": 853, "isHorizontal": true, "width": 1280, "url": "https://media-cdn.tripadvisor.com/media/photo-m/1280/29/0b/bf/5d/exterior.jpg"}]}}]}}]