[{"data": {"restaurantStyles": [], "restaurantTypes": [], "restaurantMealTypes": [], "restaurantDiningOptions": [], "restaurantPrice": [], "restaurantCuisines": [], "accommodationType": [], "locations": [{"accommodationType": "T_HOTEL", "countryId": 191, "hoursOfOperation": {"dailyTimeIntervals": [{"day": "MONDAY", "timeIntervals": [{"openingTime": {"hours": 0, "minutes": 0}, "closingTime": {"hours": 0, "minutes": 0}}]}, {"day": "TUESDAY", "timeIntervals": [{"openingTime": {"hours": 0, "minutes": 0}, "closingTime": {"hours": 0, "minutes": 0}}]}, {"day": "WEDNESDAY", "timeIntervals": [{"openingTime": {"hours": 0, "minutes": 0}, "closingTime": {"hours": 0, "minutes": 0}}]}, {"day": "THURSDAY", "timeIntervals": [{"openingTime": {"hours": 0, "minutes": 0}, "closingTime": {"hours": 0, "minutes": 0}}]}, {"day": "FRIDAY", "timeIntervals": [{"openingTime": {"hours": 0, "minutes": 0}, "closingTime": {"hours": 0, "minutes": 0}}]}, {"day": "SATURDAY", "timeIntervals": [{"openingTime": {"hours": 0, "minutes": 0}, "closingTime": {"hours": 0, "minutes": 0}}]}, {"day": "SUNDAY", "timeIntervals": [{"openingTime": {"hours": 0, "minutes": 0}, "closingTime": {"hours": 0, "minutes": 0}}]}]}, "isClosed": false, "isOwner": false, "latitude": 39.701515, "localizedDescriptions": [], "locationId": 6820815, "locationV2": {"attractionTypes": []}, "longitude": -75.572235, "parentId": 34042, "placeType": "ACCOMMODATION", "absoluteOwnerManagementUrl": "https://www.tripadvisor.com.vn/HotelsManagementCenter-d6820815-Fairfield_Inn_Suites_Wilmington_New_Castle?cat=0&geo=34042", "email": null, "geoName": "New Castle", "isoCountryCode": "US", "localizedName": "Fairfield Inn & Suites Wilmington New Castle", "name": "Fairfield Inn & Suites Wilmington New Castle", "locationDescription": "H\u00e3y t\u1ef1 h\u1ecfi t\u1ea1i sao nhi\u1ec1u kh\u00e1ch du l\u1ecbch \u0111\u00e3 l\u1ef1a ch\u1ecdn Fairfield Inn & Suites Wilmington New Castle khi \u0111\u1ebfn New Castle. Kh\u00e1ch s\u1ea1n l\u00e0 s\u1ef1 t\u1ed5ng h\u1ee3p c\u1ee7a nh\u1eefng gi\u00e1 tr\u1ecb l\u00fd t\u01b0\u1edfng, s\u1ef1 tho\u1ea3i m\u00e1i v\u00e0 thu\u1eadn ti\u1ec7n nh\u01b0 lo\u1ea1t ti\u1ec7n nghi \u0111\u01b0\u1ee3c thi\u1ebft k\u1ebf cho nh\u1eefng kh\u00e1ch du l\u1ecbch nh\u01b0 b\u1ea1n.\nN\u1eb1m g\u1ea7n nh\u1eefng \u0111\u1ecba danh y\u00eau th\u00edch nh\u01b0 Frenchtown Railroad Ticket Office (4,2 km) v\u00e0 Old Library Museum (4,5 km), du kh\u00e1ch t\u1ea1i Fairfield Inn & Suites Wilmington New Castle c\u00f3 th\u1ec3 d\u1ec5 d\u00e0ng \u0111\u1ebfn th\u0103m nh\u1eefng \u0111i\u1ec3m \u0111\u1ebfn n\u1ed5i ti\u1ebfng n\u00e0y \u1edf New Castle.\nC\u00e1c ph\u00f2ng kh\u00e1ch s\u1ea1n cung c\u1ea5p c\u00e1c ti\u1ec7n nghi nh\u01b0 \u0111i\u1ec1u h\u00f2a nhi\u1ec7t \u0111\u1ed9, t\u1ee7 l\u1ea1nh v\u00e0 khu gh\u1ebf ng\u1ed3i, v\u00e0 kh\u00e1ch c\u00f3 th\u1ec3 k\u1ebft n\u1ed1i internet v\u1edbi wifi mi\u1ec5n ph\u00ed \u0111\u01b0\u1ee3c cung c\u1ea5p b\u1edfi kha\u0301ch sa\u0323n.\nFairfield Inn & Suites Wilmington New Castle cung c\u1ea5p b\u00e1o ch\u00ed h\u00e0ng ng\u00e0y, gi\u00fap cho k\u1ef3 ngh\u1ec9 c\u1ee7a b\u1ea1n tr\u1edf n\u00ean d\u1ec5 ch\u1ecbu h\u01a1n n\u1eefa. Kh\u00e1ch s\u1ea1n c\u00f2n cung c\u1ea5p b\u1ec3 b\u01a1i v\u00e0 b\u1eefa s\u00e1ng. N\u1ebfu b\u1ea1n l\u00e1i xe \u0111\u1ebfn Fairfield Inn & Suites Wilmington New Castle, \u0111\u1ed7 xe mi\u1ec5n ph\u00ed c\u00f3 s\u1eb5n.\nKhi \u1edf \u0111\u00e2y, h\u00e3y ch\u1eafc ch\u1eafn th\u1eed m\u1ed9t s\u1ed1 ha\u0309i sa\u0309n, bao g\u1ed3m Nora Lee's Cafe, Alex's Seafood Restaurant v\u00e0 Rita's Water Ice of New Castle, \u0111\u1ec1u n\u1eb1m g\u1ea7n Fairfield Inn & Suites Wilmington New Castle.\nN\u1ebfu b\u1ea1n th\u00edch kh\u00e1m ph\u00e1 New Castle, kh\u00e1m ph\u00e1 m\u1ed9t trong nh\u1eefng vi\u00ea\u0323n ba\u0309o ta\u0300ng li\u0323ch s\u01b0\u0309, nh\u01b0 Amstel House Museum and Gardens, Dutch House Museum and Gardens v\u00e0 John M. Cleveland Civil War Museum.\nT\u1ea1i Fairfield Inn & Suites Wilmington New Castle, s\u1ef1 tho\u1ea3i m\u00e1i v\u00e0 h\u00e0i l\u00f2ng c\u1ee7a b\u1ea1n \u0111\u01b0\u1ee3c \u0111\u1eb7t l\u00ean h\u00e0ng \u0111\u1ea7u, v\u00e0 h\u1ecd mong mu\u1ed1n \u0111\u01b0\u1ee3c ch\u00e0o \u0111\u00f3n b\u1ea1n t\u1edbi New Castle.\n", "officialUrl": "https://www.marriott.com/en-us/hotels/ilgnc-fairfield-inn-and-suites-wilmington-new-castle/overview/?scid=45f93f1b-bd77-45c9-8dab-83b6a417f6fe&y_source=1_MjgzMzc5NS03NjktbG9jYXRpb24ud2Vic2l0ZQ%3D%3D", "postPhotosUrl": "/PostPhotos-d6820815", "telephone": "+1 302-777-4700", "url": "/Hotel_Review-g34042-d6820815-Reviews-Fairfield_Inn_Suites_Wilmington_New_Castle-New_Castle_Delaware.html", "writeUserReviewUrl": "/UserReview-g34042-d6820815-Fairfield_Inn_Suites_Wilmington_New_Castle-New_Castle_Delaware.html", "localizedStreetAddress": {"city": "New Castle", "country": "Hoa K\u1ef3", "fullAddress": "2117 N Dupont Hwy, New Castle, DE 19720-6308", "postalCode": "19720-6308", "state": "Delaware", "street1": "2117 N Dupont Hwy", "street2": ""}, "streetAddress": {"street1": "2117 N Dupont Hwy", "street2": "", "state": "Delaware", "city": "New Castle", "postalCode": "19720-6308", "fullAddress": "2117 N Dupont Hwy, New Castle, DE 19720-6308"}, "localizedNames": [{"locale": "zh_TW", "value": "\u5a01\u660e\u9813\u65b0\u5821\u842c\u8c6a\u8cbb\u723e\u83f2\u723e\u5fb7\u5957\u623f\u98ef\u5e97"}, {"locale": "ko", "value": "\ud398\uc5b4\ud544\ub4dc \uc778 & \uc2a4\uc704\ud2b8 \uc70c\ubc0d\ud134 \ub274 \uce90\uc2ac"}, {"locale": "ar", "value": "\u062d\u0627\u0646\u0629 \u0641\u064a\u0631\u0641\u064a\u0644\u062f \u0648\u0623\u062c\u0646\u062d\u0629 \u0648\u064a\u0644\u0645\u0646\u062c\u062a\u0648\u0646 \u0646\u064a\u0648 \u0643\u0627\u0633\u0644"}, {"locale": "ja", "value": "\u30d5\u30a7\u30a2\u30d5\u30a3\u30fc\u30eb\u30c9 \u30a4\u30f3 & \u30b9\u30a4\u30fc\u30c4 \u30a6\u30a3\u30eb\u30df\u30f3\u30c8\u30f3 \u30cb\u30e5\u30fc \u30ad\u30e3\u30c3\u30b9\u30eb"}], "localizedStreetAddresses": [{"street1": null, "street2": null, "fullAddress": "2117 N Dupont Hwy, New Castle, DE 19720-6308", "locale": "fr_BE"}, {"street1": null, "street2": null, "fullAddress": "2117 N Dupont Hwy, Newcastle, DE 19720-6308", "locale": "es_MX"}, {"street1": null, "street2": null, "fullAddress": "2117 N Dupont Hwy, Newcastle, DE 19720-6308", "locale": "es_VE"}, {"street1": null, "street2": null, "fullAddress": "2117 N Dupont Hwy, New Castle, DE", "locale": "zh_TW"}, {"street1": null, "street2": null, "fullAddress": "2117 N Dupont Hwy, New Castle, DE", "locale": "zh_HK"}, {"street1": null, "street2": null, "fullAddress": "2117 N Dupont Hwy, New Castle, DE 19720-6308", "locale": "it"}, {"street1": null, "street2": null, "fullAddress": "2117 N Dupont Hwy, \ub274 \uce90\uc2ac, DE", "locale": "ko"}, {"street1": null, "street2": null, "fullAddress": "2117 N Dupont Hwy, Newcastle, DE 19720-6308", "locale": "es_CL"}, {"street1": null, "street2": null, "fullAddress": "2117 N Dupont Hwy, New Castle, DE 19720-6308", "locale": "fi"}, {"street1": null, "street2": null, "fullAddress": "2117 N Dupont Hwy, New Castle, DE 19720-6308", "locale": "pt_PT"}, {"street1": null, "street2": null, "fullAddress": "2117 N Dupont Hwy, New Castle, DE 19720-6308", "locale": "en_US"}, {"street1": null, "street2": null, "fullAddress": "2117 N Dupont Hwy, \u0e19\u0e34\u0e27\u0e04\u0e32\u0e2a\u0e40\u0e0b\u0e34\u0e25, DE 19720-6308", "locale": "th"}, {"street1": null, "street2": null, "fullAddress": "2117 N Dupont Hwy, New Castle, DE 19720-6308", "locale": "en_SG"}, {"street1": null, "street2": null, "fullAddress": "2117 N Dupont Hwy, New Castle, DE 19720-6308", "locale": "pt"}, {"street1": null, "street2": null, "fullAddress": "2117 N Dupont Hwy, New Castle, DE 19720-6308", "locale": "en_UK"}, {"street1": null, "street2": null, "fullAddress": "2117 N Dupont Hwy, \u202bNew Castle\u202c, \u202bDelaware\u202c 19720-6308", "locale": "ar"}, {"street1": null, "street2": null, "fullAddress": "2117 N Dupont Hwy, \u041d\u043e\u044e-\u041a\u0430\u0441\u043b, DE 19720-6308", "locale": "ru"}, {"street1": null, "street2": null, "fullAddress": "2117 N Dupont Hwy, New Castle, DE 19720-6308", "locale": "en_NZ"}, {"street1": null, "street2": null, "fullAddress": "2117 N Dupont Hwy, New Castle, DE 19720-6308", "locale": "de_CH"}, {"street1": null, "street2": null, "fullAddress": "2117 N Dupont Hwy, New Castle, DE 19720-6308", "locale": "sk"}, {"street1": null, "street2": null, "fullAddress": "2117 N Dupont Hwy, New Castle, DE 19720-6308", "locale": "en_ZA"}, {"street1": null, "street2": null, "fullAddress": "2117 N Dupont Hwy, New Castle, DE 19720-6308", "locale": "sv"}, {"street1": null, "street2": null, "fullAddress": "2117 N Dupont Hwy, New Castle, DE 19720-6308", "locale": "cs"}, {"street1": null, "street2": null, "fullAddress": "2117 N Dupont Hwy, New Castle, DE 19720-6308", "locale": "el"}, {"street1": null, "street2": null, "fullAddress": "2117 N Dupont Hwy, New Castle, DE 19720-6308", "locale": "de_AT"}, {"street1": null, "street2": null, "fullAddress": "2117 N Dupont Hwy, New Castle, DE 19720-6308", "locale": "hu"}, {"street1": null, "street2": null, "fullAddress": "2117 N Dupont Hwy, New Castle, DE 19720-6308", "locale": "fr_CH"}, {"street1": null, "street2": null, "fullAddress": "2117 N Dupont Hwy, New Castle, DE 19720-6308", "locale": "nl"}, {"street1": null, "street2": null, "fullAddress": "2117 N Dupont Hwy, New Castle, DE 19720-6308", "locale": "en_AU"}, {"street1": null, "street2": null, "fullAddress": "2117 N Dupont Hwy, New Castle, DE 19720-6308", "locale": "in"}, {"street1": null, "street2": null, "fullAddress": "2117 N Dupont Hwy, New Castle, DE 19720-6308", "locale": "vi"}, {"street1": null, "street2": null, "fullAddress": "2117 N Dupont Hwy, New Castle, DE 19720-6308", "locale": "fr_CA"}, {"street1": null, "street2": null, "fullAddress": "2117 N Dupont Hwy, Newcastle, DE 19720-6308", "locale": "es_AR"}, {"street1": null, "street2": null, "fullAddress": "2117 N Dupont Hwy, \u202bNew Castle\u202c, \u202bDelaware\u202c 19720-6308", "locale": "ar_EG"}, {"street1": null, "street2": null, "fullAddress": "2117 N Dupont Hwy, New Castle, DE 19720-6308", "locale": "sr"}, {"street1": null, "street2": null, "fullAddress": "2117 N Dupont Hwy, New Castle, DE 19720-6308", "locale": "en_MY"}, {"street1": null, "street2": null, "fullAddress": "2117 N Dupont Hwy, New Castle, DE 19720-6308", "locale": "it_CH"}, {"street1": null, "street2": null, "fullAddress": "2117 N Dupont Hwy, New Castle, DE 19720-6308", "locale": "da"}, {"street1": null, "street2": null, "fullAddress": "2117 N Dupont Hwy, Newcastle, DE 19720-6308", "locale": "es"}, {"street1": null, "street2": null, "fullAddress": "2117 N Dupont Hwy, New Castle, DE 19720-6308", "locale": "tr"}, {"street1": null, "street2": null, "fullAddress": "2117 N Dupont Hwy, New Castle, DE 19720-6308", "locale": "en_HK"}, {"street1": null, "street2": null, "fullAddress": "2117 N Dupont Hwy, New Castle, DE 19720-6308", "locale": "en_IE"}, {"street1": null, "street2": null, "fullAddress": "2117 N Dupont Hwy, New Castle, DE 19720-6308", "locale": "en_CA"}, {"street1": null, "street2": null, "fullAddress": "2117 N Dupont Hwy, New Castle, DE 19720-6308", "locale": "nl_BE"}, {"street1": null, "street2": null, "fullAddress": "2117 N Dupont Hwy, New Castle, DE 19720-6308", "locale": "no"}, {"street1": null, "street2": null, "fullAddress": "2117 N Dupont Hwy, New Castle, DE 19720-6308", "locale": "pl"}, {"street1": null, "street2": null, "fullAddress": "2117 N Dupont Hwy, New Castle, DE", "locale": "zh_CN"}, {"street1": null, "street2": null, "fullAddress": "2117 N Dupont Hwy, Newcastle, DE 19720-6308", "locale": "es_CO"}, {"street1": null, "street2": null, "fullAddress": "2117 N Dupont Hwy, New Castle, DE 19720-6308", "locale": "fr"}, {"street1": null, "street2": null, "fullAddress": "2117 N Dupont Hwy, \u30cb\u30e5\u30fc \u30ad\u30e3\u30c3\u30b9\u30eb, DE", "locale": "ja"}, {"street1": null, "street2": null, "fullAddress": "2117 N Dupont Hwy, \u05e0\u05d9\u05d5 \u05e7\u05d0\u05e1\u05dc, DE 19720-6308", "locale": "iw"}, {"street1": null, "street2": null, "fullAddress": "2117 N Dupont Hwy, New Castle, DE 19720-6308", "locale": "en_IN"}, {"street1": null, "street2": null, "fullAddress": "2117 N Dupont Hwy, New Castle, DE 19720-6308", "locale": "de"}, {"street1": null, "street2": null, "fullAddress": "2117 N Dupont Hwy, New Castle, DE", "locale": "zh"}, {"street1": null, "street2": null, "fullAddress": "2117 N Dupont Hwy, Newcastle, DE 19720-6308", "locale": "es_PE"}, {"street1": null, "street2": null, "fullAddress": "2117 N Dupont Hwy, New Castle, DE 19720-6308", "locale": "en_PH"}], "parents": [{"placeType": "CITY", "locationId": 34042, "name": "New Castle"}, {"placeType": "STATE", "locationId": 28929, "name": "Delaware"}, {"placeType": "COUNTRY", "locationId": 191, "name": "Hoa K\u1ef3"}, {"placeType": "CONTINENT", "locationId": 19, "name": "B\u0103\u0301c My\u0303"}, {"placeType": null, "locationId": 1, "name": "Th\u00ea\u0301 gi\u01a1\u0301i"}], "thumbnail": {"title": null, "photoSizes": [{"height": 0, "isHorizontal": true, "width": 0, "url": "https://dynamic-media-cdn.tripadvisor.com/media/photo-o/29/4d/ee/5a/lobby.jpg?w=100&h=100&s=1"}, {"height": 50, "isHorizontal": true, "width": 50, "url": "https://media-cdn.tripadvisor.com/media/photo-t/29/4d/ee/5a/lobby.jpg"}, {"height": 150, "isHorizontal": true, "width": 150, "url": "https://media-cdn.tripadvisor.com/media/photo-l/29/4d/ee/5a/lobby.jpg"}, {"height": 200, "isHorizontal": false, "width": 180, "url": "https://media-cdn.tripadvisor.com/media/photo-i/29/4d/ee/5a/lobby.jpg"}, {"height": 167, "isHorizontal": true, "width": 250, "url": "https://media-cdn.tripadvisor.com/media/photo-f/29/4d/ee/5a/lobby.jpg"}, {"height": 367, "isHorizontal": true, "width": 550, "url": "https://media-cdn.tripadvisor.com/media/photo-s/29/4d/ee/5a/lobby.jpg"}, {"height": 683, "isHorizontal": true, "width": 1024, "url": "https://media-cdn.tripadvisor.com/media/photo-w/29/4d/ee/5a/lobby.jpg"}, {"height": 853, "isHorizontal": true, "width": 1280, "url": "https://media-cdn.tripadvisor.com/media/photo-m/1280/29/4d/ee/5a/lobby.jpg"}]}}]}}]