[{"data": {"restaurantStyles": [], "restaurantTypes": [], "restaurantMealTypes": [], "restaurantDiningOptions": [], "restaurantPrice": [], "restaurantCuisines": [], "accommodationType": [], "locations": [{"accommodationType": "T_HOTEL", "countryId": 191, "hoursOfOperation": {"dailyTimeIntervals": [{"day": "MONDAY", "timeIntervals": [{"openingTime": {"hours": 0, "minutes": 0}, "closingTime": {"hours": 0, "minutes": 0}}]}, {"day": "TUESDAY", "timeIntervals": [{"openingTime": {"hours": 0, "minutes": 0}, "closingTime": {"hours": 0, "minutes": 0}}]}, {"day": "WEDNESDAY", "timeIntervals": [{"openingTime": {"hours": 0, "minutes": 0}, "closingTime": {"hours": 0, "minutes": 0}}]}, {"day": "THURSDAY", "timeIntervals": [{"openingTime": {"hours": 0, "minutes": 0}, "closingTime": {"hours": 0, "minutes": 0}}]}, {"day": "FRIDAY", "timeIntervals": [{"openingTime": {"hours": 0, "minutes": 0}, "closingTime": {"hours": 0, "minutes": 0}}]}, {"day": "SATURDAY", "timeIntervals": [{"openingTime": {"hours": 0, "minutes": 0}, "closingTime": {"hours": 0, "minutes": 0}}]}, {"day": "SUNDAY", "timeIntervals": [{"openingTime": {"hours": 0, "minutes": 0}, "closingTime": {"hours": 0, "minutes": 0}}]}]}, "isClosed": false, "isOwner": false, "latitude": 38.728012, "localizedDescriptions": [], "locationId": 7182461, "locationV2": {"attractionTypes": []}, "longitude": -75.12786, "parentId": 34048, "placeType": "ACCOMMODATION", "absoluteOwnerManagementUrl": "https://www.tripadvisor.com.vn/HotelsManagementCenter-d7182461-Fairfield_Inn_Suites_by_Marriott_Rehoboth_Beach?cat=0&geo=34048", "email": "rehfsbeach132@gmail.com", "geoName": "Ba\u0303i bi\u00ea\u0309n Rehoboth", "isoCountryCode": "US", "localizedName": "Fairfield Inn & Suites by Marriott Rehoboth Beach", "name": "Fairfield Inn & Suites by Marriott Rehoboth Beach", "locationDescription": "Fairfield Inn & Suites Rehoboth Beach l\u00e0 m\u1ed9t l\u1ef1a ch\u1ecdn tuy\u1ec7t v\u1eddi cho kh\u00e1ch du l\u1ecbch khi \u0111\u1ebfn th\u0103m Ba\u0303i bi\u00ea\u0309n Rehoboth, mang \u0111\u1ebfn nh\u1eefng ti\u1ec7n nghi h\u1eefu \u00edch cho su\u1ed1t th\u1eddi gian l\u01b0u tr\u00fa c\u1ee7a b\u1ea1n.\nC\u00e1c ph\u00f2ng t\u1ea1i Fairfield Inn & Suites Rehoboth Beach c\u00f3 tv m\u00e0n h\u00ecnh ph\u1eb3ng, \u0111i\u1ec1u h\u00f2a nhi\u1ec7t \u0111\u1ed9 v\u00e0 t\u1ee7 l\u1ea1nh \u0111\u01b0a l\u1ea1i s\u1ef1 tho\u1ea3i m\u00e1i v\u00e0 thu\u1eadn ti\u1ec7n tuy\u1ec7t v\u1eddi, v\u00e0 kh\u00e1ch c\u00f3 th\u1ec3 online v\u1edbi wifi mi\u1ec5n ph\u00ed.\nB\u1ec3 b\u01a1i v\u00e0 b\u1eefa s\u00e1ng s\u1ebd gi\u00fap chuy\u1ebfn \u0111i c\u1ee7a b\u1ea1n tr\u1edf n\u00ean \u0111\u1eb7c bi\u1ec7t h\u01a1n. N\u1ebfu b\u1ea1n l\u00e1i xe t\u1edbi Fairfield Inn & Suites Rehoboth Beach, \u0111\u1ed7 xe mi\u1ec5n ph\u00ed c\u0169ng c\u00f3 s\u1eb5n.\nN\u1ebfu mu\u1ed1n \u1edf g\u1ea7n nh\u1eefng \u0111\u1ecba danh y\u00eau th\u00edch nh\u01b0 Verrazzano Monument (4,3 km) v\u00e0 The Wizard's Whisk (4,4 km), du kh\u00e1ch t\u1ea1i Fairfield Inn & Suites Rehoboth Beach c\u00f3 th\u1ec3 d\u1ec5 d\u00e0ng \u0111\u1ebfn th\u0103m nh\u1eefng \u0111\u1ecba \u0111i\u1ec3m n\u1ed5i ti\u1ebfng nh\u1ea5t n\u00e0y c\u1ee7a Ba\u0303i bi\u00ea\u0309n Rehoboth.\nKhi \u0111\u1ebfn Ba\u0303i bi\u00ea\u0309n Rehoboth, b\u1ea1n c\u00f3 th\u1ec3 mu\u1ed1n th\u1eed t\u00f4m h\u00f9m t\u1ea1i m\u1ed9t trong nh\u1eefng nh\u00e0 h\u00e0ng l\u00e2n c\u1eadn nh\u01b0 Fins Fish House & Raw Bar, Victoria's Restaurant ho\u1eb7c Purple Parrot Grill.\nN\u1ebfu c\u00f2n th\u1eddi gian, Grove Park v\u00e0 Stockley Street Park l\u00e0 nh\u1eefng c\u00f4ng vi\u00ean y\u00eau th\u00edch kh\u00e1 d\u1ec5 \u0111i \u0111\u1ebfn.\nH\u00e3y t\u1eadn h\u01b0\u1edfng k\u1ef3 ngh\u1ec9 c\u1ee7a b\u1ea1n \u1edf Ba\u0303i bi\u00ea\u0309n Rehoboth!\n", "officialUrl": "https://www.marriott.com/en-us/hotels/rehfs-fairfield-inn-and-suites-rehoboth-beach/overview/?scid=45f93f1b-bd77-45c9-8dab-83b6a417f6fe&y_source=1_MTgzMDc1NC03NjktbG9jYXRpb24ud2Vic2l0ZQ%3D%3D", "postPhotosUrl": "/PostPhotos-d7182461", "telephone": "+1 302-645-7766", "url": "/Hotel_Review-g34048-d7182461-Reviews-Fairfield_Inn_Suites_by_Marriott_Rehoboth_Beach-Rehoboth_Beach_Delaware.html", "writeUserReviewUrl": "/UserReview-g34048-d7182461-Fairfield_Inn_Suites_by_Marriott_Rehoboth_Beach-Rehoboth_Beach_Delaware.html", "localizedStreetAddress": {"city": "Ba\u0303i bi\u00ea\u0309n Rehoboth", "country": "Hoa K\u1ef3", "fullAddress": "19113 Coastal Hwy, Ba\u0303i bi\u00ea\u0309n Rehoboth, DE 19971-6125", "postalCode": "19971-6125", "state": "Delaware", "street1": "19113 Coastal Hwy", "street2": ""}, "streetAddress": {"street1": "19113 Coastal Hwy", "street2": "", "state": "Delaware", "city": "Ba\u0303i bi\u00ea\u0309n Rehoboth", "postalCode": "19971-6125", "fullAddress": "19113 Coastal Hwy, Ba\u0303i bi\u00ea\u0309n Rehoboth, DE 19971-6125"}, "localizedNames": [{"locale": "zh_TW", "value": "\u91cc\u970d\u4f2f\u65af\u7058\u842c\u8c6a\u8cbb\u723e\u83f2\u723e\u5fb7\u5957\u623f\u98ef\u5e97"}, {"locale": "ko", "value": "\ud398\uc5b4\ud544\ub4dc \uc778 & \uc2a4\uc704\ud2b8 \ubc14\uc774 \uba54\ub9ac\uc5b4\ud2b8 \ub808\ud638\ubcf4\uc2a4 \ube44\uce58"}, {"locale": "ar", "value": "\u0641\u064a\u0631\u0641\u064a\u0644\u062f \u0625\u0646 \u0622\u0646\u062f \u0633\u0648\u064a\u062a\u0633 \u0628\u0627\u064a \u0645\u0627\u0631\u064a\u0648\u062a \u0631\u064a\u0647\u0648\u0628\u0648\u062b \u0628\u064a\u062a\u0634"}, {"locale": "ja", "value": "\u30d5\u30a7\u30a2\u30d5\u30a3\u30fc\u30eb\u30c9 \u30a4\u30f3 & \u30b9\u30a4\u30fc\u30c4 \u30d0\u30a4 \u30de\u30ea\u30aa\u30c3\u30c8 \u30ec\u30db\u30dc\u30c8 \u30d3\u30fc\u30c1"}], "localizedStreetAddresses": [{"street1": null, "street2": null, "fullAddress": "19113 Coastal Hwy, Rehoboth Beach, DE 19971-6125", "locale": "es_MX"}, {"street1": null, "street2": null, "fullAddress": "19113 Coastal Hwy, Rehoboth Beach, DE 19971-6125", "locale": "fr_BE"}, {"street1": null, "street2": null, "fullAddress": "19113 Coastal Hwy, Rehoboth Beach, DE 19971-6125", "locale": "es_VE"}, {"street1": null, "street2": null, "fullAddress": "19113 Coastal Hwy, \u745e\u548c\u67cf\u65af\u6d77\u7058, DE", "locale": "zh_HK"}, {"street1": null, "street2": null, "fullAddress": "19113 Coastal Hwy, \u745e\u548c\u67cf\u65af\u6d77\u7058, DE", "locale": "zh_TW"}, {"street1": null, "street2": null, "fullAddress": "19113 Coastal Hwy, Rehoboth Beach, DE 19971-6125", "locale": "it"}, {"street1": null, "street2": null, "fullAddress": "19113 Coastal Hwy, \ub974\ud638\ubcf4\uc2a4 \ube44\uce58, DE", "locale": "ko"}, {"street1": null, "street2": null, "fullAddress": "19113 Coastal Hwy, Rehoboth Beach, DE 19971-6125", "locale": "es_CL"}, {"street1": null, "street2": null, "fullAddress": "19113 Coastal Hwy, Rehoboth Beach, DE 19971-6125", "locale": "fi"}, {"street1": null, "street2": null, "fullAddress": "19113 Coastal Hwy, Rehoboth Beach, DE 19971-6125", "locale": "pt_PT"}, {"street1": null, "street2": null, "fullAddress": "19113 Coastal Hwy, Rehoboth Beach, DE 19971-6125", "locale": "en_US"}, {"street1": null, "street2": null, "fullAddress": "19113 Coastal Hwy, \u0e40\u0e23\u0e42\u0e2e\u0e42\u0e1a\u0e17\u0e1a\u0e35\u0e0a, DE 19971-6125", "locale": "th"}, {"street1": null, "street2": null, "fullAddress": "19113 Coastal Hwy, Rehoboth Beach, DE 19971-6125", "locale": "en_SG"}, {"street1": null, "street2": null, "fullAddress": "19113 Coastal Hwy, Rehoboth Beach, DE 19971-6125", "locale": "pt"}, {"street1": null, "street2": null, "fullAddress": "19113 Coastal Hwy, Rehoboth Beach, DE 19971-6125", "locale": "en_UK"}, {"street1": null, "street2": null, "fullAddress": "19113 Coastal Hwy, \u0634\u0627\u0637\u0626 \u0631\u064a\u0647\u0648\u0628\u0648\u062b, \u202bDelaware\u202c 19971-6125", "locale": "ar"}, {"street1": null, "street2": null, "fullAddress": "19113 Coastal Hwy, \u0420\u0435\u0445\u043e\u0431\u0443\u0442-\u0411\u0438\u0447, DE 19971-6125", "locale": "ru"}, {"street1": null, "street2": null, "fullAddress": "19113 Coastal Hwy, Rehoboth Beach, DE 19971-6125", "locale": "en_NZ"}, {"street1": null, "street2": null, "fullAddress": "19113 Coastal Hwy, Rehoboth Beach, DE 19971-6125", "locale": "de_CH"}, {"street1": null, "street2": null, "fullAddress": "19113 Coastal Hwy, Rehoboth Beach, DE 19971-6125", "locale": "sk"}, {"street1": null, "street2": null, "fullAddress": "19113 Coastal Hwy, Rehoboth Beach, DE 19971-6125", "locale": "en_ZA"}, {"street1": null, "street2": null, "fullAddress": "19113 Coastal Hwy, Rehoboth Beach, DE 19971-6125", "locale": "sv"}, {"street1": null, "street2": null, "fullAddress": "19113 Coastal Hwy, Rehoboth Beach, DE 19971-6125", "locale": "cs"}, {"street1": null, "street2": null, "fullAddress": "19113 Coastal Hwy, \u03a1\u03b5\u03c7\u03cc\u03bc\u03c0\u03bf\u03b8 \u039c\u03c0\u03b9\u03c4\u03c2, DE 19971-6125", "locale": "el"}, {"street1": null, "street2": null, "fullAddress": "19113 Coastal Hwy, Rehoboth Beach, DE 19971-6125", "locale": "de_AT"}, {"street1": null, "street2": null, "fullAddress": "19113 Coastal Hwy, Rehoboth Beach, DE 19971-6125", "locale": "nl"}, {"street1": null, "street2": null, "fullAddress": "19113 Coastal Hwy, Rehoboth Beach, DE 19971-6125", "locale": "fr_CH"}, {"street1": null, "street2": null, "fullAddress": "19113 Coastal Hwy, Rehoboth Beach, DE 19971-6125", "locale": "hu"}, {"street1": null, "street2": null, "fullAddress": "19113 Coastal Hwy, Rehoboth Beach, DE 19971-6125", "locale": "en_AU"}, {"street1": null, "street2": null, "fullAddress": "19113 Coastal Hwy, Pantai Rehoboth, DE 19971-6125", "locale": "in"}, {"street1": null, "street2": null, "fullAddress": "19113 Coastal Hwy, Ba\u0303i bi\u00ea\u0309n Rehoboth, DE 19971-6125", "locale": "vi"}, {"street1": null, "street2": null, "fullAddress": "19113 Coastal Hwy, Rehoboth Beach, DE 19971-6125", "locale": "fr_CA"}, {"street1": null, "street2": null, "fullAddress": "19113 Coastal Hwy, Rehoboth Beach, DE 19971-6125", "locale": "es_AR"}, {"street1": null, "street2": null, "fullAddress": "19113 Coastal Hwy, \u0634\u0627\u0637\u0626 \u0631\u064a\u0647\u0648\u0628\u0648\u062b, \u202bDelaware\u202c 19971-6125", "locale": "ar_EG"}, {"street1": null, "street2": null, "fullAddress": "19113 Coastal Hwy, Rehoboth Beach, DE 19971-6125", "locale": "en_MY"}, {"street1": null, "street2": null, "fullAddress": "19113 Coastal Hwy, Rehoboth Beach, DE 19971-6125", "locale": "sr"}, {"street1": null, "street2": null, "fullAddress": "19113 Coastal Hwy, Rehoboth Beach, DE 19971-6125", "locale": "it_CH"}, {"street1": null, "street2": null, "fullAddress": "19113 Coastal Hwy, Rehoboth Beach, DE 19971-6125", "locale": "da"}, {"street1": null, "street2": null, "fullAddress": "19113 Coastal Hwy, Rehoboth Beach, DE 19971-6125", "locale": "es"}, {"street1": null, "street2": null, "fullAddress": "19113 Coastal Hwy, Rehoboth Beach, DE 19971-6125", "locale": "tr"}, {"street1": null, "street2": null, "fullAddress": "19113 Coastal Hwy, Rehoboth Beach, DE 19971-6125", "locale": "en_HK"}, {"street1": null, "street2": null, "fullAddress": "19113 Coastal Hwy, Rehoboth Beach, DE 19971-6125", "locale": "en_IE"}, {"street1": null, "street2": null, "fullAddress": "19113 Coastal Hwy, Rehoboth Beach, DE 19971-6125", "locale": "en_CA"}, {"street1": null, "street2": null, "fullAddress": "19113 Coastal Hwy, Rehoboth Beach, DE 19971-6125", "locale": "no"}, {"street1": null, "street2": null, "fullAddress": "19113 Coastal Hwy, Rehoboth Beach, DE 19971-6125", "locale": "pl"}, {"street1": null, "street2": null, "fullAddress": "19113 Coastal Hwy, Rehoboth Beach, DE 19971-6125", "locale": "nl_BE"}, {"street1": null, "street2": null, "fullAddress": "19113 Coastal Hwy, \u91cc\u970d\u535a\u65af\u6bd4\u5947, DE", "locale": "zh_CN"}, {"street1": null, "street2": null, "fullAddress": "19113 Coastal Hwy, Rehoboth Beach, DE 19971-6125", "locale": "es_CO"}, {"street1": null, "street2": null, "fullAddress": "19113 Coastal Hwy, Rehoboth Beach, DE 19971-6125", "locale": "fr"}, {"street1": null, "street2": null, "fullAddress": "19113 Coastal Hwy, \u30ec\u30db\u30dc\u30c8 \u30d3\u30fc\u30c1, DE", "locale": "ja"}, {"street1": null, "street2": null, "fullAddress": "19113 Coastal Hwy, \u05e8\u05d0\u05d5\u05d1\u05d5\u05ea' \u05d1\u05d9\u05e5', DE 19971-6125", "locale": "iw"}, {"street1": null, "street2": null, "fullAddress": "19113 Coastal Hwy, Rehoboth Beach, DE 19971-6125", "locale": "en_IN"}, {"street1": null, "street2": null, "fullAddress": "19113 Coastal Hwy, Rehoboth Beach, DE 19971-6125", "locale": "de"}, {"street1": null, "street2": null, "fullAddress": "19113 Coastal Hwy, \u91cc\u970d\u535a\u65af\u6bd4\u5947, DE", "locale": "zh"}, {"street1": null, "street2": null, "fullAddress": "19113 Coastal Hwy, Rehoboth Beach, DE 19971-6125", "locale": "es_PE"}, {"street1": null, "street2": null, "fullAddress": "19113 Coastal Hwy, Rehoboth Beach, DE 19971-6125", "locale": "en_PH"}], "parents": [{"placeType": "CITY", "locationId": 34048, "name": "Ba\u0303i bi\u00ea\u0309n Rehoboth"}, {"placeType": "STATE", "locationId": 28929, "name": "Delaware"}, {"placeType": "COUNTRY", "locationId": 191, "name": "Hoa K\u1ef3"}, {"placeType": "CONTINENT", "locationId": 19, "name": "B\u0103\u0301c My\u0303"}, {"placeType": null, "locationId": 1, "name": "Th\u00ea\u0301 gi\u01a1\u0301i"}], "thumbnail": {"title": null, "photoSizes": [{"height": 0, "isHorizontal": true, "width": 0, "url": "https://dynamic-media-cdn.tripadvisor.com/media/photo-o/29/35/b3/88/lobby.jpg?w=100&h=100&s=1"}, {"height": 50, "isHorizontal": true, "width": 50, "url": "https://media-cdn.tripadvisor.com/media/photo-t/29/35/b3/88/lobby.jpg"}, {"height": 150, "isHorizontal": true, "width": 150, "url": "https://media-cdn.tripadvisor.com/media/photo-l/29/35/b3/88/lobby.jpg"}, {"height": 200, "isHorizontal": false, "width": 180, "url": "https://media-cdn.tripadvisor.com/media/photo-i/29/35/b3/88/lobby.jpg"}, {"height": 167, "isHorizontal": true, "width": 250, "url": "https://media-cdn.tripadvisor.com/media/photo-f/29/35/b3/88/lobby.jpg"}, {"height": 367, "isHorizontal": true, "width": 550, "url": "https://media-cdn.tripadvisor.com/media/photo-s/29/35/b3/88/lobby.jpg"}, {"height": 683, "isHorizontal": true, "width": 1024, "url": "https://media-cdn.tripadvisor.com/media/photo-w/29/35/b3/88/lobby.jpg"}, {"height": 853, "isHorizontal": true, "width": 1280, "url": "https://media-cdn.tripadvisor.com/media/photo-m/1280/29/35/b3/88/lobby.jpg"}]}}]}}]