[{"data": {"restaurantStyles": [], "restaurantTypes": [], "restaurantMealTypes": [], "restaurantDiningOptions": [], "restaurantPrice": [], "restaurantCuisines": [], "accommodationType": [], "locations": [{"accommodationType": "T_HOTEL", "countryId": 191, "hoursOfOperation": {"dailyTimeIntervals": [{"day": "MONDAY", "timeIntervals": [{"openingTime": {"hours": 0, "minutes": 0}, "closingTime": {"hours": 0, "minutes": 0}}]}, {"day": "TUESDAY", "timeIntervals": [{"openingTime": {"hours": 0, "minutes": 0}, "closingTime": {"hours": 0, "minutes": 0}}]}, {"day": "WEDNESDAY", "timeIntervals": [{"openingTime": {"hours": 0, "minutes": 0}, "closingTime": {"hours": 0, "minutes": 0}}]}, {"day": "THURSDAY", "timeIntervals": [{"openingTime": {"hours": 0, "minutes": 0}, "closingTime": {"hours": 0, "minutes": 0}}]}, {"day": "FRIDAY", "timeIntervals": [{"openingTime": {"hours": 0, "minutes": 0}, "closingTime": {"hours": 0, "minutes": 0}}]}, {"day": "SATURDAY", "timeIntervals": [{"openingTime": {"hours": 0, "minutes": 0}, "closingTime": {"hours": 0, "minutes": 0}}]}, {"day": "SUNDAY", "timeIntervals": [{"openingTime": {"hours": 0, "minutes": 0}, "closingTime": {"hours": 0, "minutes": 0}}]}]}, "isClosed": false, "isOwner": false, "latitude": 39.662296, "localizedDescriptions": [], "locationId": 7263059, "locationV2": {"attractionTypes": []}, "longitude": -75.66437, "parentId": 34043, "placeType": "ACCOMMODATION", "absoluteOwnerManagementUrl": "https://www.tripadvisor.com.vn/HotelsManagementCenter-d7263059-Four_Points_by_Sheraton_Newark_Christiana_Wilmington?cat=0&geo=34043", "email": null, "geoName": "Newark", "isoCountryCode": "US", "localizedName": "Four Points by Sheraton Newark Christiana Wilmington", "name": "Four Points by Sheraton Newark Christiana Wilmington", "locationDescription": "T\u00ecm ki\u1ebfm m\u1ed9t kha\u0301ch sa\u0323n l\u00fd t\u01b0\u1edfng \u1edf Newark kh\u00f4ng ph\u1ea3i l\u00e0 qu\u00e1 kh\u00f3. Ch\u00e0o \u0111\u00f3n b\u1ea1n \u0111\u1ebfn v\u1edbi Four Points by Sheraton Newark, m\u1ed9t l\u1ef1a ch\u1ecdn \u0111\u00fang \u0111\u1eafn cho nh\u1eefng du kh\u00e1ch nh\u01b0 b\u1ea1n.\nG\u1ea7n v\u1edbi m\u1ed9t s\u1ed1 \u0111\u1ecba danh n\u1ed5i ti\u1ebfng \u1edf Newark nh\u01b0 Huge Doctor's Bag With Stethescope (4,1 km) v\u00e0 Hale-Byrnes House (4,5 km), Four Points by Sheraton Newark l\u00e0 l\u1ef1a ch\u1ecdn l\u00fd t\u01b0\u1edfng c\u1ee7a kh\u00e1ch du l\u1ecbch.\nB\u1ea1n s\u1ebd t\u1eadn h\u01b0\u1edfng c\u0103n ph\u00f2ng v\u1edbi tv m\u00e0n h\u00ecnh ph\u1eb3ng, \u0111i\u1ec1u h\u00f2a nhi\u1ec7t \u0111\u1ed9 v\u00e0 t\u1ee7 l\u1ea1nh, v\u00e0 b\u1ea1n ch\u1eafc ch\u1eafn s\u1ebd \u0111\u01b0\u1ee3c k\u1ebft n\u1ed1i internet trong th\u1eddi gian n\u00e0y b\u1edfi Four Points by Sheraton Newark cung c\u1ea5p cho du kh\u00e1ch wifi mi\u1ec5n ph\u00ed.\nKha\u0301ch sa\u0323n c\u00f2n cung c\u1ea5p b\u00e0n l\u1ec5 t\u00e2n 24 gi\u1edd, d\u1ecbch v\u1ee5 ph\u00f2ng v\u00e0 nh\u1eadn ph\u00f2ng / tr\u1ea3 ph\u00f2ng nhanh. H\u01a1n n\u1eefa, Four Points by Sheraton Newark v\u1edbi trung t\u00e2m th\u1ec3 d\u1ee5c th\u1ea9m m\u1ef9 v\u00e0 b\u1eefa s\u00e1ng, mang l\u1ea1i nh\u1eefng gi\u00e2y ph\u00fat th\u01b0 gi\u00e3n tr\u1ed1n kh\u1ecfi m\u1ed9t ng\u00e0y b\u1eadn r\u1ed9n. V\u1edbi kh\u00e1ch c\u00f3 xe c\u1ed9 \u0111\u1ed7 xe mi\u1ec5n ph\u00ed c\u00f3 s\u1eb5n.\nTrong su\u1ed1t k\u1ef3 ngh\u1ec9, h\u00e3y ch\u1eafc ch\u1eafn th\u1eed m\u1ed9t trong nh\u1eefng nh\u00e0 h\u00e0ng n\u1ed5i ti\u1ebfng \u1edf Newark c\u00f3 cua nh\u01b0 Border Cafe, Firebirds Wood Fired Grill v\u00e0 Shellhammer's Restaurant, t\u1ea5t c\u1ea3 \u0111\u1ec1u n\u1eb1m kh\u00f4ng xa Four Points by Sheraton Newark.\nB\u1ea1n mu\u1ed1n kh\u00e1m ph\u00e1? V\u1eady h\u00e3y th\u1eed ngay Glasgow Park, Iron Hill Park v\u00e0 George Read Park, l\u00e0 trong s\u1ed1 nh\u1eefng \u0111i\u1ec3m y\u00eau th\u00edch \u1edf Newark c\u00f4ng vi\u00ean, n\u1eb1m trong v\u00f2ng \u0111i b\u1ed9 r\u1ea5t thu\u1eadn ti\u1ec7n t\u1eeb kha\u0301ch sa\u0323n.\nFour Points by Sheraton Newark mong mu\u1ed1n \u0111\u01b0\u1ee3c ch\u00e0o \u0111\u00f3n b\u1ea1n trong chuy\u1ebfn \u0111i \u0111\u1ebfn Newark c\u1ee7a b\u1ea1n.\n", "officialUrl": "https://www.marriott.com/en-us/hotels/ilgfp-four-points-by-sheraton-newark-christiana-wilmington/overview/?scid=45f93f1b-bd77-45c9-8dab-83b6a417f6fe&y_source=1_MjEwMjY0MS03NjktbG9jYXRpb24ud2Vic2l0ZQ%3D%3D", "postPhotosUrl": "/PostPhotos-d7263059", "telephone": "+1 302-266-6600", "url": "/Hotel_Review-g34043-d7263059-Reviews-Four_Points_by_Sheraton_Newark_Christiana_Wilmington-Newark_Delaware.html", "writeUserReviewUrl": "/UserReview-g34043-d7263059-Four_Points_by_Sheraton_Newark_Christiana_Wilmington-Newark_Delaware.html", "localizedStreetAddress": {"city": "Newark", "country": "Hoa K\u1ef3", "fullAddress": "56 S Old Baltimore Pike, Newark, DE 19702-1596", "postalCode": "19702-1596", "state": "Delaware", "street1": "56 S Old Baltimore Pike", "street2": ""}, "streetAddress": {"street1": "56 S Old Baltimore Pike", "street2": "", "state": "Delaware", "city": "Newark", "postalCode": "19702-1596", "fullAddress": "56 S Old Baltimore Pike, Newark, DE 19702-1596"}, "localizedNames": [{"locale": "ko", "value": "\ud3ec \ud3ec\uc778\uce20 \ubc14\uc774 \uc250\ub77c\ud1a4 \ub274\uc5b4\ud06c"}, {"locale": "ar", "value": "\u0641\u0648\u0631 \u0628\u0648\u064a\u0646\u062a\u0633 \u0628\u0627\u064a \u0634\u064a\u0631\u0627\u062a\u0648\u0646 \u0646\u064a\u0648\u0627\u0631\u0643"}, {"locale": "ja", "value": "\u30d5\u30a9\u30fc \u30dd\u30a4\u30f3\u30c4 \u30d0\u30a4 \u30b7\u30a7\u30e9\u30c8\u30f3 \u30cb\u30e5\u30fc\u30a2\u30fc\u30af"}], "localizedStreetAddresses": [{"street1": null, "street2": null, "fullAddress": "56 S Old Baltimore Pike, Newark, DE 19702-1596", "locale": "es_MX"}, {"street1": null, "street2": null, "fullAddress": "56 S Old Baltimore Pike, Newark, DE 19702-1596", "locale": "fr_BE"}, {"street1": null, "street2": null, "fullAddress": "56 S Old Baltimore Pike, Newark, DE 19702-1596", "locale": "es_VE"}, {"street1": null, "street2": null, "fullAddress": "56 S Old Baltimore Pike, \u7d10\u74e6\u514b, DE", "locale": "zh_HK"}, {"street1": null, "street2": null, "fullAddress": "56 S Old Baltimore Pike, \u7d10\u74e6\u514b, DE", "locale": "zh_TW"}, {"street1": null, "street2": null, "fullAddress": "56 S Old Baltimore Pike, Newark, DE 19702-1596", "locale": "it"}, {"street1": null, "street2": null, "fullAddress": "56 S Old Baltimore Pike, \ub274\uc5b4\ud06c, DE", "locale": "ko"}, {"street1": null, "street2": null, "fullAddress": "56 S Old Baltimore Pike, Newark, DE 19702-1596", "locale": "es_CL"}, {"street1": null, "street2": null, "fullAddress": "56 S Old Baltimore Pike, Newark, DE 19702-1596", "locale": "fi"}, {"street1": null, "street2": null, "fullAddress": "56 S Old Baltimore Pike, Newark, DE 19702-1596", "locale": "pt_PT"}, {"street1": null, "street2": null, "fullAddress": "56 S Old Baltimore Pike, Newark, DE 19702-1596", "locale": "en_US"}, {"street1": null, "street2": null, "fullAddress": "56 S Old Baltimore Pike, \u0e19\u0e27\u0e23\u0e4c\u0e01, DE 19702-1596", "locale": "th"}, {"street1": null, "street2": null, "fullAddress": "56 S Old Baltimore Pike, Newark, DE 19702-1596", "locale": "en_SG"}, {"street1": null, "street2": null, "fullAddress": "56 S Old Baltimore Pike, Newark, DE 19702-1596", "locale": "pt"}, {"street1": null, "street2": null, "fullAddress": "56 S Old Baltimore Pike, Newark, DE 19702-1596", "locale": "en_UK"}, {"street1": null, "street2": null, "fullAddress": "56 S Old Baltimore Pike, \u202bNewark\u202c, \u202bDelaware\u202c 19702-1596", "locale": "ar"}, {"street1": null, "street2": null, "fullAddress": "56 S Old Baltimore Pike, \u041d\u044c\u044e\u0430\u0440\u043a, DE 19702-1596", "locale": "ru"}, {"street1": null, "street2": null, "fullAddress": "56 S Old Baltimore Pike, Newark, DE 19702-1596", "locale": "en_NZ"}, {"street1": null, "street2": null, "fullAddress": "56 S Old Baltimore Pike, Newark, DE 19702-1596", "locale": "de_CH"}, {"street1": null, "street2": null, "fullAddress": "56 S Old Baltimore Pike, Newark, DE 19702-1596", "locale": "sk"}, {"street1": null, "street2": null, "fullAddress": "56 S Old Baltimore Pike, Newark, DE 19702-1596", "locale": "en_ZA"}, {"street1": null, "street2": null, "fullAddress": "56 S Old Baltimore Pike, Newark, DE 19702-1596", "locale": "sv"}, {"street1": null, "street2": null, "fullAddress": "56 S Old Baltimore Pike, Newark, DE 19702-1596", "locale": "cs"}, {"street1": null, "street2": null, "fullAddress": "56 S Old Baltimore Pike, \u039d\u03b9\u03bf\u03cd\u03b1\u03c1\u03ba, DE 19702-1596", "locale": "el"}, {"street1": null, "street2": null, "fullAddress": "56 S Old Baltimore Pike, Newark, DE 19702-1596", "locale": "de_AT"}, {"street1": null, "street2": null, "fullAddress": "56 S Old Baltimore Pike, Newark, DE 19702-1596", "locale": "nl"}, {"street1": null, "street2": null, "fullAddress": "56 S Old Baltimore Pike, Newark, DE 19702-1596", "locale": "fr_CH"}, {"street1": null, "street2": null, "fullAddress": "56 S Old Baltimore Pike, Newark, DE 19702-1596", "locale": "hu"}, {"street1": null, "street2": null, "fullAddress": "56 S Old Baltimore Pike, Newark, DE 19702-1596", "locale": "en_AU"}, {"street1": null, "street2": null, "fullAddress": "56 S Old Baltimore Pike, Newark, DE 19702-1596", "locale": "in"}, {"street1": null, "street2": null, "fullAddress": "56 S Old Baltimore Pike, Newark, DE 19702-1596", "locale": "vi"}, {"street1": null, "street2": null, "fullAddress": "56 S Old Baltimore Pike, Newark, DE 19702-1596", "locale": "fr_CA"}, {"street1": null, "street2": null, "fullAddress": "56 S Old Baltimore Pike, Newark, DE 19702-1596", "locale": "es_AR"}, {"street1": null, "street2": null, "fullAddress": "56 S Old Baltimore Pike, \u202bNewark\u202c, \u202bDelaware\u202c 19702-1596", "locale": "ar_EG"}, {"street1": null, "street2": null, "fullAddress": "56 S Old Baltimore Pike, Newark, DE 19702-1596", "locale": "en_MY"}, {"street1": null, "street2": null, "fullAddress": "56 S Old Baltimore Pike, Newark, DE 19702-1596", "locale": "sr"}, {"street1": null, "street2": null, "fullAddress": "56 S Old Baltimore Pike, Newark, DE 19702-1596", "locale": "it_CH"}, {"street1": null, "street2": null, "fullAddress": "56 S Old Baltimore Pike, Newark, DE 19702-1596", "locale": "da"}, {"street1": null, "street2": null, "fullAddress": "56 S Old Baltimore Pike, Newark, DE 19702-1596", "locale": "es"}, {"street1": null, "street2": null, "fullAddress": "56 S Old Baltimore Pike, Newark, DE 19702-1596", "locale": "tr"}, {"street1": null, "street2": null, "fullAddress": "56 S Old Baltimore Pike, Newark, DE 19702-1596", "locale": "en_HK"}, {"street1": null, "street2": null, "fullAddress": "56 S Old Baltimore Pike, Newark, DE 19702-1596", "locale": "en_IE"}, {"street1": null, "street2": null, "fullAddress": "56 S Old Baltimore Pike, Newark, DE 19702-1596", "locale": "en_CA"}, {"street1": null, "street2": null, "fullAddress": "56 S Old Baltimore Pike, Newark, DE 19702-1596", "locale": "nl_BE"}, {"street1": null, "street2": null, "fullAddress": "56 S Old Baltimore Pike, Newark, DE 19702-1596", "locale": "pl"}, {"street1": null, "street2": null, "fullAddress": "56 S Old Baltimore Pike, Newark, DE 19702-1596", "locale": "no"}, {"street1": null, "street2": null, "fullAddress": "56 S Old Baltimore Pike, \u7ebd\u74e6\u514b, DE", "locale": "zh_CN"}, {"street1": null, "street2": null, "fullAddress": "56 S Old Baltimore Pike, Newark, DE 19702-1596", "locale": "es_CO"}, {"street1": null, "street2": null, "fullAddress": "56 S Old Baltimore Pike, Newark, DE 19702-1596", "locale": "fr"}, {"street1": null, "street2": null, "fullAddress": "56 S Old Baltimore Pike, \u30cb\u30e5\u30fc\u30a2\u30fc\u30af, DE", "locale": "ja"}, {"street1": null, "street2": null, "fullAddress": "56 S Old Baltimore Pike, \u05e0\u05d9\u05d5\u05d0\u05e8\u05e7, DE 19702-1596", "locale": "iw"}, {"street1": null, "street2": null, "fullAddress": "56 S Old Baltimore Pike, Newark, DE 19702-1596", "locale": "en_IN"}, {"street1": null, "street2": null, "fullAddress": "56 S Old Baltimore Pike, Newark, DE 19702-1596", "locale": "de"}, {"street1": null, "street2": null, "fullAddress": "56 S Old Baltimore Pike, \u7ebd\u74e6\u514b, DE", "locale": "zh"}, {"street1": null, "street2": null, "fullAddress": "56 S Old Baltimore Pike, Newark, DE 19702-1596", "locale": "es_PE"}, {"street1": null, "street2": null, "fullAddress": "56 S Old Baltimore Pike, Newark, DE 19702-1596", "locale": "en_PH"}], "parents": [{"placeType": "CITY", "locationId": 34043, "name": "Newark"}, {"placeType": "STATE", "locationId": 28929, "name": "Delaware"}, {"placeType": "COUNTRY", "locationId": 191, "name": "Hoa K\u1ef3"}, {"placeType": "CONTINENT", "locationId": 19, "name": "B\u0103\u0301c My\u0303"}, {"placeType": null, "locationId": 1, "name": "Th\u00ea\u0301 gi\u01a1\u0301i"}], "thumbnail": {"title": null, "photoSizes": [{"height": 0, "isHorizontal": true, "width": 0, "url": "https://dynamic-media-cdn.tripadvisor.com/media/photo-o/29/4b/6b/67/exterior.jpg?w=100&h=100&s=1"}, {"height": 50, "isHorizontal": true, "width": 50, "url": "https://media-cdn.tripadvisor.com/media/photo-t/29/4b/6b/67/exterior.jpg"}, {"height": 150, "isHorizontal": true, "width": 150, "url": "https://media-cdn.tripadvisor.com/media/photo-l/29/4b/6b/67/exterior.jpg"}, {"height": 200, "isHorizontal": false, "width": 180, "url": "https://media-cdn.tripadvisor.com/media/photo-i/29/4b/6b/67/exterior.jpg"}, {"height": 167, "isHorizontal": true, "width": 250, "url": "https://media-cdn.tripadvisor.com/media/photo-f/29/4b/6b/67/exterior.jpg"}, {"height": 367, "isHorizontal": true, "width": 550, "url": "https://media-cdn.tripadvisor.com/media/photo-s/29/4b/6b/67/exterior.jpg"}, {"height": 683, "isHorizontal": true, "width": 1024, "url": "https://media-cdn.tripadvisor.com/media/photo-w/29/4b/6b/67/exterior.jpg"}, {"height": 853, "isHorizontal": true, "width": 1280, "url": "https://media-cdn.tripadvisor.com/media/photo-m/1280/29/4b/6b/67/exterior.jpg"}]}}]}}]