[{"data": {"accommodationType": [], "restaurantStyles": [{"tag": {"categoryId": 235, "tagId": 10613, "tagName": "Local cuisine", "tagNameLocalized": "Mo\u0301n \u0103n \u0111i\u0323a ph\u01b0\u01a1ng", "translationKey": "tags_category_tag_local_cuisine"}}, {"tag": {"categoryId": 235, "tagId": 10604, "tagName": "Families with children", "tagNameLocalized": "Gia \u0111i\u0300nh co\u0301 tre\u0309 em", "translationKey": "tags_category_tag_families_with_children"}}, {"tag": {"categoryId": 235, "tagId": 11777, "tagName": "Kids", "tagNameLocalized": "Tr\u1ebb em", "translationKey": "tags_category_tag_kids"}}], "restaurantTypes": [{"tag": {"categoryId": 230, "tagId": 10591, "tagName": "Restaurants", "tagNameLocalized": "Nha\u0300 ha\u0300ng", "translationKey": "tags_category_tag_restaurants"}}], "restaurantMealTypes": [{"tag": {"categoryId": 233, "tagId": 10598, "tagName": "Lunch", "tagNameLocalized": "B\u01b0\u0303a tr\u01b0a", "translationKey": "tags_category_tag_lunch"}}, {"tag": {"categoryId": 233, "tagId": 10597, "tagName": "Breakfast", "tagNameLocalized": "B\u1eefa s\u00e1ng", "translationKey": "tags_category_tag_breakfast"}}, {"tag": {"categoryId": 233, "tagId": 10599, "tagName": "Dinner", "tagNameLocalized": "B\u01b0\u0303a t\u00f4\u0301i", "translationKey": "tags_category_tag_dinner"}}], "restaurantDiningOptions": [{"tag": {"categoryId": 234, "tagId": 11780, "tagName": "Accepts Credit Cards", "tagNameLocalized": "Ch\u1ea5p nh\u1eadn th\u1ebb t\u00edn d\u1ee5ng", "translationKey": "tags_category_tag_accepts_credit_cards"}}, {"tag": {"categoryId": 234, "tagId": 10855, "tagName": "Street Parking", "tagNameLocalized": "B\u00e3i \u0111\u1ed7 xe \u0111\u01b0\u1eddng ph\u1ed1", "translationKey": "tags_category_tag_street_parking"}}, {"tag": {"categoryId": 234, "tagId": 10602, "tagName": "Reservations", "tagNameLocalized": "\u0110\u0103\u0323t ch\u00f4\u0303", "translationKey": "tags_category_tag_reservations"}}, {"tag": {"categoryId": 234, "tagId": 10866, "tagName": "Accepts Mastercard", "tagNameLocalized": "Ch\u1ea5p nh\u1eadn th\u1ebb Mastercard", "translationKey": "tags_category_tag_accepts_mastercard"}}, {"tag": {"categoryId": 234, "tagId": 10854, "tagName": "Parking Available", "tagNameLocalized": "C\u00f3 b\u00e3i \u0111\u1ed7 xe", "translationKey": "tags_category_tag_parking_available"}}, {"tag": {"categoryId": 234, "tagId": 10601, "tagName": "Takeout", "tagNameLocalized": "C\u01b0\u0309a ha\u0300ng ba\u0301n th\u01b0\u0301c \u0103n mang v\u00ea\u0300", "translationKey": "tags_category_tag_takeout"}}, {"tag": {"categoryId": 234, "tagId": 10865, "tagName": "Accepts American Express", "tagNameLocalized": "Ch\u1ea5p nh\u1eadn th\u1ebb American Express", "translationKey": "tags_category_tag_accepts_american_express"}}, {"tag": {"categoryId": 234, "tagId": 10867, "tagName": "Accepts Visa", "tagNameLocalized": "Ch\u1ea5p nh\u1eadn th\u1ebb Visa", "translationKey": "tags_category_tag_accepts_visa"}}, {"tag": {"categoryId": 234, "tagId": 10858, "tagName": "Free Off-Street Parking", "tagNameLocalized": "B\u00e3i \u0111\u1ed7 xe t\u1eadp trung mi\u1ec5n ph\u00ed", "translationKey": "tags_category_tag_free_off_street_parking"}}, {"tag": {"categoryId": 234, "tagId": 16547, "tagName": "Table Service", "tagNameLocalized": "D\u1ecbch v\u1ee5 b\u00e0n", "translationKey": "tags_category_tag_table_service"}}, {"tag": {"categoryId": 234, "tagId": 10871, "tagName": "Accepts Discover", "tagNameLocalized": "Ch\u1ea5p nh\u1eadn th\u1ebb Discover", "translationKey": "tags_category_tag_accepts_discover"}}, {"tag": {"categoryId": 234, "tagId": 10860, "tagName": "Highchairs Available", "tagNameLocalized": "C\u00f3 gh\u1ebf \u0103n cho b\u00e9", "translationKey": "tags_category_tag_highchairs_available"}}, {"tag": {"categoryId": 234, "tagId": 10870, "tagName": "Free Wifi", "tagNameLocalized": "Wifi mi\u1ec5n ph\u00ed", "translationKey": "tags_category_tag_free_wifi_restaurant_dining_options"}}, {"tag": {"categoryId": 234, "tagId": 10862, "tagName": "Serves Alcohol", "tagNameLocalized": "Ph\u1ee5c v\u1ee5 \u0111\u1ed3 u\u1ed1ng c\u00f3 c\u1ed3n", "translationKey": "tags_category_tag_serves_alcohol"}}, {"tag": {"categoryId": 234, "tagId": 10861, "tagName": "Wheelchair Accessible", "tagNameLocalized": "L\u1ed1i v\u00e0o ra cho xe l\u0103n", "translationKey": "tags_category_tag_wheelchair_accessible"}}, {"tag": {"categoryId": 234, "tagId": 10852, "tagName": "Seating", "tagNameLocalized": "Ch\u1ed7 ng\u1ed3i", "translationKey": "tags_category_tag_seating"}}], "restaurantPrice": [{"tag": {"categoryId": 240, "tagId": 10955, "tagName": "Mid Range", "tagNameLocalized": "H\u1ea1ng trung", "translationKey": "tags_category_tag_mid_range"}}], "restaurantCuisines": [{"tag": {"categoryId": 231, "tagId": 9908, "tagName": "American", "tagNameLocalized": "Ki\u1ec3u My\u0303", "translationKey": "tags_category_tag_american"}}], "locations": [{"accommodationType": "T_UNKNOWN", "countryId": 191, "hoursOfOperation": {"dailyTimeIntervals": [{"day": "MONDAY", "timeIntervals": [{"openingTime": {"hours": 8, "minutes": 0}, "closingTime": {"hours": 14, "minutes": 0}}]}, {"day": "TUESDAY", "timeIntervals": [{"openingTime": {"hours": 8, "minutes": 0}, "closingTime": {"hours": 14, "minutes": 0}}]}, {"day": "WEDNESDAY", "timeIntervals": [{"openingTime": {"hours": 8, "minutes": 0}, "closingTime": {"hours": 14, "minutes": 0}}]}, {"day": "THURSDAY", "timeIntervals": [{"openingTime": {"hours": 8, "minutes": 0}, "closingTime": {"hours": 14, "minutes": 0}}]}, {"day": "FRIDAY", "timeIntervals": [{"openingTime": {"hours": 8, "minutes": 0}, "closingTime": {"hours": 14, "minutes": 0}}]}, {"day": "SATURDAY", "timeIntervals": [{"openingTime": {"hours": 7, "minutes": 30}, "closingTime": {"hours": 14, "minutes": 30}}]}, {"day": "SUNDAY", "timeIntervals": [{"openingTime": {"hours": 7, "minutes": 30}, "closingTime": {"hours": 14, "minutes": 30}}]}]}, "isClosed": false, "isOwner": false, "latitude": 38.77305, "localizedDescriptions": [], "localizedNames": [], "locationId": 7598218, "locationV2": {"attractionTypes": []}, "longitude": -75.1403, "parentId": 34028, "placeType": "EATERY", "absoluteOwnerManagementUrl": "https://www.tripadvisor.com.vn/RSManagementCenter-d7598218-Honey_s_Farm_Fresh_Gourmet_Kitchen?cat=0&geo=34028", "email": "honeysfarmfresh@hotmail.com", "geoName": "Lewes", "isoCountryCode": "US", "localizedName": "Honey's Farm Fresh Gourmet Kitchen", "name": "Honey's Farm Fresh Gourmet Kitchen", "locationDescription": null, "officialUrl": "http://www.facebook.com/pages/Honeys-farm-fresh/1486874038225218", "postPhotosUrl": "/PostPhotos-d7598218", "telephone": "+1 302-644-8400", "url": "/Restaurant_Review-g34028-d7598218-Reviews-Honey_s_Farm_Fresh_Gourmet_Kitchen-Lewes_Delaware.html", "writeUserReviewUrl": "/UserReview-g34028-d7598218-Honey_s_Farm_Fresh_Gourmet_Kitchen-Lewes_Delaware.html", "localizedStreetAddress": {"city": "Lewes", "country": "Hoa K\u1ef3", "fullAddress": "329 Savannah Rd, Lewes, DE 19958-1438", "postalCode": "19958-1438", "state": "Delaware", "street1": "329 Savannah Rd", "street2": ""}, "streetAddress": {"street1": "329 Savannah Rd", "street2": "", "state": "Delaware", "city": "Lewes", "postalCode": "19958-1438", "fullAddress": "329 Savannah Rd, Lewes, DE 19958-1438"}, "localizedStreetAddresses": [{"street1": null, "street2": null, "fullAddress": "329 Savannah Rd, Lewes, DE 19958-1438", "locale": "fr_BE"}, {"street1": null, "street2": null, "fullAddress": "329 Savannah Rd, Lewes, DE 19958-1438", "locale": "es_MX"}, {"street1": null, "street2": null, "fullAddress": "329 Savannah Rd, Lewes, DE 19958-1438", "locale": "es_VE"}, {"street1": null, "street2": null, "fullAddress": "329 Savannah Rd, \u5289\u6613\u65af, DE", "locale": "zh_TW"}, {"street1": null, "street2": null, "fullAddress": "329 Savannah Rd, \u5289\u6613\u65af, DE", "locale": "zh_HK"}, {"street1": null, "street2": null, "fullAddress": "329 Savannah Rd, Lewes, DE 19958-1438", "locale": "it"}, {"street1": null, "street2": null, "fullAddress": "329 Savannah Rd, \ub8e8\uc774\uc2a4, DE", "locale": "ko"}, {"street1": null, "street2": null, "fullAddress": "329 Savannah Rd, Lewes, DE 19958-1438", "locale": "es_CL"}, {"street1": null, "street2": null, "fullAddress": "329 Savannah Rd, Lewes, DE 19958-1438", "locale": "fi"}, {"street1": null, "street2": null, "fullAddress": "329 Savannah Rd, Lewes, DE 19958-1438", "locale": "pt_PT"}, {"street1": null, "street2": null, "fullAddress": "329 Savannah Rd, Lewes, DE 19958-1438", "locale": "en_US"}, {"street1": null, "street2": null, "fullAddress": "329 Savannah Rd, \u0e25\u0e39\u0e2d\u0e34\u0e2a, DE 19958-1438", "locale": "th"}, {"street1": null, "street2": null, "fullAddress": "329 Savannah Rd, Lewes, DE 19958-1438", "locale": "en_SG"}, {"street1": null, "street2": null, "fullAddress": "329 Savannah Rd, Lewes, DE 19958-1438", "locale": "pt"}, {"street1": null, "street2": null, "fullAddress": "329 Savannah Rd, Lewes, DE 19958-1438", "locale": "en_UK"}, {"street1": null, "street2": null, "fullAddress": "329 Savannah Rd, \u202bLewes\u202c, \u202bDelaware\u202c 19958-1438", "locale": "ar"}, {"street1": null, "street2": null, "fullAddress": "329 Savannah Rd, Lewes, DE 19958-1438", "locale": "ru"}, {"street1": null, "street2": null, "fullAddress": "329 Savannah Rd, Lewes, DE 19958-1438", "locale": "en_NZ"}, {"street1": null, "street2": null, "fullAddress": "329 Savannah Rd, Lewes, DE 19958-1438", "locale": "de_CH"}, {"street1": null, "street2": null, "fullAddress": "329 Savannah Rd, Lewes, DE 19958-1438", "locale": "sk"}, {"street1": null, "street2": null, "fullAddress": "329 Savannah Rd, Lewes, DE 19958-1438", "locale": "en_ZA"}, {"street1": null, "street2": null, "fullAddress": "329 Savannah Rd, Lewes, DE 19958-1438", "locale": "sv"}, {"street1": null, "street2": null, "fullAddress": "329 Savannah Rd, Lewes, DE 19958-1438", "locale": "cs"}, {"street1": null, "street2": null, "fullAddress": "329 Savannah Rd, Lewes, DE 19958-1438", "locale": "el"}, {"street1": null, "street2": null, "fullAddress": "329 Savannah Rd, Lewes, DE 19958-1438", "locale": "de_AT"}, {"street1": null, "street2": null, "fullAddress": "329 Savannah Rd, Lewes, DE 19958-1438", "locale": "hu"}, {"street1": null, "street2": null, "fullAddress": "329 Savannah Rd, Lewes, DE 19958-1438", "locale": "fr_CH"}, {"street1": null, "street2": null, "fullAddress": "329 Savannah Rd, Lewes, DE 19958-1438", "locale": "nl"}, {"street1": null, "street2": null, "fullAddress": "329 Savannah Rd, Lewes, DE 19958-1438", "locale": "en_AU"}, {"street1": null, "street2": null, "fullAddress": "329 Savannah Rd, Lewes, DE 19958-1438", "locale": "in"}, {"street1": null, "street2": null, "fullAddress": "329 Savannah Rd, Lewes, DE 19958-1438", "locale": "vi"}, {"street1": null, "street2": null, "fullAddress": "329 Savannah Rd, Lewes, DE 19958-1438", "locale": "fr_CA"}, {"street1": null, "street2": null, "fullAddress": "329 Savannah Rd, Lewes, DE 19958-1438", "locale": "es_AR"}, {"street1": null, "street2": null, "fullAddress": "329 Savannah Rd, \u202bLewes\u202c, \u202bDelaware\u202c 19958-1438", "locale": "ar_EG"}, {"street1": null, "street2": null, "fullAddress": "329 Savannah Rd, Lewes, DE 19958-1438", "locale": "sr"}, {"street1": null, "street2": null, "fullAddress": "329 Savannah Rd, Lewes, DE 19958-1438", "locale": "en_MY"}, {"street1": null, "street2": null, "fullAddress": "329 Savannah Rd, Lewes, DE 19958-1438", "locale": "it_CH"}, {"street1": null, "street2": null, "fullAddress": "329 Savannah Rd, Lewes, DE 19958-1438", "locale": "da"}, {"street1": null, "street2": null, "fullAddress": "329 Savannah Rd, Lewes, DE 19958-1438", "locale": "es"}, {"street1": null, "street2": null, "fullAddress": "329 Savannah Rd, Lewes, DE 19958-1438", "locale": "tr"}, {"street1": null, "street2": null, "fullAddress": "329 Savannah Rd, Lewes, DE 19958-1438", "locale": "en_HK"}, {"street1": null, "street2": null, "fullAddress": "329 Savannah Rd, Lewes, DE 19958-1438", "locale": "en_IE"}, {"street1": null, "street2": null, "fullAddress": "329 Savannah Rd, Lewes, DE 19958-1438", "locale": "en_CA"}, {"street1": null, "street2": null, "fullAddress": "329 Savannah Rd, Lewes, DE 19958-1438", "locale": "nl_BE"}, {"street1": null, "street2": null, "fullAddress": "329 Savannah Rd, Lewes, DE 19958-1438", "locale": "no"}, {"street1": null, "street2": null, "fullAddress": "329 Savannah Rd, Lewes, DE 19958-1438", "locale": "pl"}, {"street1": null, "street2": null, "fullAddress": "329 Savannah Rd, \u5218\u6613\u65af, DE", "locale": "zh_CN"}, {"street1": null, "street2": null, "fullAddress": "329 Savannah Rd, Lewes, DE 19958-1438", "locale": "es_CO"}, {"street1": null, "street2": null, "fullAddress": "329 Savannah Rd, Lewes, DE 19958-1438", "locale": "fr"}, {"street1": null, "street2": null, "fullAddress": "329 Savannah Rd, \u30eb\u30a4\u30b9, DE", "locale": "ja"}, {"street1": null, "street2": null, "fullAddress": "329 Savannah Rd, \u05dc\u05d5\u05d0\u05e1, DE 19958-1438", "locale": "iw"}, {"street1": null, "street2": null, "fullAddress": "329 Savannah Rd, Lewes, DE 19958-1438", "locale": "en_IN"}, {"street1": null, "street2": null, "fullAddress": "329 Savannah Rd, Lewes, DE 19958-1438", "locale": "de"}, {"street1": null, "street2": null, "fullAddress": "329 Savannah Rd, \u5218\u6613\u65af, DE", "locale": "zh"}, {"street1": null, "street2": null, "fullAddress": "329 Savannah Rd, Lewes, DE 19958-1438", "locale": "es_PE"}, {"street1": null, "street2": null, "fullAddress": "329 Savannah Rd, Lewes, DE 19958-1438", "locale": "en_PH"}], "parents": [{"placeType": "CITY", "locationId": 34028, "name": "Lewes"}, {"placeType": "STATE", "locationId": 28929, "name": "Delaware"}, {"placeType": "COUNTRY", "locationId": 191, "name": "Hoa K\u1ef3"}, {"placeType": "CONTINENT", "locationId": 19, "name": "B\u0103\u0301c My\u0303"}, {"placeType": null, "locationId": 1, "name": "Th\u00ea\u0301 gi\u01a1\u0301i"}], "thumbnail": {"title": null, "photoSizes": [{"height": 0, "isHorizontal": true, "width": 0, "url": "https://dynamic-media-cdn.tripadvisor.com/media/photo-o/15/90/88/a4/20181130-112550-largejpg.jpg?w=100&h=100&s=1"}, {"height": 50, "isHorizontal": true, "width": 50, "url": "https://media-cdn.tripadvisor.com/media/photo-t/15/90/88/a4/20181130-112550-largejpg.jpg"}, {"height": 150, "isHorizontal": true, "width": 150, "url": "https://media-cdn.tripadvisor.com/media/photo-l/15/90/88/a4/20181130-112550-largejpg.jpg"}, {"height": 200, "isHorizontal": false, "width": 180, "url": "https://media-cdn.tripadvisor.com/media/photo-i/15/90/88/a4/20181130-112550-largejpg.jpg"}, {"height": 188, "isHorizontal": true, "width": 250, "url": "https://media-cdn.tripadvisor.com/media/photo-f/15/90/88/a4/20181130-112550-largejpg.jpg"}, {"height": 412, "isHorizontal": true, "width": 550, "url": "https://media-cdn.tripadvisor.com/media/photo-s/15/90/88/a4/20181130-112550-largejpg.jpg"}, {"height": 756, "isHorizontal": true, "width": 1008, "url": "https://media-cdn.tripadvisor.com/media/photo-o/15/90/88/a4/20181130-112550-largejpg.jpg"}]}}]}}]