[{"data": {"restaurantStyles": [], "restaurantTypes": [], "restaurantMealTypes": [], "restaurantDiningOptions": [], "restaurantPrice": [], "restaurantCuisines": [], "accommodationType": [], "locations": [{"accommodationType": "T_UNKNOWN", "countryId": 191, "hoursOfOperation": {"dailyTimeIntervals": [{"day": "MONDAY", "timeIntervals": []}, {"day": "TUESDAY", "timeIntervals": []}, {"day": "WEDNESDAY", "timeIntervals": [{"openingTime": {"hours": 18, "minutes": 0}, "closingTime": {"hours": 20, "minutes": 30}}]}, {"day": "THURSDAY", "timeIntervals": []}, {"day": "FRIDAY", "timeIntervals": [{"openingTime": {"hours": 19, "minutes": 0}, "closingTime": {"hours": 23, "minutes": 0}}]}, {"day": "SATURDAY", "timeIntervals": [{"openingTime": {"hours": 13, "minutes": 0}, "closingTime": {"hours": 16, "minutes": 0}}, {"openingTime": {"hours": 19, "minutes": 0}, "closingTime": {"hours": 23, "minutes": 0}}]}, {"day": "SUNDAY", "timeIntervals": [{"openingTime": {"hours": 14, "minutes": 0}, "closingTime": {"hours": 17, "minutes": 0}}]}]}, "isClosed": false, "isOwner": false, "latitude": 38.5941, "localizedDescriptions": [], "localizedNames": [], "locationId": 7645794, "locationV2": {"attractionTypes": [{"id": 110}]}, "longitude": -75.5887, "parentId": 34027, "placeType": "ATTRACTION", "thumbnail": null, "absoluteOwnerManagementUrl": "https://www.tripadvisor.com.vn/ManagementCenter-g34027-d7645794-c0-Skateworld-Laurel_Delaware", "email": "slatcher601@comcast.net", "geoName": "Laurel", "isoCountryCode": "US", "localizedName": "Skateworld", "name": "Skateworld", "locationDescription": null, "officialUrl": "http://www.facebook.com/pages/Skateworld-Inc/166136804429", "postPhotosUrl": "/PostPhotos-d7645794", "telephone": "+1 302-875-2121", "url": "/Attraction_Review-g34027-d7645794-Reviews-Skateworld-Laurel_Delaware.html", "writeUserReviewUrl": "/UserReview-g34027-d7645794-Skateworld-Laurel_Delaware.html", "localizedStreetAddress": {"city": "Laurel", "country": "Hoa K\u1ef3", "fullAddress": "28393 Seaford Rd, Laurel, DE 19956-3713", "postalCode": "19956-3713", "state": "Delaware", "street1": "28393 Seaford Rd", "street2": ""}, "streetAddress": {"street1": "28393 Seaford Rd", "street2": "", "state": "Delaware", "city": "Laurel", "postalCode": "19956-3713", "fullAddress": "28393 Seaford Rd, Laurel, DE 19956-3713"}, "localizedStreetAddresses": [{"street1": null, "street2": null, "fullAddress": "28393 Seaford Rd, Laurel, DE 19956-3713", "locale": "es_MX"}, {"street1": null, "street2": null, "fullAddress": "28393 Seaford Rd, Laurel, DE 19956-3713", "locale": "fr_BE"}, {"street1": null, "street2": null, "fullAddress": "28393 Seaford Rd, Laurel, DE 19956-3713", "locale": "es_VE"}, {"street1": null, "street2": null, "fullAddress": "28393 Seaford Rd, Laurel, DE", "locale": "zh_HK"}, {"street1": null, "street2": null, "fullAddress": "28393 Seaford Rd, Laurel, DE", "locale": "zh_TW"}, {"street1": null, "street2": null, "fullAddress": "28393 Seaford Rd, Laurel, DE 19956-3713", "locale": "it"}, {"street1": null, "street2": null, "fullAddress": "28393 Seaford Rd, \ub85c\ub810, DE", "locale": "ko"}, {"street1": null, "street2": null, "fullAddress": "28393 Seaford Rd, Laurel, DE 19956-3713", "locale": "es_CL"}, {"street1": null, "street2": null, "fullAddress": "28393 Seaford Rd, Laurel, DE 19956-3713", "locale": "fi"}, {"street1": null, "street2": null, "fullAddress": "28393 Seaford Rd, Laurel, DE 19956-3713", "locale": "pt_PT"}, {"street1": null, "street2": null, "fullAddress": "28393 Seaford Rd, Laurel, DE 19956-3713", "locale": "en_US"}, {"street1": null, "street2": null, "fullAddress": "28393 Seaford Rd, Laurel, DE 19956-3713", "locale": "th"}, {"street1": null, "street2": null, "fullAddress": "28393 Seaford Rd, Laurel, DE 19956-3713", "locale": "en_SG"}, {"street1": null, "street2": null, "fullAddress": "28393 Seaford Rd, Laurel, DE 19956-3713", "locale": "pt"}, {"street1": null, "street2": null, "fullAddress": "28393 Seaford Rd, Laurel, DE 19956-3713", "locale": "en_UK"}, {"street1": null, "street2": null, "fullAddress": "28393 Seaford Rd, \u202bLaurel\u202c, \u202bDelaware\u202c 19956-3713", "locale": "ar"}, {"street1": null, "street2": null, "fullAddress": "28393 Seaford Rd, Laurel, DE 19956-3713", "locale": "ru"}, {"street1": null, "street2": null, "fullAddress": "28393 Seaford Rd, Laurel, DE 19956-3713", "locale": "en_NZ"}, {"street1": null, "street2": null, "fullAddress": "28393 Seaford Rd, Laurel, DE 19956-3713", "locale": "de_CH"}, {"street1": null, "street2": null, "fullAddress": "28393 Seaford Rd, Laurel, DE 19956-3713", "locale": "sk"}, {"street1": null, "street2": null, "fullAddress": "28393 Seaford Rd, Laurel, DE 19956-3713", "locale": "en_ZA"}, {"street1": null, "street2": null, "fullAddress": "28393 Seaford Rd, Laurel, DE 19956-3713", "locale": "sv"}, {"street1": null, "street2": null, "fullAddress": "28393 Seaford Rd, Laurel, DE 19956-3713", "locale": "cs"}, {"street1": null, "street2": null, "fullAddress": "28393 Seaford Rd, Laurel, DE 19956-3713", "locale": "el"}, {"street1": null, "street2": null, "fullAddress": "28393 Seaford Rd, Laurel, DE 19956-3713", "locale": "de_AT"}, {"street1": null, "street2": null, "fullAddress": "28393 Seaford Rd, Laurel, DE 19956-3713", "locale": "fr_CH"}, {"street1": null, "street2": null, "fullAddress": "28393 Seaford Rd, Laurel, DE 19956-3713", "locale": "nl"}, {"street1": null, "street2": null, "fullAddress": "28393 Seaford Rd, Laurel, DE 19956-3713", "locale": "hu"}, {"street1": null, "street2": null, "fullAddress": "28393 Seaford Rd, Laurel, DE 19956-3713", "locale": "en_AU"}, {"street1": null, "street2": null, "fullAddress": "28393 Seaford Rd, Laurel, DE 19956-3713", "locale": "in"}, {"street1": null, "street2": null, "fullAddress": "28393 Seaford Rd, Laurel, DE 19956-3713", "locale": "vi"}, {"street1": null, "street2": null, "fullAddress": "28393 Seaford Rd, Laurel, DE 19956-3713", "locale": "fr_CA"}, {"street1": null, "street2": null, "fullAddress": "28393 Seaford Rd, Laurel, DE 19956-3713", "locale": "es_AR"}, {"street1": null, "street2": null, "fullAddress": "28393 Seaford Rd, \u202bLaurel\u202c, \u202bDelaware\u202c 19956-3713", "locale": "ar_EG"}, {"street1": null, "street2": null, "fullAddress": "28393 Seaford Rd, Laurel, DE 19956-3713", "locale": "en_MY"}, {"street1": null, "street2": null, "fullAddress": "28393 Seaford Rd, Laurel, DE 19956-3713", "locale": "sr"}, {"street1": null, "street2": null, "fullAddress": "28393 Seaford Rd, Laurel, DE 19956-3713", "locale": "it_CH"}, {"street1": null, "street2": null, "fullAddress": "28393 Seaford Rd, Laurel, DE 19956-3713", "locale": "da"}, {"street1": null, "street2": null, "fullAddress": "28393 Seaford Rd, Laurel, DE 19956-3713", "locale": "es"}, {"street1": null, "street2": null, "fullAddress": "28393 Seaford Rd, Laurel, DE 19956-3713", "locale": "tr"}, {"street1": null, "street2": null, "fullAddress": "28393 Seaford Rd, Laurel, DE 19956-3713", "locale": "en_HK"}, {"street1": null, "street2": null, "fullAddress": "28393 Seaford Rd, Laurel, DE 19956-3713", "locale": "en_IE"}, {"street1": null, "street2": null, "fullAddress": "28393 Seaford Rd, Laurel, DE 19956-3713", "locale": "en_CA"}, {"street1": null, "street2": null, "fullAddress": "28393 Seaford Rd, Laurel, DE 19956-3713", "locale": "pl"}, {"street1": null, "street2": null, "fullAddress": "28393 Seaford Rd, Laurel, DE 19956-3713", "locale": "nl_BE"}, {"street1": null, "street2": null, "fullAddress": "28393 Seaford Rd, Laurel, DE 19956-3713", "locale": "no"}, {"street1": null, "street2": null, "fullAddress": "28393 Seaford Rd, Laurel, DE", "locale": "zh_CN"}, {"street1": null, "street2": null, "fullAddress": "28393 Seaford Rd, Laurel, DE 19956-3713", "locale": "es_CO"}, {"street1": null, "street2": null, "fullAddress": "28393 Seaford Rd, Laurel, DE 19956-3713", "locale": "fr"}, {"street1": null, "street2": null, "fullAddress": "28393 Seaford Rd, \u30ed\u30fc\u30ec\u30eb, DE", "locale": "ja"}, {"street1": null, "street2": null, "fullAddress": "28393 Seaford Rd, \u202bLaurel\u202c, DE 19956-3713", "locale": "iw"}, {"street1": null, "street2": null, "fullAddress": "28393 Seaford Rd, Laurel, DE 19956-3713", "locale": "de"}, {"street1": null, "street2": null, "fullAddress": "28393 Seaford Rd, Laurel, DE 19956-3713", "locale": "en_IN"}, {"street1": null, "street2": null, "fullAddress": "28393 Seaford Rd, Laurel, DE", "locale": "zh"}, {"street1": null, "street2": null, "fullAddress": "28393 Seaford Rd, Laurel, DE 19956-3713", "locale": "es_PE"}, {"street1": null, "street2": null, "fullAddress": "28393 Seaford Rd, Laurel, DE 19956-3713", "locale": "en_PH"}], "parents": [{"placeType": "CITY", "locationId": 34027, "name": "Laurel"}, {"placeType": "STATE", "locationId": 28929, "name": "Delaware"}, {"placeType": "COUNTRY", "locationId": 191, "name": "Hoa K\u1ef3"}, {"placeType": "CONTINENT", "locationId": 19, "name": "B\u0103\u0301c My\u0303"}, {"placeType": null, "locationId": 1, "name": "Th\u00ea\u0301 gi\u01a1\u0301i"}]}]}}]