[{"data": {"accommodationType": [], "restaurantStyles": [{"tag": {"categoryId": 235, "tagId": 10604, "tagName": "Families with children", "tagNameLocalized": "Gia \u0111i\u0300nh co\u0301 tre\u0309 em", "translationKey": "tags_category_tag_families_with_children"}}, {"tag": {"categoryId": 235, "tagId": 11777, "tagName": "Kids", "tagNameLocalized": "Tr\u1ebb em", "translationKey": "tags_category_tag_kids"}}], "restaurantTypes": [{"tag": {"categoryId": 230, "tagId": 10591, "tagName": "Restaurants", "tagNameLocalized": "Nha\u0300 ha\u0300ng", "translationKey": "tags_category_tag_restaurants"}}], "restaurantMealTypes": [{"tag": {"categoryId": 233, "tagId": 10598, "tagName": "Lunch", "tagNameLocalized": "B\u01b0\u0303a tr\u01b0a", "translationKey": "tags_category_tag_lunch"}}, {"tag": {"categoryId": 233, "tagId": 10599, "tagName": "Dinner", "tagNameLocalized": "B\u01b0\u0303a t\u00f4\u0301i", "translationKey": "tags_category_tag_dinner"}}], "restaurantDiningOptions": [{"tag": {"categoryId": 234, "tagId": 11780, "tagName": "Accepts Credit Cards", "tagNameLocalized": "Ch\u1ea5p nh\u1eadn th\u1ebb t\u00edn d\u1ee5ng", "translationKey": "tags_category_tag_accepts_credit_cards"}}, {"tag": {"categoryId": 234, "tagId": 10866, "tagName": "Accepts Mastercard", "tagNameLocalized": "Ch\u1ea5p nh\u1eadn th\u1ebb Mastercard", "translationKey": "tags_category_tag_accepts_mastercard"}}, {"tag": {"categoryId": 234, "tagId": 10854, "tagName": "Parking Available", "tagNameLocalized": "C\u00f3 b\u00e3i \u0111\u1ed7 xe", "translationKey": "tags_category_tag_parking_available"}}, {"tag": {"categoryId": 234, "tagId": 10601, "tagName": "Takeout", "tagNameLocalized": "C\u01b0\u0309a ha\u0300ng ba\u0301n th\u01b0\u0301c \u0103n mang v\u00ea\u0300", "translationKey": "tags_category_tag_takeout"}}, {"tag": {"categoryId": 234, "tagId": 10865, "tagName": "Accepts American Express", "tagNameLocalized": "Ch\u1ea5p nh\u1eadn th\u1ebb American Express", "translationKey": "tags_category_tag_accepts_american_express"}}, {"tag": {"categoryId": 234, "tagId": 10868, "tagName": "Digital Payments", "tagNameLocalized": "Thanh to\u00e1n \u0111i\u1ec7n t\u1eed", "translationKey": "tags_category_tag_digital_payments"}}, {"tag": {"categoryId": 234, "tagId": 10603, "tagName": "Outdoor Seating", "tagNameLocalized": "Ng\u00f4\u0300i ngoa\u0300i tr\u01a1\u0300i", "translationKey": "tags_category_tag_outdoor_seating"}}, {"tag": {"categoryId": 234, "tagId": 10867, "tagName": "Accepts Visa", "tagNameLocalized": "Ch\u1ea5p nh\u1eadn th\u1ebb Visa", "translationKey": "tags_category_tag_accepts_visa"}}, {"tag": {"categoryId": 234, "tagId": 10858, "tagName": "Free Off-Street Parking", "tagNameLocalized": "B\u00e3i \u0111\u1ed7 xe t\u1eadp trung mi\u1ec5n ph\u00ed", "translationKey": "tags_category_tag_free_off_street_parking"}}, {"tag": {"categoryId": 234, "tagId": 10871, "tagName": "Accepts Discover", "tagNameLocalized": "Ch\u1ea5p nh\u1eadn th\u1ebb Discover", "translationKey": "tags_category_tag_accepts_discover"}}, {"tag": {"categoryId": 234, "tagId": 10861, "tagName": "Wheelchair Accessible", "tagNameLocalized": "L\u1ed1i v\u00e0o ra cho xe l\u0103n", "translationKey": "tags_category_tag_wheelchair_accessible"}}, {"tag": {"categoryId": 234, "tagId": 10600, "tagName": "Delivery", "tagNameLocalized": "Giao ha\u0300ng", "translationKey": "tags_category_tag_delivery"}}, {"tag": {"categoryId": 234, "tagId": 10852, "tagName": "Seating", "tagNameLocalized": "Ch\u1ed7 ng\u1ed3i", "translationKey": "tags_category_tag_seating"}}], "restaurantPrice": [{"tag": {"categoryId": 240, "tagId": 10955, "tagName": "Mid Range", "tagNameLocalized": "H\u1ea1ng trung", "translationKey": "tags_category_tag_mid_range"}}], "restaurantCuisines": [{"tag": {"categoryId": 231, "tagId": 10679, "tagName": "Healthy", "tagNameLocalized": "T\u00f4\u0301t cho s\u01b0\u0301c kho\u0309e", "translationKey": "tags_category_tag_healthy"}}], "locations": [{"accommodationType": "T_UNKNOWN", "countryId": 191, "hoursOfOperation": {"dailyTimeIntervals": [{"day": "MONDAY", "timeIntervals": [{"openingTime": {"hours": 11, "minutes": 0}, "closingTime": {"hours": 19, "minutes": 0}}]}, {"day": "TUESDAY", "timeIntervals": [{"openingTime": {"hours": 11, "minutes": 0}, "closingTime": {"hours": 19, "minutes": 0}}]}, {"day": "WEDNESDAY", "timeIntervals": [{"openingTime": {"hours": 11, "minutes": 0}, "closingTime": {"hours": 19, "minutes": 0}}]}, {"day": "THURSDAY", "timeIntervals": [{"openingTime": {"hours": 11, "minutes": 0}, "closingTime": {"hours": 19, "minutes": 0}}]}, {"day": "FRIDAY", "timeIntervals": [{"openingTime": {"hours": 11, "minutes": 0}, "closingTime": {"hours": 19, "minutes": 0}}]}, {"day": "SATURDAY", "timeIntervals": [{"openingTime": {"hours": 11, "minutes": 0}, "closingTime": {"hours": 19, "minutes": 0}}]}, {"day": "SUNDAY", "timeIntervals": [{"openingTime": {"hours": 11, "minutes": 0}, "closingTime": {"hours": 17, "minutes": 0}}]}]}, "isClosed": false, "isOwner": false, "latitude": 39.729424, "localizedDescriptions": [], "localizedNames": [], "locationId": 7930802, "locationV2": {"attractionTypes": []}, "longitude": -75.56168, "parentId": 34059, "placeType": "EATERY", "absoluteOwnerManagementUrl": "https://www.tripadvisor.com.vn/RSManagementCenter-d7930802-Drop_Squad_Kitchen?cat=0&geo=34059", "email": "unapologeticallyhealthy@gmail.com", "geoName": "Wilmington", "isoCountryCode": "US", "localizedName": "Drop Squad Kitchen", "name": "Drop Squad Kitchen", "locationDescription": null, "officialUrl": "http://www.dropsquadkitchen.com", "postPhotosUrl": "/PostPhotos-d7930802", "telephone": "+1 302-984-2773", "url": "/Restaurant_Review-g34059-d7930802-Reviews-Drop_Squad_Kitchen-Wilmington_Delaware.html", "writeUserReviewUrl": "/UserReview-g34059-d7930802-Drop_Squad_Kitchen-Wilmington_Delaware.html", "localizedStreetAddress": {"city": "Wilmington", "country": "Hoa K\u1ef3", "fullAddress": "928 Justison St, Wilmington, DE 19801-5150", "postalCode": "19801-5150", "state": "Delaware", "street1": "928 Justison St", "street2": ""}, "streetAddress": {"street1": "928 Justison St", "street2": "", "state": "Delaware", "city": "Wilmington", "postalCode": "19801-5150", "fullAddress": "928 Justison St, Wilmington, DE 19801-5150"}, "localizedStreetAddresses": [{"street1": null, "street2": null, "fullAddress": "928 Justison St, Wilmington, DE 19801-5150", "locale": "es_MX"}, {"street1": null, "street2": null, "fullAddress": "928 Justison St, Wilmington, DE 19801-5150", "locale": "fr_BE"}, {"street1": null, "street2": null, "fullAddress": "928 Justison St, Wilmington, DE 19801-5150", "locale": "es_VE"}, {"street1": null, "street2": null, "fullAddress": "928 Justison St, \u5a01\u723e\u660e\u9813, DE", "locale": "zh_HK"}, {"street1": null, "street2": null, "fullAddress": "928 Justison St, \u5a01\u723e\u660e\u9813, DE", "locale": "zh_TW"}, {"street1": null, "street2": null, "fullAddress": "928 Justison St, Wilmington, DE 19801-5150", "locale": "it"}, {"street1": null, "street2": null, "fullAddress": "928 Justison St, \uc70c\ubc0d\ud134, DE", "locale": "ko"}, {"street1": null, "street2": null, "fullAddress": "928 Justison St, Wilmington, DE 19801-5150", "locale": "es_CL"}, {"street1": null, "street2": null, "fullAddress": "928 Justison St, Wilmington, DE 19801-5150", "locale": "fi"}, {"street1": null, "street2": null, "fullAddress": "928 Justison St, Wilmington, DE 19801-5150", "locale": "pt_PT"}, {"street1": null, "street2": null, "fullAddress": "928 Justison St, Wilmington, DE 19801-5150", "locale": "en_US"}, {"street1": null, "street2": null, "fullAddress": "928 Justison St, \u0e27\u0e34\u0e25\u0e21\u0e34\u0e07\u0e15\u0e31\u0e19, DE 19801-5150", "locale": "th"}, {"street1": null, "street2": null, "fullAddress": "928 Justison St, Wilmington, DE 19801-5150", "locale": "en_SG"}, {"street1": null, "street2": null, "fullAddress": "928 Justison St, Wilmington, DE 19801-5150", "locale": "en_UK"}, {"street1": null, "street2": null, "fullAddress": "928 Justison St, Wilmington, DE 19801-5150", "locale": "pt"}, {"street1": null, "street2": null, "fullAddress": "928 Justison St, \u202bWilmington\u202c, \u202bDelaware\u202c 19801-5150", "locale": "ar"}, {"street1": null, "street2": null, "fullAddress": "928 Justison St, \u0423\u0438\u043b\u043c\u0438\u043d\u0433\u0442\u043e\u043d, DE 19801-5150", "locale": "ru"}, {"street1": null, "street2": null, "fullAddress": "928 Justison St, Wilmington, DE 19801-5150", "locale": "en_NZ"}, {"street1": null, "street2": null, "fullAddress": "928 Justison St, Wilmington, DE 19801-5150", "locale": "de_CH"}, {"street1": null, "street2": null, "fullAddress": "928 Justison St, Wilmington, DE 19801-5150", "locale": "sk"}, {"street1": null, "street2": null, "fullAddress": "928 Justison St, Wilmington, DE 19801-5150", "locale": "en_ZA"}, {"street1": null, "street2": null, "fullAddress": "928 Justison St, Wilmington, DE 19801-5150", "locale": "sv"}, {"street1": null, "street2": null, "fullAddress": "928 Justison St, Wilmington, DE 19801-5150", "locale": "cs"}, {"street1": null, "street2": null, "fullAddress": "928 Justison St, \u0393\u03bf\u03c5\u03af\u03bb\u03bc\u03b9\u03bd\u03b3\u03ba\u03c4\u03bf\u03bd, DE 19801-5150", "locale": "el"}, {"street1": null, "street2": null, "fullAddress": "928 Justison St, Wilmington, DE 19801-5150", "locale": "de_AT"}, {"street1": null, "street2": null, "fullAddress": "928 Justison St, Wilmington, DE 19801-5150", "locale": "fr_CH"}, {"street1": null, "street2": null, "fullAddress": "928 Justison St, Wilmington, DE 19801-5150", "locale": "nl"}, {"street1": null, "street2": null, "fullAddress": "928 Justison St, Wilmington, DE 19801-5150", "locale": "hu"}, {"street1": null, "street2": null, "fullAddress": "928 Justison St, Wilmington, DE 19801-5150", "locale": "en_AU"}, {"street1": null, "street2": null, "fullAddress": "928 Justison St, Wilmington, DE 19801-5150", "locale": "in"}, {"street1": null, "street2": null, "fullAddress": "928 Justison St, Wilmington, DE 19801-5150", "locale": "vi"}, {"street1": null, "street2": null, "fullAddress": "928 Justison St, Wilmington, DE 19801-5150", "locale": "fr_CA"}, {"street1": null, "street2": null, "fullAddress": "928 Justison St, Wilmington, DE 19801-5150", "locale": "es_AR"}, {"street1": null, "street2": null, "fullAddress": "928 Justison St, \u202bWilmington\u202c, \u202bDelaware\u202c 19801-5150", "locale": "ar_EG"}, {"street1": null, "street2": null, "fullAddress": "928 Justison St, Wilmington, DE 19801-5150", "locale": "en_MY"}, {"street1": null, "street2": null, "fullAddress": "928 Justison St, Wilmington, DE 19801-5150", "locale": "sr"}, {"street1": null, "street2": null, "fullAddress": "928 Justison St, Wilmington, DE 19801-5150", "locale": "it_CH"}, {"street1": null, "street2": null, "fullAddress": "928 Justison St, Wilmington, DE 19801-5150", "locale": "da"}, {"street1": null, "street2": null, "fullAddress": "928 Justison St, Wilmington, DE 19801-5150", "locale": "es"}, {"street1": null, "street2": null, "fullAddress": "928 Justison St, Wilmington, DE 19801-5150", "locale": "tr"}, {"street1": null, "street2": null, "fullAddress": "928 Justison St, Wilmington, DE 19801-5150", "locale": "en_HK"}, {"street1": null, "street2": null, "fullAddress": "928 Justison St, Wilmington, DE 19801-5150", "locale": "en_IE"}, {"street1": null, "street2": null, "fullAddress": "928 Justison St, Wilmington, DE 19801-5150", "locale": "en_CA"}, {"street1": null, "street2": null, "fullAddress": "928 Justison St, Wilmington, DE 19801-5150", "locale": "nl_BE"}, {"street1": null, "street2": null, "fullAddress": "928 Justison St, Wilmington, DE 19801-5150", "locale": "no"}, {"street1": null, "street2": null, "fullAddress": "928 Justison St, Wilmington, DE 19801-5150", "locale": "pl"}, {"street1": null, "street2": null, "fullAddress": "928 Justison St, \u5a01\u5c14\u660e\u987f, DE", "locale": "zh_CN"}, {"street1": null, "street2": null, "fullAddress": "928 Justison St, Wilmington, DE 19801-5150", "locale": "es_CO"}, {"street1": null, "street2": null, "fullAddress": "928 Justison St, Wilmington, DE 19801-5150", "locale": "fr"}, {"street1": null, "street2": null, "fullAddress": "928 Justison St, \u30a6\u30a3\u30eb\u30df\u30f3\u30c8\u30f3, DE", "locale": "ja"}, {"street1": null, "street2": null, "fullAddress": "928 Justison St, \u05d5\u05d5\u05d9\u05dc\u05de\u05d9\u05e0\u05d2\u05d8\u05d5\u05df, DE 19801-5150", "locale": "iw"}, {"street1": null, "street2": null, "fullAddress": "928 Justison St, Wilmington, DE 19801-5150", "locale": "en_IN"}, {"street1": null, "street2": null, "fullAddress": "928 Justison St, Wilmington, DE 19801-5150", "locale": "de"}, {"street1": null, "street2": null, "fullAddress": "928 Justison St, \u5a01\u5c14\u660e\u987f, DE", "locale": "zh"}, {"street1": null, "street2": null, "fullAddress": "928 Justison St, Wilmington, DE 19801-5150", "locale": "es_PE"}, {"street1": null, "street2": null, "fullAddress": "928 Justison St, Wilmington, DE 19801-5150", "locale": "en_PH"}], "parents": [{"placeType": "CITY", "locationId": 34059, "name": "Wilmington"}, {"placeType": "STATE", "locationId": 28929, "name": "Delaware"}, {"placeType": "COUNTRY", "locationId": 191, "name": "Hoa K\u1ef3"}, {"placeType": "CONTINENT", "locationId": 19, "name": "B\u0103\u0301c My\u0303"}, {"placeType": null, "locationId": 1, "name": "Th\u00ea\u0301 gi\u01a1\u0301i"}], "thumbnail": {"title": "Amexem Burger", "photoSizes": [{"height": 0, "isHorizontal": true, "width": 0, "url": "https://dynamic-media-cdn.tripadvisor.com/media/photo-o/09/4e/35/33/drop-squad-kitchen.jpg?w=100&h=100&s=1"}, {"height": 50, "isHorizontal": true, "width": 50, "url": "https://media-cdn.tripadvisor.com/media/photo-t/09/4e/35/33/drop-squad-kitchen.jpg"}, {"height": 150, "isHorizontal": true, "width": 150, "url": "https://media-cdn.tripadvisor.com/media/photo-l/09/4e/35/33/drop-squad-kitchen.jpg"}, {"height": 167, "isHorizontal": true, "width": 250, "url": "https://media-cdn.tripadvisor.com/media/photo-f/09/4e/35/33/drop-squad-kitchen.jpg"}, {"height": 366, "isHorizontal": true, "width": 550, "url": "https://media-cdn.tripadvisor.com/media/photo-s/09/4e/35/33/drop-squad-kitchen.jpg"}, {"height": 683, "isHorizontal": true, "width": 1024, "url": "https://media-cdn.tripadvisor.com/media/photo-o/09/4e/35/33/drop-squad-kitchen.jpg"}, {"height": 683, "isHorizontal": true, "width": 1024, "url": "https://media-cdn.tripadvisor.com/media/photo-w/09/4e/35/33/drop-squad-kitchen.jpg"}]}}]}}]