[{"data": {"restaurantStyles": [], "restaurantTypes": [], "restaurantMealTypes": [], "restaurantDiningOptions": [], "restaurantPrice": [], "restaurantCuisines": [], "accommodationType": [], "locations": [{"accommodationType": "T_UNKNOWN", "countryId": 191, "hoursOfOperation": {"dailyTimeIntervals": [{"day": "MONDAY", "timeIntervals": [{"openingTime": {"hours": 11, "minutes": 0}, "closingTime": {"hours": 21, "minutes": 0}}]}, {"day": "TUESDAY", "timeIntervals": [{"openingTime": {"hours": 11, "minutes": 0}, "closingTime": {"hours": 21, "minutes": 0}}]}, {"day": "WEDNESDAY", "timeIntervals": [{"openingTime": {"hours": 11, "minutes": 0}, "closingTime": {"hours": 21, "minutes": 0}}]}, {"day": "THURSDAY", "timeIntervals": [{"openingTime": {"hours": 11, "minutes": 0}, "closingTime": {"hours": 21, "minutes": 0}}]}, {"day": "FRIDAY", "timeIntervals": [{"openingTime": {"hours": 11, "minutes": 0}, "closingTime": {"hours": 23, "minutes": 0}}]}, {"day": "SATURDAY", "timeIntervals": [{"openingTime": {"hours": 11, "minutes": 0}, "closingTime": {"hours": 23, "minutes": 0}}]}, {"day": "SUNDAY", "timeIntervals": [{"openingTime": {"hours": 11, "minutes": 0}, "closingTime": {"hours": 20, "minutes": 0}}]}]}, "isClosed": false, "isOwner": false, "latitude": 39.684654, "localizedDescriptions": [], "localizedNames": [], "locationId": 8526219, "locationV2": {"attractionTypes": [{"id": 208}]}, "longitude": -75.74147, "parentId": 34043, "placeType": "ATTRACTION", "absoluteOwnerManagementUrl": "https://www.tripadvisor.com.vn/ManagementCenter-g34043-d8526219-c0-Axxiom_Escape_Rooms-Newark_Delaware", "email": "exodusescaperooms@gmail.com", "geoName": "Newark", "isoCountryCode": "US", "localizedName": "Axxiom Escape Rooms", "name": "Axxiom Escape Rooms", "locationDescription": null, "officialUrl": "http://Www.axxiomescaperooms.com", "postPhotosUrl": "/PostPhotos-d8526219", "telephone": "+1 302-366-8250", "url": "/Attraction_Review-g34043-d8526219-Reviews-Axxiom_Escape_Rooms-Newark_Delaware.html", "writeUserReviewUrl": "/UserReview-g34043-d8526219-Axxiom_Escape_Rooms-Newark_Delaware.html", "localizedStreetAddress": {"city": "Newark", "country": "Hoa K\u1ef3", "fullAddress": "280 E Main St Unit 132, Newark, DE 19711-7311", "postalCode": "19711-7311", "state": "Delaware", "street1": "280 E Main St", "street2": "Unit 132"}, "streetAddress": {"street1": "280 E Main St", "street2": "Unit 132", "state": "Delaware", "city": "Newark", "postalCode": "19711-7311", "fullAddress": "280 E Main St Unit 132, Newark, DE 19711-7311"}, "localizedStreetAddresses": [{"street1": null, "street2": null, "fullAddress": "280 E Main St Unit 132, Newark, DE 19711-7311", "locale": "es_MX"}, {"street1": null, "street2": null, "fullAddress": "280 E Main St Unit 132, Newark, DE 19711-7311", "locale": "fr_BE"}, {"street1": null, "street2": null, "fullAddress": "280 E Main St Unit 132, Newark, DE 19711-7311", "locale": "es_VE"}, {"street1": null, "street2": null, "fullAddress": "280 E Main St Unit 132, \u7d10\u74e6\u514b, DE", "locale": "zh_HK"}, {"street1": null, "street2": null, "fullAddress": "280 E Main St Unit 132, \u7d10\u74e6\u514b, DE", "locale": "zh_TW"}, {"street1": null, "street2": null, "fullAddress": "280 E Main St Unit 132, Newark, DE 19711-7311", "locale": "it"}, {"street1": null, "street2": null, "fullAddress": "280 E Main St Unit 132, \ub274\uc5b4\ud06c, DE", "locale": "ko"}, {"street1": null, "street2": null, "fullAddress": "280 E Main St Unit 132, Newark, DE 19711-7311", "locale": "es_CL"}, {"street1": null, "street2": null, "fullAddress": "280 E Main St Unit 132, Newark, DE 19711-7311", "locale": "fi"}, {"street1": null, "street2": null, "fullAddress": "280 E Main St Unit 132, Newark, DE 19711-7311", "locale": "pt_PT"}, {"street1": null, "street2": null, "fullAddress": "280 E Main St Unit 132, Newark, DE 19711-7311", "locale": "en_US"}, {"street1": null, "street2": null, "fullAddress": "280 E Main St Unit 132, \u0e19\u0e27\u0e23\u0e4c\u0e01, DE 19711-7311", "locale": "th"}, {"street1": null, "street2": null, "fullAddress": "280 E Main St Unit 132, Newark, DE 19711-7311", "locale": "en_SG"}, {"street1": null, "street2": null, "fullAddress": "280 E Main St Unit 132, Newark, DE 19711-7311", "locale": "pt"}, {"street1": null, "street2": null, "fullAddress": "280 E Main St Unit 132, Newark, DE 19711-7311", "locale": "en_UK"}, {"street1": null, "street2": null, "fullAddress": "280 E Main St Unit 132, \u202bNewark\u202c, \u202bDelaware\u202c 19711-7311", "locale": "ar"}, {"street1": null, "street2": null, "fullAddress": "280 E Main St Unit 132, \u041d\u044c\u044e\u0430\u0440\u043a, DE 19711-7311", "locale": "ru"}, {"street1": null, "street2": null, "fullAddress": "280 E Main St Unit 132, Newark, DE 19711-7311", "locale": "en_NZ"}, {"street1": null, "street2": null, "fullAddress": "280 E Main St Unit 132, Newark, DE 19711-7311", "locale": "de_CH"}, {"street1": null, "street2": null, "fullAddress": "280 E Main St Unit 132, Newark, DE 19711-7311", "locale": "sk"}, {"street1": null, "street2": null, "fullAddress": "280 E Main St Unit 132, Newark, DE 19711-7311", "locale": "en_ZA"}, {"street1": null, "street2": null, "fullAddress": "280 E Main St Unit 132, Newark, DE 19711-7311", "locale": "sv"}, {"street1": null, "street2": null, "fullAddress": "280 E Main St Unit 132, Newark, DE 19711-7311", "locale": "cs"}, {"street1": null, "street2": null, "fullAddress": "280 E Main St Unit 132, \u039d\u03b9\u03bf\u03cd\u03b1\u03c1\u03ba, DE 19711-7311", "locale": "el"}, {"street1": null, "street2": null, "fullAddress": "280 E Main St Unit 132, Newark, DE 19711-7311", "locale": "de_AT"}, {"street1": null, "street2": null, "fullAddress": "280 E Main St Unit 132, Newark, DE 19711-7311", "locale": "nl"}, {"street1": null, "street2": null, "fullAddress": "280 E Main St Unit 132, Newark, DE 19711-7311", "locale": "fr_CH"}, {"street1": null, "street2": null, "fullAddress": "280 E Main St Unit 132, Newark, DE 19711-7311", "locale": "hu"}, {"street1": null, "street2": null, "fullAddress": "280 E Main St Unit 132, Newark, DE 19711-7311", "locale": "en_AU"}, {"street1": null, "street2": null, "fullAddress": "280 E Main St Unit 132, Newark, DE 19711-7311", "locale": "in"}, {"street1": null, "street2": null, "fullAddress": "280 E Main St Unit 132, Newark, DE 19711-7311", "locale": "vi"}, {"street1": null, "street2": null, "fullAddress": "280 E Main St Unit 132, Newark, DE 19711-7311", "locale": "fr_CA"}, {"street1": null, "street2": null, "fullAddress": "280 E Main St Unit 132, Newark, DE 19711-7311", "locale": "es_AR"}, {"street1": null, "street2": null, "fullAddress": "280 E Main St Unit 132, \u202bNewark\u202c, \u202bDelaware\u202c 19711-7311", "locale": "ar_EG"}, {"street1": null, "street2": null, "fullAddress": "280 E Main St Unit 132, Newark, DE 19711-7311", "locale": "en_MY"}, {"street1": null, "street2": null, "fullAddress": "280 E Main St Unit 132, Newark, DE 19711-7311", "locale": "sr"}, {"street1": null, "street2": null, "fullAddress": "280 E Main St Unit 132, Newark, DE 19711-7311", "locale": "it_CH"}, {"street1": null, "street2": null, "fullAddress": "280 E Main St Unit 132, Newark, DE 19711-7311", "locale": "da"}, {"street1": null, "street2": null, "fullAddress": "280 E Main St Unit 132, Newark, DE 19711-7311", "locale": "es"}, {"street1": null, "street2": null, "fullAddress": "280 E Main St Unit 132, Newark, DE 19711-7311", "locale": "tr"}, {"street1": null, "street2": null, "fullAddress": "280 E Main St Unit 132, Newark, DE 19711-7311", "locale": "en_HK"}, {"street1": null, "street2": null, "fullAddress": "280 E Main St Unit 132, Newark, DE 19711-7311", "locale": "en_IE"}, {"street1": null, "street2": null, "fullAddress": "280 E Main St Unit 132, Newark, DE 19711-7311", "locale": "en_CA"}, {"street1": null, "street2": null, "fullAddress": "280 E Main St Unit 132, Newark, DE 19711-7311", "locale": "no"}, {"street1": null, "street2": null, "fullAddress": "280 E Main St Unit 132, Newark, DE 19711-7311", "locale": "pl"}, {"street1": null, "street2": null, "fullAddress": "280 E Main St Unit 132, Newark, DE 19711-7311", "locale": "nl_BE"}, {"street1": null, "street2": null, "fullAddress": "280 E Main St Unit 132, \u7ebd\u74e6\u514b, DE", "locale": "zh_CN"}, {"street1": null, "street2": null, "fullAddress": "280 E Main St Unit 132, Newark, DE 19711-7311", "locale": "es_CO"}, {"street1": null, "street2": null, "fullAddress": "280 E Main St Unit 132, Newark, DE 19711-7311", "locale": "fr"}, {"street1": null, "street2": null, "fullAddress": "280 E Main St Unit 132, \u30cb\u30e5\u30fc\u30a2\u30fc\u30af, DE", "locale": "ja"}, {"street1": null, "street2": null, "fullAddress": "280 E Main St Unit 132, \u05e0\u05d9\u05d5\u05d0\u05e8\u05e7, DE 19711-7311", "locale": "iw"}, {"street1": null, "street2": null, "fullAddress": "280 E Main St Unit 132, Newark, DE 19711-7311", "locale": "en_IN"}, {"street1": null, "street2": null, "fullAddress": "280 E Main St Unit 132, Newark, DE 19711-7311", "locale": "de"}, {"street1": null, "street2": null, "fullAddress": "280 E Main St Unit 132, \u7ebd\u74e6\u514b, DE", "locale": "zh"}, {"street1": null, "street2": null, "fullAddress": "280 E Main St Unit 132, Newark, DE 19711-7311", "locale": "es_PE"}, {"street1": null, "street2": null, "fullAddress": "280 E Main St Unit 132, Newark, DE 19711-7311", "locale": "en_PH"}], "parents": [{"placeType": "CITY", "locationId": 34043, "name": "Newark"}, {"placeType": "STATE", "locationId": 28929, "name": "Delaware"}, {"placeType": "COUNTRY", "locationId": 191, "name": "Hoa K\u1ef3"}, {"placeType": "CONTINENT", "locationId": 19, "name": "B\u0103\u0301c My\u0303"}, {"placeType": null, "locationId": 1, "name": "Th\u00ea\u0301 gi\u01a1\u0301i"}], "thumbnail": {"title": "Exodus", "photoSizes": [{"height": 0, "isHorizontal": true, "width": 0, "url": "https://dynamic-media-cdn.tripadvisor.com/media/photo-o/09/2d/bd/43/exodus-escape-rooms.jpg?w=100&h=100&s=1"}, {"height": 50, "isHorizontal": true, "width": 50, "url": "https://media-cdn.tripadvisor.com/media/photo-t/09/2d/bd/43/exodus-escape-rooms.jpg"}, {"height": 150, "isHorizontal": true, "width": 150, "url": "https://media-cdn.tripadvisor.com/media/photo-l/09/2d/bd/43/exodus-escape-rooms.jpg"}, {"height": 183, "isHorizontal": true, "width": 250, "url": "https://media-cdn.tripadvisor.com/media/photo-f/09/2d/bd/43/exodus-escape-rooms.jpg"}, {"height": 342, "isHorizontal": true, "width": 466, "url": "https://media-cdn.tripadvisor.com/media/photo-o/09/2d/bd/43/exodus-escape-rooms.jpg"}, {"height": 403, "isHorizontal": true, "width": 550, "url": "https://media-cdn.tripadvisor.com/media/photo-s/09/2d/bd/43/exodus-escape-rooms.jpg"}]}}]}}]