[{"data": {"accommodationType": [], "restaurantStyles": [{"tag": {"categoryId": 235, "tagId": 10604, "tagName": "Families with children", "tagNameLocalized": "Gia \u0111i\u0300nh co\u0301 tre\u0309 em", "translationKey": "tags_category_tag_families_with_children"}}], "restaurantTypes": [{"tag": {"categoryId": 230, "tagId": 10591, "tagName": "Restaurants", "tagNameLocalized": "Nha\u0300 ha\u0300ng", "translationKey": "tags_category_tag_restaurants"}}], "restaurantMealTypes": [{"tag": {"categoryId": 233, "tagId": 10598, "tagName": "Lunch", "tagNameLocalized": "B\u01b0\u0303a tr\u01b0a", "translationKey": "tags_category_tag_lunch"}}, {"tag": {"categoryId": 233, "tagId": 10597, "tagName": "Breakfast", "tagNameLocalized": "B\u1eefa s\u00e1ng", "translationKey": "tags_category_tag_breakfast"}}, {"tag": {"categoryId": 233, "tagId": 10599, "tagName": "Dinner", "tagNameLocalized": "B\u01b0\u0303a t\u00f4\u0301i", "translationKey": "tags_category_tag_dinner"}}], "restaurantDiningOptions": [{"tag": {"categoryId": 234, "tagId": 10602, "tagName": "Reservations", "tagNameLocalized": "\u0110\u0103\u0323t ch\u00f4\u0303", "translationKey": "tags_category_tag_reservations"}}, {"tag": {"categoryId": 234, "tagId": 10601, "tagName": "Takeout", "tagNameLocalized": "C\u01b0\u0309a ha\u0300ng ba\u0301n th\u01b0\u0301c \u0103n mang v\u00ea\u0300", "translationKey": "tags_category_tag_takeout"}}, {"tag": {"categoryId": 234, "tagId": 20994, "tagName": "BYOB", "tagNameLocalized": "\u0110\u1ed3 u\u1ed1ng t\u1ef1 mang", "translationKey": "tags_category_tag_byob"}}, {"tag": {"categoryId": 234, "tagId": 16547, "tagName": "Table Service", "tagNameLocalized": "D\u1ecbch v\u1ee5 b\u00e0n", "translationKey": "tags_category_tag_table_service"}}, {"tag": {"categoryId": 234, "tagId": 10861, "tagName": "Wheelchair Accessible", "tagNameLocalized": "L\u1ed1i v\u00e0o ra cho xe l\u0103n", "translationKey": "tags_category_tag_wheelchair_accessible"}}, {"tag": {"categoryId": 234, "tagId": 10852, "tagName": "Seating", "tagNameLocalized": "Ch\u1ed7 ng\u1ed3i", "translationKey": "tags_category_tag_seating"}}], "restaurantPrice": [{"tag": {"categoryId": 240, "tagId": 10955, "tagName": "Mid Range", "tagNameLocalized": "H\u1ea1ng trung", "translationKey": "tags_category_tag_mid_range"}}], "restaurantCuisines": [{"tag": {"categoryId": 231, "tagId": 4617, "tagName": "Italian", "tagNameLocalized": "Ki\u00ea\u0309u Y\u0301", "translationKey": "tags_category_tag_italian"}}, {"tag": {"categoryId": 231, "tagId": 10641, "tagName": "Pizza", "tagNameLocalized": "Pizza", "translationKey": "tags_category_tag_pizza"}}, {"tag": {"categoryId": 231, "tagId": 10666, "tagName": "Delicatessen", "tagNameLocalized": "C\u1eeda h\u00e0ng th\u1ee9c \u0103n ngon", "translationKey": "tags_category_tag_delicatessen_1"}}], "locations": [{"accommodationType": "T_UNKNOWN", "countryId": 191, "hoursOfOperation": {"dailyTimeIntervals": [{"day": "MONDAY", "timeIntervals": [{"openingTime": {"hours": 9, "minutes": 0}, "closingTime": {"hours": 20, "minutes": 0}}]}, {"day": "TUESDAY", "timeIntervals": [{"openingTime": {"hours": 9, "minutes": 0}, "closingTime": {"hours": 20, "minutes": 0}}]}, {"day": "WEDNESDAY", "timeIntervals": [{"openingTime": {"hours": 9, "minutes": 0}, "closingTime": {"hours": 20, "minutes": 0}}]}, {"day": "THURSDAY", "timeIntervals": [{"openingTime": {"hours": 9, "minutes": 0}, "closingTime": {"hours": 21, "minutes": 0}}]}, {"day": "FRIDAY", "timeIntervals": [{"openingTime": {"hours": 9, "minutes": 0}, "closingTime": {"hours": 21, "minutes": 0}}]}, {"day": "SATURDAY", "timeIntervals": [{"openingTime": {"hours": 9, "minutes": 0}, "closingTime": {"hours": 21, "minutes": 0}}]}, {"day": "SUNDAY", "timeIntervals": []}]}, "isClosed": false, "isOwner": false, "latitude": 39.98373, "localizedDescriptions": [], "localizedNames": [], "locationId": 918974, "locationV2": {"attractionTypes": []}, "longitude": -75.3777, "parentId": 52269, "placeType": "EATERY", "absoluteOwnerManagementUrl": "https://www.tripadvisor.com.vn/RSManagementCenter-d918974-Soprano_s_Trattoria_and_Caterers?cat=0&geo=52269", "email": "sopranoscatering@yahoo.com", "geoName": "Broomall", "isoCountryCode": "US", "localizedName": "Soprano's Trattoria and Caterers", "name": "Soprano's Trattoria and Caterers", "locationDescription": null, "officialUrl": "http://www.sopranostrattoria.com/?utm_source=organic_tripadvisor&utm_medium=ta_website", "postPhotosUrl": "/PostPhotos-d918974", "telephone": "+1 610-359-9355", "url": "/Restaurant_Review-g52269-d918974-Reviews-Soprano_s_Trattoria_and_Caterers-Broomall_Marple_Township_Pennsylvania.html", "writeUserReviewUrl": "/UserReview-g52269-d918974-Soprano_s_Trattoria_and_Caterers-Broomall_Marple_Township_Pennsylvania.html", "localizedStreetAddress": {"city": "Broomall", "country": "Hoa K\u1ef3", "fullAddress": "3072 W Chester Pike, Broomall, Marple Township, PA 19008-1236", "postalCode": "19008-1236", "state": "Pennsylvania:", "street1": "3072 W Chester Pike", "street2": ""}, "streetAddress": {"street1": "3072 W Chester Pike", "street2": "", "state": "Pennsylvania:", "city": "Broomall", "postalCode": "19008-1236", "fullAddress": "3072 W Chester Pike, Broomall, Marple Township, PA 19008-1236"}, "localizedStreetAddresses": [{"street1": null, "street2": null, "fullAddress": "3072 W Chester Pike, Broomall, Marple Township, PA 19008-1236", "locale": "fr_BE"}, {"street1": null, "street2": null, "fullAddress": "3072 W Chester Pike, Broomall, Marple Township, PA 19008-1236", "locale": "es_MX"}, {"street1": null, "street2": null, "fullAddress": "3072 W Chester Pike, Broomall, Marple Township, PA 19008-1236", "locale": "es_VE"}, {"street1": null, "street2": null, "fullAddress": "3072 W Chester Pike, BroomallMarple Township, PA", "locale": "zh_TW"}, {"street1": null, "street2": null, "fullAddress": "3072 W Chester Pike, BroomallMarple Township, PA", "locale": "zh_HK"}, {"street1": null, "street2": null, "fullAddress": "3072 W Chester Pike, Broomall, Marple Township, PA 19008-1236", "locale": "it"}, {"street1": null, "street2": null, "fullAddress": "3072 W Chester Pike, \ube0c\ub8f8\uc62c Marple Township, PA", "locale": "ko"}, {"street1": null, "street2": null, "fullAddress": "3072 W Chester Pike, Broomall, Marple Township, PA 19008-1236", "locale": "es_CL"}, {"street1": null, "street2": null, "fullAddress": "3072 W Chester Pike, Broomall, Marple Township, PA 19008-1236", "locale": "fi"}, {"street1": null, "street2": null, "fullAddress": "3072 W Chester Pike, Broomall, Marple Township, PA 19008-1236", "locale": "pt_PT"}, {"street1": null, "street2": null, "fullAddress": "3072 W Chester Pike, Broomall, Marple Township, PA 19008-1236", "locale": "en_US"}, {"street1": null, "street2": null, "fullAddress": "3072 W Chester Pike, Broomall, Marple Township, PA 19008-1236", "locale": "th"}, {"street1": null, "street2": null, "fullAddress": "3072 W Chester Pike, Broomall, Marple Township, PA 19008-1236", "locale": "en_SG"}, {"street1": null, "street2": null, "fullAddress": "3072 W Chester Pike, Broomall, Marple Township, PA 19008-1236", "locale": "pt"}, {"street1": null, "street2": null, "fullAddress": "3072 W Chester Pike, Broomall, Marple Township, PA 19008-1236", "locale": "en_UK"}, {"street1": null, "street2": null, "fullAddress": "3072 W Chester Pike, \u202bBroomall\u202c, \u202bMarple Township\u202c, \u0628\u0646\u0633\u064a\u0644\u0641\u0627\u0646\u064a\u0627 19008-1236", "locale": "ar"}, {"street1": null, "street2": null, "fullAddress": "3072 W Chester Pike, Broomall, Marple Township, PA 19008-1236", "locale": "ru"}, {"street1": null, "street2": null, "fullAddress": "3072 W Chester Pike, Broomall, Marple Township, PA 19008-1236", "locale": "en_NZ"}, {"street1": null, "street2": null, "fullAddress": "3072 W Chester Pike, Broomall, Marple Township, PA 19008-1236", "locale": "de_CH"}, {"street1": null, "street2": null, "fullAddress": "3072 W Chester Pike, Broomall, Marple Township, PA 19008-1236", "locale": "sk"}, {"street1": null, "street2": null, "fullAddress": "3072 W Chester Pike, Broomall, Marple Township, PA 19008-1236", "locale": "en_ZA"}, {"street1": null, "street2": null, "fullAddress": "3072 W Chester Pike, Broomall, Marple Township, PA 19008-1236", "locale": "cs"}, {"street1": null, "street2": null, "fullAddress": "3072 W Chester Pike, Broomall, Marple Township, PA 19008-1236", "locale": "sv"}, {"street1": null, "street2": null, "fullAddress": "3072 W Chester Pike, Broomall, Marple Township, PA 19008-1236", "locale": "el"}, {"street1": null, "street2": null, "fullAddress": "3072 W Chester Pike, Broomall, Marple Township, PA 19008-1236", "locale": "de_AT"}, {"street1": null, "street2": null, "fullAddress": "3072 W Chester Pike, Broomall, Marple Township, PA 19008-1236", "locale": "hu"}, {"street1": null, "street2": null, "fullAddress": "3072 W Chester Pike, Broomall, Marple Township, PA 19008-1236", "locale": "nl"}, {"street1": null, "street2": null, "fullAddress": "3072 W Chester Pike, Broomall, Marple Township, PA 19008-1236", "locale": "fr_CH"}, {"street1": null, "street2": null, "fullAddress": "3072 W Chester Pike, Broomall, Marple Township, PA 19008-1236", "locale": "en_AU"}, {"street1": null, "street2": null, "fullAddress": "3072 W Chester Pike, Broomall, Marple Township, PA 19008-1236", "locale": "in"}, {"street1": null, "street2": null, "fullAddress": "3072 W Chester Pike, Broomall, Marple Township, PA 19008-1236", "locale": "vi"}, {"street1": null, "street2": null, "fullAddress": "3072 W Chester Pike, Broomall, Marple Township, PA 19008-1236", "locale": "fr_CA"}, {"street1": null, "street2": null, "fullAddress": "3072 W Chester Pike, Broomall, Marple Township, PA 19008-1236", "locale": "es_AR"}, {"street1": null, "street2": null, "fullAddress": "3072 W Chester Pike, \u202bBroomall\u202c, \u202bMarple Township\u202c, \u0628\u0646\u0633\u064a\u0644\u0641\u0627\u0646\u064a\u0627 19008-1236", "locale": "ar_EG"}, {"street1": null, "street2": null, "fullAddress": "3072 W Chester Pike, Broomall, Marple Township, PA 19008-1236", "locale": "sr"}, {"street1": null, "street2": null, "fullAddress": "3072 W Chester Pike, Broomall, Marple Township, PA 19008-1236", "locale": "en_MY"}, {"street1": null, "street2": null, "fullAddress": "3072 W Chester Pike, Broomall, Marple Township, PA 19008-1236", "locale": "it_CH"}, {"street1": null, "street2": null, "fullAddress": "3072 W Chester Pike, Broomall, Marple Township, PA 19008-1236", "locale": "da"}, {"street1": null, "street2": null, "fullAddress": "3072 W Chester Pike, Broomall, Marple Township, PA 19008-1236", "locale": "es"}, {"street1": null, "street2": null, "fullAddress": "3072 W Chester Pike, Broomall, Marple Township, PA 19008-1236", "locale": "tr"}, {"street1": null, "street2": null, "fullAddress": "3072 W Chester Pike, Broomall, Marple Township, PA 19008-1236", "locale": "en_HK"}, {"street1": null, "street2": null, "fullAddress": "3072 W Chester Pike, Broomall, Marple Township, PA 19008-1236", "locale": "en_IE"}, {"street1": null, "street2": null, "fullAddress": "3072 W Chester Pike, Broomall, Marple Township, PA 19008-1236", "locale": "en_CA"}, {"street1": null, "street2": null, "fullAddress": "3072 W Chester Pike, Broomall, Marple Township, PA 19008-1236", "locale": "nl_BE"}, {"street1": null, "street2": null, "fullAddress": "3072 W Chester Pike, Broomall, Marple Township, PA 19008-1236", "locale": "pl"}, {"street1": null, "street2": null, "fullAddress": "3072 W Chester Pike, Broomall, Marple Township, PA 19008-1236", "locale": "no"}, {"street1": null, "street2": null, "fullAddress": "3072 W Chester Pike, BroomallMarple Township, PA", "locale": "zh_CN"}, {"street1": null, "street2": null, "fullAddress": "3072 W Chester Pike, Broomall, Marple Township, PA 19008-1236", "locale": "es_CO"}, {"street1": null, "street2": null, "fullAddress": "3072 W Chester Pike, Broomall, Marple Township, PA 19008-1236", "locale": "fr"}, {"street1": null, "street2": null, "fullAddress": "3072 W Chester Pike, \u30d6\u30eb\u30fc\u30e2\u30fc\u30eb\u30de\u30fc\u30d7\u30eb\u30fb\u30bf\u30a6\u30f3\u30b7\u30c3\u30d7, PA", "locale": "ja"}, {"street1": null, "street2": null, "fullAddress": "3072 W Chester Pike, \u202bBroomall\u202c, \u202bMarple Township\u202c, PA 19008-1236", "locale": "iw"}, {"street1": null, "street2": null, "fullAddress": "3072 W Chester Pike, Broomall, Marple Township, PA 19008-1236", "locale": "en_IN"}, {"street1": null, "street2": null, "fullAddress": "3072 W Chester Pike, Broomall, Marple Township, PA 19008-1236", "locale": "de"}, {"street1": null, "street2": null, "fullAddress": "3072 W Chester Pike, BroomallMarple Township, PA", "locale": "zh"}, {"street1": null, "street2": null, "fullAddress": "3072 W Chester Pike, Broomall, Marple Township, PA 19008-1236", "locale": "es_PE"}, {"street1": null, "street2": null, "fullAddress": "3072 W Chester Pike, Broomall, Marple Township, PA 19008-1236", "locale": "en_PH"}], "parents": [{"placeType": "CITY", "locationId": 52269, "name": "Broomall"}, {"placeType": "MUNICIPALITY", "locationId": 53115, "name": "Marple Township"}, {"placeType": "STATE", "locationId": 28959, "name": "Pennsylvania:"}, {"placeType": "COUNTRY", "locationId": 191, "name": "Hoa K\u1ef3"}, {"placeType": "CONTINENT", "locationId": 19, "name": "B\u0103\u0301c My\u0303"}, {"placeType": null, "locationId": 1, "name": "Th\u00ea\u0301 gi\u01a1\u0301i"}], "thumbnail": {"title": null, "photoSizes": [{"height": 0, "isHorizontal": false, "width": 0, "url": "https://dynamic-media-cdn.tripadvisor.com/media/photo-o/1c/12/2c/0c/pizza.jpg?w=100&h=100&s=1"}, {"height": 50, "isHorizontal": true, "width": 50, "url": "https://media-cdn.tripadvisor.com/media/photo-t/1c/12/2c/0c/pizza.jpg"}, {"height": 150, "isHorizontal": true, "width": 150, "url": "https://media-cdn.tripadvisor.com/media/photo-l/1c/12/2c/0c/pizza.jpg"}, {"height": 200, "isHorizontal": false, "width": 180, "url": "https://media-cdn.tripadvisor.com/media/photo-i/1c/12/2c/0c/pizza.jpg"}, {"height": 205, "isHorizontal": true, "width": 205, "url": "https://media-cdn.tripadvisor.com/media/photo-f/1c/12/2c/0c/pizza.jpg"}, {"height": 450, "isHorizontal": true, "width": 450, "url": "https://media-cdn.tripadvisor.com/media/photo-s/1c/12/2c/0c/pizza.jpg"}, {"height": 550, "isHorizontal": true, "width": 550, "url": "https://media-cdn.tripadvisor.com/media/photo-p/1c/12/2c/0c/pizza.jpg"}, {"height": 960, "isHorizontal": true, "width": 960, "url": "https://media-cdn.tripadvisor.com/media/photo-o/1c/12/2c/0c/pizza.jpg"}]}}]}}]