[{"data": {"accommodationType": [], "restaurantStyles": [{"tag": {"categoryId": 235, "tagId": 10604, "tagName": "Families with children", "tagNameLocalized": "Gia \u0111i\u0300nh co\u0301 tre\u0309 em", "translationKey": "tags_category_tag_families_with_children"}}], "restaurantTypes": [{"tag": {"categoryId": 230, "tagId": 10591, "tagName": "Restaurants", "tagNameLocalized": "Nha\u0300 ha\u0300ng", "translationKey": "tags_category_tag_restaurants"}}], "restaurantMealTypes": [{"tag": {"categoryId": 233, "tagId": 10606, "tagName": "Brunch", "tagNameLocalized": "B\u01b0\u0303a n\u01b0\u0309a bu\u00f4\u0309i", "translationKey": "tags_category_tag_brunch"}}, {"tag": {"categoryId": 233, "tagId": 10949, "tagName": "Drinks", "tagNameLocalized": "\u0110\u1ed3 u\u1ed1ng", "translationKey": "tags_category_tag_drinks"}}, {"tag": {"categoryId": 233, "tagId": 10598, "tagName": "Lunch", "tagNameLocalized": "B\u01b0\u0303a tr\u01b0a", "translationKey": "tags_category_tag_lunch"}}, {"tag": {"categoryId": 233, "tagId": 10597, "tagName": "Breakfast", "tagNameLocalized": "B\u1eefa s\u00e1ng", "translationKey": "tags_category_tag_breakfast"}}, {"tag": {"categoryId": 233, "tagId": 10599, "tagName": "Dinner", "tagNameLocalized": "B\u01b0\u0303a t\u00f4\u0301i", "translationKey": "tags_category_tag_dinner"}}], "restaurantDiningOptions": [{"tag": {"categoryId": 234, "tagId": 10602, "tagName": "Reservations", "tagNameLocalized": "\u0110\u0103\u0323t ch\u00f4\u0303", "translationKey": "tags_category_tag_reservations"}}, {"tag": {"categoryId": 234, "tagId": 10866, "tagName": "Accepts Mastercard", "tagNameLocalized": "Ch\u1ea5p nh\u1eadn th\u1ebb Mastercard", "translationKey": "tags_category_tag_accepts_mastercard"}}, {"tag": {"categoryId": 234, "tagId": 10601, "tagName": "Takeout", "tagNameLocalized": "C\u01b0\u0309a ha\u0300ng ba\u0301n th\u01b0\u0301c \u0103n mang v\u00ea\u0300", "translationKey": "tags_category_tag_takeout"}}, {"tag": {"categoryId": 234, "tagId": 10865, "tagName": "Accepts American Express", "tagNameLocalized": "Ch\u1ea5p nh\u1eadn th\u1ebb American Express", "translationKey": "tags_category_tag_accepts_american_express"}}, {"tag": {"categoryId": 234, "tagId": 10867, "tagName": "Accepts Visa", "tagNameLocalized": "Ch\u1ea5p nh\u1eadn th\u1ebb Visa", "translationKey": "tags_category_tag_accepts_visa"}}, {"tag": {"categoryId": 234, "tagId": 16547, "tagName": "Table Service", "tagNameLocalized": "D\u1ecbch v\u1ee5 b\u00e0n", "translationKey": "tags_category_tag_table_service"}}, {"tag": {"categoryId": 234, "tagId": 10860, "tagName": "Highchairs Available", "tagNameLocalized": "C\u00f3 gh\u1ebf \u0103n cho b\u00e9", "translationKey": "tags_category_tag_highchairs_available"}}, {"tag": {"categoryId": 234, "tagId": 10871, "tagName": "Accepts Discover", "tagNameLocalized": "Ch\u1ea5p nh\u1eadn th\u1ebb Discover", "translationKey": "tags_category_tag_accepts_discover"}}, {"tag": {"categoryId": 234, "tagId": 10870, "tagName": "Free Wifi", "tagNameLocalized": "Wifi mi\u1ec5n ph\u00ed", "translationKey": "tags_category_tag_free_wifi_restaurant_dining_options"}}, {"tag": {"categoryId": 234, "tagId": 10862, "tagName": "Serves Alcohol", "tagNameLocalized": "Ph\u1ee5c v\u1ee5 \u0111\u1ed3 u\u1ed1ng c\u00f3 c\u1ed3n", "translationKey": "tags_category_tag_serves_alcohol"}}, {"tag": {"categoryId": 234, "tagId": 10861, "tagName": "Wheelchair Accessible", "tagNameLocalized": "L\u1ed1i v\u00e0o ra cho xe l\u0103n", "translationKey": "tags_category_tag_wheelchair_accessible"}}, {"tag": {"categoryId": 234, "tagId": 10852, "tagName": "Seating", "tagNameLocalized": "Ch\u1ed7 ng\u1ed3i", "translationKey": "tags_category_tag_seating"}}], "restaurantPrice": [{"tag": {"categoryId": 240, "tagId": 10955, "tagName": "Mid Range", "tagNameLocalized": "H\u1ea1ng trung", "translationKey": "tags_category_tag_mid_range"}}], "restaurantCuisines": [{"tag": {"categoryId": 231, "tagId": 10649, "tagName": "Mediterranean", "tagNameLocalized": "Ki\u00ea\u0309u \u0110i\u0323a Trung Ha\u0309i", "translationKey": "tags_category_tag_mediterranean"}}, {"tag": {"categoryId": 231, "tagId": 10687, "tagName": "Middle Eastern", "tagNameLocalized": "Ki\u00ea\u0309u Trung \u0110\u00f4ng", "translationKey": "tags_category_tag_middle_eastern"}}], "locations": [{"accommodationType": "T_UNKNOWN", "countryId": 191, "hoursOfOperation": {"dailyTimeIntervals": [{"day": "MONDAY", "timeIntervals": []}, {"day": "TUESDAY", "timeIntervals": [{"openingTime": {"hours": 10, "minutes": 0}, "closingTime": {"hours": 23, "minutes": 0}}]}, {"day": "WEDNESDAY", "timeIntervals": [{"openingTime": {"hours": 10, "minutes": 0}, "closingTime": {"hours": 23, "minutes": 0}}]}, {"day": "THURSDAY", "timeIntervals": [{"openingTime": {"hours": 10, "minutes": 0}, "closingTime": {"hours": 23, "minutes": 0}}]}, {"day": "FRIDAY", "timeIntervals": [{"openingTime": {"hours": 10, "minutes": 0}, "closingTime": {"hours": 23, "minutes": 0}}]}, {"day": "SATURDAY", "timeIntervals": [{"openingTime": {"hours": 10, "minutes": 0}, "closingTime": {"hours": 23, "minutes": 0}}]}, {"day": "SUNDAY", "timeIntervals": [{"openingTime": {"hours": 10, "minutes": 0}, "closingTime": {"hours": 21, "minutes": 0}}]}]}, "isClosed": false, "isOwner": false, "latitude": 39.948994, "localizedDescriptions": [], "localizedNames": [], "locationId": 9763528, "locationV2": {"attractionTypes": []}, "longitude": -75.21445, "parentId": 60795, "placeType": "EATERY", "absoluteOwnerManagementUrl": "https://www.tripadvisor.com.vn/RSManagementCenter-d9763528-Renata_s_Kitchen?cat=0&geo=60795", "email": "kate@renatas.net", "geoName": "Philadelphia", "isoCountryCode": "US", "localizedName": "Renata's Kitchen", "name": "Renata's Kitchen", "locationDescription": null, "officialUrl": "http://www.renatas-kitchen.com/", "postPhotosUrl": "/PostPhotos-d9763528", "telephone": "+1 267-275-8254", "url": "/Restaurant_Review-g60795-d9763528-Reviews-Renata_s_Kitchen-Philadelphia_Pennsylvania.html", "writeUserReviewUrl": "/UserReview-g60795-d9763528-Renata_s_Kitchen-Philadelphia_Pennsylvania.html", "localizedStreetAddress": {"city": "Philadelphia", "country": "Hoa K\u1ef3", "fullAddress": "3940 Baltimore Ave, Philadelphia, PA 19104", "postalCode": "19104", "state": "Pennsylvania:", "street1": "3940 Baltimore Ave", "street2": ""}, "streetAddress": {"street1": "3940 Baltimore Ave", "street2": "", "state": "Pennsylvania:", "city": "Philadelphia", "postalCode": "19104", "fullAddress": "3940 Baltimore Ave, Philadelphia, PA 19104"}, "localizedStreetAddresses": [{"street1": null, "street2": null, "fullAddress": "3940 Baltimore Ave, Filadelfia, PA 19104", "locale": "es_MX"}, {"street1": null, "street2": null, "fullAddress": "3940 Baltimore Ave, Philadelphie, PA 19104", "locale": "fr_BE"}, {"street1": null, "street2": null, "fullAddress": "3940 Baltimore Ave, Filadelfia, PA 19104", "locale": "es_VE"}, {"street1": null, "street2": null, "fullAddress": "3940 Baltimore Ave, \u8cbb\u57ce, PA", "locale": "zh_HK"}, {"street1": null, "street2": null, "fullAddress": "3940 Baltimore Ave, \u8cbb\u57ce, PA", "locale": "zh_TW"}, {"street1": null, "street2": null, "fullAddress": "3940 Baltimore Ave, Philadelphia, PA 19104", "locale": "it"}, {"street1": null, "street2": null, "fullAddress": "3940 Baltimore Ave, \ud544\ub77c\ub378\ud53c\uc544, PA", "locale": "ko"}, {"street1": null, "street2": null, "fullAddress": "3940 Baltimore Ave, Filadelfia, PA 19104", "locale": "es_CL"}, {"street1": null, "street2": null, "fullAddress": "3940 Baltimore Ave, Philadelphia, PA 19104", "locale": "fi"}, {"street1": null, "street2": null, "fullAddress": "3940 Baltimore Ave, Filad\u00e9lfia, PA 19104", "locale": "pt_PT"}, {"street1": null, "street2": null, "fullAddress": "3940 Baltimore Ave, Philadelphia, PA 19104", "locale": "en_US"}, {"street1": null, "street2": null, "fullAddress": "3940 Baltimore Ave, \u0e1f\u0e34\u0e25\u0e32\u0e40\u0e14\u0e25\u0e40\u0e1f\u0e35\u0e22, PA 19104", "locale": "th"}, {"street1": null, "street2": null, "fullAddress": "3940 Baltimore Ave, Philadelphia, PA 19104", "locale": "en_SG"}, {"street1": null, "street2": null, "fullAddress": "3940 Baltimore Ave, Philadelphia, PA 19104", "locale": "en_UK"}, {"street1": null, "street2": null, "fullAddress": "3940 Baltimore Ave, Filad\u00e9lfia, PA 19104", "locale": "pt"}, {"street1": null, "street2": null, "fullAddress": "3940 Baltimore Ave, \u0641\u064a\u0644\u0627\u062f\u0644\u0641\u064a\u0627, \u0628\u0646\u0633\u064a\u0644\u0641\u0627\u0646\u064a\u0627 19104", "locale": "ar"}, {"street1": null, "street2": null, "fullAddress": "3940 Baltimore Ave, \u0424\u0438\u043b\u0430\u0434\u0435\u043b\u044c\u0444\u0438\u044f, PA 19104", "locale": "ru"}, {"street1": null, "street2": null, "fullAddress": "3940 Baltimore Ave, Philadelphia, PA 19104", "locale": "en_NZ"}, {"street1": null, "street2": null, "fullAddress": "3940 Baltimore Ave, Philadelphia, PA 19104", "locale": "de_CH"}, {"street1": null, "street2": null, "fullAddress": "3940 Baltimore Ave, Philadelphia, PA 19104", "locale": "sk"}, {"street1": null, "street2": null, "fullAddress": "3940 Baltimore Ave, Philadelphia, PA 19104", "locale": "en_ZA"}, {"street1": null, "street2": null, "fullAddress": "3940 Baltimore Ave, Philadelphia, PA 19104", "locale": "sv"}, {"street1": null, "street2": null, "fullAddress": "3940 Baltimore Ave, Filadelfie, PA 19104", "locale": "cs"}, {"street1": null, "street2": null, "fullAddress": "3940 Baltimore Ave, \u03a6\u03b9\u03bb\u03b1\u03b4\u03ad\u03bb\u03c6\u03b5\u03b9\u03b1, PA 19104", "locale": "el"}, {"street1": null, "street2": null, "fullAddress": "3940 Baltimore Ave, Philadelphia, PA 19104", "locale": "de_AT"}, {"street1": null, "street2": null, "fullAddress": "3940 Baltimore Ave, Philadelphia, PA 19104", "locale": "nl"}, {"street1": null, "street2": null, "fullAddress": "3940 Baltimore Ave, Philadelphia, PA 19104", "locale": "hu"}, {"street1": null, "street2": null, "fullAddress": "3940 Baltimore Ave, Philadelphie, PA 19104", "locale": "fr_CH"}, {"street1": null, "street2": null, "fullAddress": "3940 Baltimore Ave, Philadelphia, PA 19104", "locale": "en_AU"}, {"street1": null, "street2": null, "fullAddress": "3940 Baltimore Ave, Philadelphia, PA 19104", "locale": "in"}, {"street1": null, "street2": null, "fullAddress": "3940 Baltimore Ave, Philadelphia, PA 19104", "locale": "vi"}, {"street1": null, "street2": null, "fullAddress": "3940 Baltimore Ave, Philadelphie, PA 19104", "locale": "fr_CA"}, {"street1": null, "street2": null, "fullAddress": "3940 Baltimore Ave, Filadelfia, PA 19104", "locale": "es_AR"}, {"street1": null, "street2": null, "fullAddress": "3940 Baltimore Ave, \u0641\u064a\u0644\u0627\u062f\u0644\u0641\u064a\u0627, \u0628\u0646\u0633\u064a\u0644\u0641\u0627\u0646\u064a\u0627 19104", "locale": "ar_EG"}, {"street1": null, "street2": null, "fullAddress": "3940 Baltimore Ave, Philadelphia, PA 19104", "locale": "en_MY"}, {"street1": null, "street2": null, "fullAddress": "3940 Baltimore Ave, Filadelfija, PA 19104", "locale": "sr"}, {"street1": null, "street2": null, "fullAddress": "3940 Baltimore Ave, Philadelphia, PA 19104", "locale": "it_CH"}, {"street1": null, "street2": null, "fullAddress": "3940 Baltimore Ave, Philadelphia, PA 19104", "locale": "da"}, {"street1": null, "street2": null, "fullAddress": "3940 Baltimore Ave, Filadelfia, PA 19104", "locale": "es"}, {"street1": null, "street2": null, "fullAddress": "3940 Baltimore Ave, Philadelphia, PA 19104", "locale": "tr"}, {"street1": null, "street2": null, "fullAddress": "3940 Baltimore Ave, Philadelphia, PA 19104", "locale": "en_HK"}, {"street1": null, "street2": null, "fullAddress": "3940 Baltimore Ave, Philadelphia, PA 19104", "locale": "en_IE"}, {"street1": null, "street2": null, "fullAddress": "3940 Baltimore Ave, Philadelphia, PA 19104", "locale": "en_CA"}, {"street1": null, "street2": null, "fullAddress": "3940 Baltimore Ave, Philadelphia, PA 19104", "locale": "no"}, {"street1": null, "street2": null, "fullAddress": "3940 Baltimore Ave, Filadelfia, PA 19104", "locale": "pl"}, {"street1": null, "street2": null, "fullAddress": "3940 Baltimore Ave, Philadelphia, PA 19104", "locale": "nl_BE"}, {"street1": null, "street2": null, "fullAddress": "3940 Baltimore Ave, \u8d39\u57ce, PA", "locale": "zh_CN"}, {"street1": null, "street2": null, "fullAddress": "3940 Baltimore Ave, Filadelfia, PA 19104", "locale": "es_CO"}, {"street1": null, "street2": null, "fullAddress": "3940 Baltimore Ave, Philadelphie, PA 19104", "locale": "fr"}, {"street1": null, "street2": null, "fullAddress": "3940 Baltimore Ave, \u30d5\u30a3\u30e9\u30c7\u30eb\u30d5\u30a3\u30a2, PA", "locale": "ja"}, {"street1": null, "street2": null, "fullAddress": "3940 Baltimore Ave, \u05e4\u05d9\u05dc\u05d3\u05dc\u05e4\u05d9\u05d4, PA 19104", "locale": "iw"}, {"street1": null, "street2": null, "fullAddress": "3940 Baltimore Ave, Philadelphia, PA 19104", "locale": "de"}, {"street1": null, "street2": null, "fullAddress": "3940 Baltimore Ave, Philadelphia, PA 19104", "locale": "en_IN"}, {"street1": null, "street2": null, "fullAddress": "3940 Baltimore Ave, \u8d39\u57ce, PA", "locale": "zh"}, {"street1": null, "street2": null, "fullAddress": "3940 Baltimore Ave, Filadelfia, PA 19104", "locale": "es_PE"}, {"street1": null, "street2": null, "fullAddress": "3940 Baltimore Ave, Philadelphia, PA 19104", "locale": "en_PH"}], "parents": [{"placeType": "CITY", "locationId": 60795, "name": "Philadelphia"}, {"placeType": "STATE", "locationId": 28959, "name": "Pennsylvania:"}, {"placeType": "COUNTRY", "locationId": 191, "name": "Hoa K\u1ef3"}, {"placeType": "CONTINENT", "locationId": 19, "name": "B\u0103\u0301c My\u0303"}, {"placeType": null, "locationId": 1, "name": "Th\u00ea\u0301 gi\u01a1\u0301i"}], "thumbnail": {"title": null, "photoSizes": [{"height": 0, "isHorizontal": true, "width": 0, "url": "https://dynamic-media-cdn.tripadvisor.com/media/photo-o/15/7a/28/fc/croque-madame-2-slices.jpg?w=100&h=100&s=1"}, {"height": 50, "isHorizontal": true, "width": 50, "url": "https://media-cdn.tripadvisor.com/media/photo-t/15/7a/28/fc/croque-madame-2-slices.jpg"}, {"height": 150, "isHorizontal": true, "width": 150, "url": "https://media-cdn.tripadvisor.com/media/photo-l/15/7a/28/fc/croque-madame-2-slices.jpg"}, {"height": 200, "isHorizontal": false, "width": 180, "url": "https://media-cdn.tripadvisor.com/media/photo-i/15/7a/28/fc/croque-madame-2-slices.jpg"}, {"height": 141, "isHorizontal": true, "width": 250, "url": "https://media-cdn.tripadvisor.com/media/photo-f/15/7a/28/fc/croque-madame-2-slices.jpg"}, {"height": 309, "isHorizontal": true, "width": 550, "url": "https://media-cdn.tripadvisor.com/media/photo-s/15/7a/28/fc/croque-madame-2-slices.jpg"}, {"height": 576, "isHorizontal": true, "width": 1024, "url": "https://media-cdn.tripadvisor.com/media/photo-w/15/7a/28/fc/croque-madame-2-slices.jpg"}, {"height": 720, "isHorizontal": true, "width": 1280, "url": "https://media-cdn.tripadvisor.com/media/photo-m/1280/15/7a/28/fc/croque-madame-2-slices.jpg"}]}}]}}]